rosbagTimestamp,header,seq,stamp,secs,nsecs,frame_id,pose,position,x,y,z
1690464345847710776,,8357,,1690464345,847641066,"""world""",,,3.3687500953674316,13.151101112365723,0.043135710060596466
1690464345847715713,,8358,,1690464345,847654146,"""world""",,,3.3687222003936768,13.151158332824707,0.043177589774131775
1690464345867729846,,8359,,1690464345,867655879,"""world""",,,3.3687069416046143,13.151153564453125,0.043160732835531235
1690464345877701046,,8360,,1690464345,877662052,"""world""",,,3.3687362670898438,13.151095390319824,0.043125882744789124
1690464345887698500,,8361,,1690464345,887638264,"""world""",,,3.3687384128570557,13.151148796081543,0.043187640607357025
1690464345897691399,,8362,,1690464345,897636854,"""world""",,,3.36869740486145,13.151129722595215,0.04317297041416168
1690464345907689259,,8363,,1690464345,907630359,"""world""",,,3.3687756061553955,13.151074409484863,0.04313025623559952
1690464345917679434,,8364,,1690464345,917626441,"""world""",,,3.3687379360198975,13.151153564453125,0.04317982867360115
1690464345927698836,,8365,,1690464345,927634949,"""world""",,,3.3686840534210205,13.151144981384277,0.0431608222424984
1690464345937691262,,8366,,1690464345,937638233,"""world""",,,3.3687937259674072,13.151092529296875,0.043147917836904526
1690464345937697224,,8367,,1690464345,937661504,"""world""",,,3.368751049041748,13.151153564453125,0.04318961128592491
1690464345947704891,,8368,,1690464345,947637979,"""world""",,,3.3686904907226562,13.151143074035645,0.043156012892723083
1690464345967708229,,8369,,1690464345,967635499,"""world""",,,3.3687705993652344,13.151130676269531,0.04315672814846039
1690464345967713513,,8370,,1690464345,967647245,"""world""",,,3.3687450885772705,13.151150703430176,0.04318125545978546
1690464345987686796,,8371,,1690464345,987632150,"""world""",,,3.368687868118286,13.15114688873291,0.04315165430307388
1690464345997707119,,8372,,1690464345,997637502,"""world""",,,3.3687453269958496,13.151130676269531,0.04317816346883774
1690464345997710461,,8373,,1690464345,997648889,"""world""",,,3.368751049041748,13.151139259338379,0.043170616030693054
1690464346017697580,,8374,,1690464346,17634091,"""world""",,,3.368687152862549,13.151152610778809,0.04315511882305145
1690464346027721811,,8375,,1690464346,27633821,"""world""",,,3.3687586784362793,13.151148796081543,0.04318469390273094
1690464346037693950,,8376,,1690464346,37630048,"""world""",,,3.3687431812286377,13.151161193847656,0.043175674974918365
1690464346037697274,,8377,,1690464346,37641153,"""world""",,,3.3686790466308594,13.151153564453125,0.04314165934920311
1690464346057740038,,8378,,1690464346,57669318,"""world""",,,3.368765115737915,13.151142120361328,0.04318223521113396
1690464346057748700,,8379,,1690464346,57681141,"""world""",,,3.3687586784362793,13.15114688873291,0.04314924031496048
1690464346067725478,,8380,,1690464346,67635577,"""world""",,,3.368662118911743,13.151138305664062,0.04310585558414459
1690464346087693347,,8381,,1690464346,87632669,"""world""",,,3.3687825202941895,13.151127815246582,0.043191175907850266
1690464346097708491,,8382,,1690464346,97641021,"""world""",,,3.368765354156494,13.151127815246582,0.04315027594566345
1690464346107713268,,8383,,1690464346,107645701,"""world""",,,3.3686888217926025,13.15112590789795,0.04309043288230896
1690464346117719816,,8384,,1690464346,117643363,"""world""",,,3.3687708377838135,13.151127815246582,0.04317581653594971
1690464346127738900,,8385,,1690464346,127642707,"""world""",,,3.3687644004821777,13.151135444641113,0.04313502833247185
1690464346127742349,,8386,,1690464346,127655075,"""world""",,,3.3687021732330322,13.15112590789795,0.04311066493391991
1690464346147697236,,8387,,1690464346,147635396,"""world""",,,3.3687736988067627,13.151123046875,0.043170880526304245
1690464346157693568,,8388,,1690464346,157634649,"""world""",,,3.3687710762023926,13.151134490966797,0.04314275085926056
1690464346167731648,,8389,,1690464346,167664665,"""world""",,,3.3686981201171875,13.15114688873291,0.043132197111845016
1690464346167739040,,8390,,1690464346,167677661,"""world""",,,3.3687660694122314,13.151134490966797,0.043169185519218445
1690464346187685645,,8391,,1690464346,187630275,"""world""",,,3.368774890899658,13.151134490966797,0.043140482157468796
1690464346197708326,,8392,,1690464346,197636760,"""world""",,,3.368685245513916,13.151172637939453,0.043157827109098434
1690464346197711140,,8393,,1690464346,197650307,"""world""",,,3.368757486343384,13.151124000549316,0.04316391050815582
1690464346207694881,,8394,,1690464346,207628540,"""world""",,,3.368760585784912,13.151124000549316,0.04313744604587555
1690464346217690016,,8395,,1690464346,217630922,"""world""",,,3.3686916828155518,13.151183128356934,0.04314618185162544
1690464346237724436,,8396,,1690464346,237661904,"""world""",,,3.3687584400177,13.151130676269531,0.043151646852493286
1690464346237727871,,8397,,1690464346,237674386,"""world""",,,3.3687567710876465,13.151122093200684,0.043135374784469604
1690464346257724952,,8398,,1690464346,257663567,"""world""",,,3.368671178817749,13.15117359161377,0.04313980042934418
1690464346267704106,,8399,,1690464346,267634290,"""world""",,,3.368746280670166,13.151129722595215,0.04314841330051422
1690464346267711527,,8400,,1690464346,267645137,"""world""",,,3.3687515258789062,13.151110649108887,0.043114401400089264
1690464346287713051,,8401,,1690464346,287635602,"""world""",,,3.368710994720459,13.1511869430542,0.043167270720005035
1690464346297724236,,8402,,1690464346,297639553,"""world""",,,3.368731737136841,13.151135444641113,0.04315240681171417
1690464346297728698,,8403,,1690464346,297651595,"""world""",,,3.3687479496002197,13.151095390319824,0.04311632364988327
1690464346307734262,,8404,,1690464346,307637796,"""world""",,,3.3687212467193604,13.151165962219238,0.04317263513803482
1690464346327711315,,8405,,1690464346,327639799,"""world""",,,3.3687424659729004,13.151138305664062,0.04313899204134941
1690464346337695617,,8406,,1690464346,337627580,"""world""",,,3.3687801361083984,13.151092529296875,0.04313690960407257
1690464346337701022,,8407,,1690464346,337637599,"""world""",,,3.368706703186035,13.151175498962402,0.043168678879737854
1690464346357689799,,8408,,1690464346,357633113,"""world""",,,3.3687174320220947,13.151137351989746,0.043144382536411285
1690464346367809871,,8409,,1690464346,367665980,"""world""",,,3.368785858154297,13.15109920501709,0.043138064444065094
1690464346377705760,,8410,,1690464346,377655037,"""world""",,,3.3687210083007812,13.151161193847656,0.04314608499407768
1690464346387734838,,8411,,1690464346,387662325,"""world""",,,3.368729591369629,13.151148796081543,0.04314952343702316
1690464346397714576,,8412,,1690464346,397637826,"""world""",,,3.3687634468078613,13.151124000549316,0.043147869408130646
1690464346397723451,,8413,,1690464346,397650683,"""world""",,,3.368727684020996,13.1511812210083,0.04315086454153061
1690464346417777749,,8414,,1690464346,417669204,"""world""",,,3.368743419647217,13.151152610778809,0.04314630851149559
1690464346427717862,,8415,,1690464346,427641566,"""world""",,,3.3687477111816406,13.15113353729248,0.04316183924674988
1690464346437781611,,8416,,1690464346,437661742,"""world""",,,3.3687286376953125,13.151164054870605,0.04315350204706192
1690464346437792807,,8417,,1690464346,437673611,"""world""",,,3.3687238693237305,13.151129722595215,0.04311656206846237
1690464346457718840,,8418,,1690464346,457642170,"""world""",,,3.3687589168548584,13.151145935058594,0.043180156499147415
1690464346467747926,,8419,,1690464346,467671545,"""world""",,,3.3687050342559814,13.151171684265137,0.04315090924501419
1690464346477763937,,8420,,1690464346,477656401,"""world""",,,3.3687095642089844,13.151130676269531,0.04311543330550194
1690464346477771718,,8421,,1690464346,477666233,"""world""",,,3.368769407272339,13.151161193847656,0.043201178312301636
1690464346497737750,,8422,,1690464346,497663442,"""world""",,,3.368711471557617,13.151168823242188,0.0431634746491909
1690464346497750541,,8423,,1690464346,497679669,"""world""",,,3.3687057495117188,13.151145935058594,0.04312790930271149
1690464346517700843,,8424,,1690464346,517634438,"""world""",,,3.368776798248291,13.151141166687012,0.043191418051719666
1690464346527749502,,8425,,1690464346,527645231,"""world""",,,3.3686952590942383,13.151187896728516,0.0431671142578125
1690464346537720972,,8426,,1690464346,537659563,"""world""",,,3.3687167167663574,13.151135444641113,0.04314730688929558
1690464346537730529,,8427,,1690464346,537670897,"""world""",,,3.3687946796417236,13.151077270507812,0.04314213991165161
1690464346557738535,,8428,,1690464346,557672875,"""world""",,,3.368727922439575,13.1511812210083,0.04319554194808006
1690464346557750125,,8429,,1690464346,557686069,"""world""",,,3.36873459815979,13.15114688873291,0.04318659007549286
1690464346577723565,,8430,,1690464346,577654581,"""world""",,,3.3687477111816406,13.151143074035645,0.04315570741891861
1690464346587719667,,8431,,1690464346,587658321,"""world""",,,3.3687024116516113,13.151130676269531,0.043109260499477386
1690464346587725189,,8432,,1690464346,587670270,"""world""",,,3.3687281608581543,13.151122093200684,0.04316321760416031
1690464346607697655,,8433,,1690464346,607633063,"""world""",,,3.368734121322632,13.151134490966797,0.04316915571689606
1690464346617729210,,8434,,1690464346,617659526,"""world""",,,3.3687567710876465,13.151092529296875,0.04320649057626724
1690464346617737545,,8435,,1690464346,617673448,"""world""",,,3.368727922439575,13.151150703430176,0.04316733777523041
1690464346637722085,,8436,,1690464346,637629142,"""world""",,,3.3687334060668945,13.151131629943848,0.04318991303443909
1690464346647738378,,8437,,1690464346,647663884,"""world""",,,3.3687243461608887,13.151171684265137,0.04317286238074303
1690464346647742104,,8438,,1690464346,647678821,"""world""",,,3.3687117099761963,13.15116024017334,0.04320531710982323
1690464346667738667,,8439,,1690464346,667636739,"""world""",,,3.36871075630188,13.151165962219238,0.04319886118173599
1690464346677704570,,8440,,1690464346,677618849,"""world""",,,3.368705987930298,13.151137351989746,0.04318216070532799
1690464346687686183,,8441,,1690464346,687628753,"""world""",,,3.3687191009521484,13.151124000549316,0.04320653900504112
1690464346697695914,,8442,,1690464346,697636851,"""world""",,,3.3686890602111816,13.151122093200684,0.04319276660680771
1690464346707691753,,8443,,1690464346,707630685,"""world""",,,3.3687024116516113,13.151108741760254,0.04322157800197601
1690464346717726131,,8444,,1690464346,717629602,"""world""",,,3.3686726093292236,13.151084899902344,0.04322066530585289
1690464346717733152,,8445,,1690464346,717640923,"""world""",,,3.368692636489868,13.151076316833496,0.04324794560670853
1690464346737683496,,8446,,1690464346,737625980,"""world""",,,3.368683338165283,13.151042938232422,0.043231695890426636
1690464346747700011,,8447,,1690464346,747632330,"""world""",,,3.3686580657958984,13.150986671447754,0.04318634420633316
1690464346747703908,,8448,,1690464346,747645333,"""world""",,,3.368666648864746,13.151041984558105,0.04326261579990387
1690464346767700181,,8449,,1690464346,767634448,"""world""",,,3.3686485290527344,13.151008605957031,0.0432589128613472
1690464346767707378,,8450,,1690464346,767647962,"""world""",,,3.368683338165283,13.15102481842041,0.04328890144824982
1690464346777665838,,8451,,1690464346,777618145,"""world""",,,3.368657350540161,13.150959968566895,0.043276067823171616
1690464346797737169,,8452,,1690464346,797645836,"""world""",,,3.3686180114746094,13.150932312011719,0.043257422745227814
1690464346807744033,,8453,,1690464346,807661966,"""world""",,,3.3686039447784424,13.150935173034668,0.04328293725848198
1690464346817695758,,8454,,1690464346,817631497,"""world""",,,3.3685872554779053,13.15090560913086,0.04335774853825569
1690464346827746368,,8455,,1690464346,827635563,"""world""",,,3.3685855865478516,13.150866508483887,0.043267957866191864
1690464346837713551,,8456,,1690464346,837626293,"""world""",,,3.36857271194458,13.15091609954834,0.04336259886622429
1690464346847696826,,8457,,1690464346,847634077,"""world""",,,3.3686187267303467,13.150897979736328,0.0433875173330307
1690464346857729972,,8458,,1690464346,857646423,"""world""",,,3.368518590927124,13.150958061218262,0.04340488836169243
1690464346867698226,,8459,,1690464346,867633904,"""world""",,,3.368610382080078,13.15099048614502,0.04344126954674721
1690464346877712709,,8460,,1690464346,877620620,"""world""",,,3.3685903549194336,13.151005744934082,0.04345620796084404
1690464346887692585,,8461,,1690464346,887627234,"""world""",,,3.368539810180664,13.151066780090332,0.04354295879602432
1690464346897736089,,8462,,1690464346,897636790,"""world""",,,3.368557929992676,13.15107250213623,0.04362574219703674
1690464346907698741,,8463,,1690464346,907632609,"""world""",,,3.3685874938964844,13.151080131530762,0.04371696338057518
1690464346907706936,,8464,,1690464346,907642558,"""world""",,,3.3686835765838623,13.151080131530762,0.0439474955201149
1690464346927755155,,8465,,1690464346,927650739,"""world""",,,3.3688127994537354,13.15107250213623,0.04418210685253143
1690464346937729098,,8466,,1690464346,937625560,"""world""",,,3.3689873218536377,13.151107788085938,0.04464944824576378
1690464346937736797,,8467,,1690464346,937635141,"""world""",,,3.3690733909606934,13.151156425476074,0.045232806354761124
1690464346957736916,,8468,,1690464346,957652560,"""world""",,,3.369279146194458,13.1511812210083,0.046089544892311096
1690464346967729845,,8469,,1690464346,967664464,"""world""",,,3.369347095489502,13.151322364807129,0.04721513018012047
1690464346967733419,,8470,,1690464346,967676825,"""world""",,,3.369438648223877,13.151493072509766,0.048428263515233994
1690464346987726297,,8471,,1690464346,987662654,"""world""",,,3.369457721710205,13.151549339294434,0.04987857863306999
1690464346997701679,,8472,,1690464346,997636888,"""world""",,,3.3695731163024902,13.15173625946045,0.05161110684275627
1690464346997707314,,8473,,1690464346,997649018,"""world""",,,3.3696770668029785,13.15186595916748,0.05381258577108383
1690464347017708382,,8474,,1690464347,17630508,"""world""",,,3.3697683811187744,13.15194034576416,0.056200411170721054
1690464347027726688,,8475,,1690464347,27644233,"""world""",,,3.3698856830596924,13.152071952819824,0.05902732536196709
1690464347037767110,,8476,,1690464347,37687308,"""world""",,,3.3699915409088135,13.15210247039795,0.062177009880542755
1690464347037771737,,8477,,1690464347,37704309,"""world""",,,3.3701117038726807,13.152241706848145,0.06571570038795471
1690464347047716361,,8478,,1690464347,47635650,"""world""",,,3.3700971603393555,13.15234375,0.06976351886987686
1690464347067803024,,8479,,1690464347,67666458,"""world""",,,3.3702337741851807,13.15271282196045,0.07425521314144135
1690464347077742056,,8480,,1690464347,77636331,"""world""",,,3.370403528213501,13.152957916259766,0.07899929583072662
1690464347077750044,,8481,,1690464347,77648081,"""world""",,,3.3704423904418945,13.153141975402832,0.08408531546592712
1690464347097756101,,8482,,1690464347,97644328,"""world""",,,3.3705291748046875,13.153307914733887,0.0893407016992569
1690464347107699378,,8483,,1690464347,107638976,"""world""",,,3.3706421852111816,13.153465270996094,0.09491850435733795
1690464347117703711,,8484,,1690464347,117633030,"""world""",,,3.3708908557891846,13.153752326965332,0.10091701149940491
1690464347117710913,,8485,,1690464347,117646350,"""world""",,,3.3711392879486084,13.154078483581543,0.10695461183786392
1690464347137700228,,8486,,1690464347,137638657,"""world""",,,3.371413230895996,13.154186248779297,0.11325050890445709
1690464347137704236,,8487,,1690464347,137650690,"""world""",,,3.3716847896575928,13.154431343078613,0.11964164674282074
1690464347157724284,,8488,,1690464347,157648266,"""world""",,,3.371852397918701,13.154613494873047,0.12631019949913025
1690464347167727315,,8489,,1690464347,167635326,"""world""",,,3.372066020965576,13.1549711227417,0.13299663364887238
1690464347177700235,,8490,,1690464347,177618962,"""world""",,,3.3721795082092285,13.155232429504395,0.13989432156085968
1690464347187688095,,8491,,1690464347,187628755,"""world""",,,3.372199535369873,13.155508995056152,0.14692863821983337
1690464347197759541,,8492,,1690464347,197650057,"""world""",,,3.3724100589752197,13.155854225158691,0.15380707383155823
1690464347197764054,,8493,,1690464347,197682227,"""world""",,,3.372589111328125,13.156200408935547,0.16080652177333832
1690464347207721131,,8494,,1690464347,207663188,"""world""",,,3.372785806655884,13.156418800354004,0.16778051853179932
1690464347227769676,,8495,,1690464347,227681612,"""world""",,,3.3729894161224365,13.156791687011719,0.17488618195056915
1690464347237719448,,8496,,1690464347,237661599,"""world""",,,3.373365640640259,13.157057762145996,0.18165600299835205
1690464347247747968,,8497,,1690464347,247685299,"""world""",,,3.3736062049865723,13.15746021270752,0.18871955573558807
1690464347257693510,,8498,,1690464347,257632960,"""world""",,,3.373697280883789,13.157755851745605,0.19554224610328674
1690464347267766921,,8499,,1690464347,267667594,"""world""",,,3.3738088607788086,13.158209800720215,0.2022654414176941
1690464347277702494,,8500,,1690464347,277622381,"""world""",,,3.3739712238311768,13.158541679382324,0.2090545892715454
1690464347287699201,,8501,,1690464347,287633052,"""world""",,,3.374063491821289,13.158822059631348,0.2155364751815796
1690464347287707572,,8502,,1690464347,287645113,"""world""",,,3.3743724822998047,13.159213066101074,0.22199851274490356
1690464347307728649,,8503,,1690464347,307666533,"""world""",,,3.3745453357696533,13.159549713134766,0.22829598188400269
1690464347317744117,,8504,,1690464347,317669106,"""world""",,,3.3747456073760986,13.159919738769531,0.23453888297080994
1690464347317748405,,8505,,1690464347,317681923,"""world""",,,3.374955177307129,13.160176277160645,0.2405642718076706
1690464347337689131,,8506,,1690464347,337630507,"""world""",,,3.3751611709594727,13.160483360290527,0.2464698851108551
1690464347347691740,,8507,,1690464347,347634857,"""world""",,,3.375347137451172,13.16076946258545,0.25223368406295776
1690464347357747009,,8508,,1690464347,357668155,"""world""",,,3.375405788421631,13.160972595214844,0.2579074501991272
1690464347357757945,,8509,,1690464347,357680101,"""world""",,,3.375443696975708,13.1613187789917,0.26334601640701294
1690464347367722557,,8510,,1690464347,367664485,"""world""",,,3.3756356239318848,13.161617279052734,0.26875853538513184
1690464347387722522,,8511,,1690464347,387660325,"""world""",,,3.3756654262542725,13.16186237335205,0.27387672662734985
1690464347387731674,,8512,,1690464347,387671858,"""world""",,,3.3758344650268555,13.162280082702637,0.27903544902801514
1690464347407689650,,8513,,1690464347,407633895,"""world""",,,3.3758530616760254,13.162564277648926,0.28398221731185913
1690464347417695374,,8514,,1690464347,417627574,"""world""",,,3.3759498596191406,13.162849426269531,0.2889198958873749
1690464347427702637,,8515,,1690464347,427637365,"""world""",,,3.3760976791381836,13.163193702697754,0.2936464846134186
1690464347437681604,,8516,,1690464347,437625786,"""world""",,,3.376167058944702,13.163527488708496,0.29832983016967773
1690464347437687124,,8517,,1690464347,437635957,"""world""",,,3.37626576423645,13.163825988769531,0.3028213679790497
1690464347457712909,,8518,,1690464347,457635203,"""world""",,,3.3766050338745117,13.164149284362793,0.3072355389595032
1690464347457717804,,8519,,1690464347,457647375,"""world""",,,3.3767426013946533,13.164484977722168,0.31163841485977173
1690464347467748181,,8520,,1690464347,467647152,"""world""",,,3.3768420219421387,13.164685249328613,0.31588631868362427
1690464347487699245,,8521,,1690464347,487631564,"""world""",,,3.376905679702759,13.164902687072754,0.3200935423374176
1690464347487706138,,8522,,1690464347,487643110,"""world""",,,3.376946449279785,13.1651029586792,0.32426366209983826
1690464347507721587,,8523,,1690464347,507634017,"""world""",,,3.3771018981933594,13.16530990600586,0.32849544286727905
1690464347517700117,,8524,,1690464347,517627649,"""world""",,,3.3771278858184814,13.165570259094238,0.33250176906585693
1690464347527715654,,8525,,1690464347,527639056,"""world""",,,3.3771097660064697,13.165741920471191,0.3366129994392395
1690464347527720441,,8526,,1690464347,527650489,"""world""",,,3.3771660327911377,13.165977478027344,0.3408001959323883
1690464347547740374,,8527,,1690464347,547635856,"""world""",,,3.377192974090576,13.166168212890625,0.344632625579834
1690464347547748492,,8528,,1690464347,547646972,"""world""",,,3.3772099018096924,13.1663179397583,0.3485848605632782
1690464347567730552,,8529,,1690464347,567640149,"""world""",,,3.377310276031494,13.166455268859863,0.3526378870010376
1690464347577674217,,8530,,1690464347,577618630,"""world""",,,3.377366065979004,13.166603088378906,0.35644620656967163
1690464347587681577,,8531,,1690464347,587629361,"""world""",,,3.3774280548095703,13.166740417480469,0.3604733645915985
1690464347597710050,,8532,,1690464347,597644916,"""world""",,,3.3775932788848877,13.16698169708252,0.36436134576797485
1690464347607767309,,8533,,1690464347,607633255,"""world""",,,3.377584457397461,13.167130470275879,0.36814364790916443
1690464347617724498,,8534,,1690464347,617628407,"""world""",,,3.377634286880493,13.167309761047363,0.37218332290649414
1690464347627760428,,8535,,1690464347,627648341,"""world""",,,3.3775887489318848,13.167473793029785,0.3761557340621948
1690464347637686162,,8536,,1690464347,637627937,"""world""",,,3.377622127532959,13.167559623718262,0.3800118565559387
1690464347637689870,,8537,,1690464347,637638420,"""world""",,,3.3777103424072266,13.167755126953125,0.38399121165275574
1690464347647738463,,8538,,1690464347,647645475,"""world""",,,3.3776111602783203,13.167915344238281,0.38793444633483887
1690464347667734178,,8539,,1690464347,667638440,"""world""",,,3.3775734901428223,13.167915344238281,0.39172857999801636
1690464347667740577,,8540,,1690464347,667649601,"""world""",,,3.37774395942688,13.168109893798828,0.3956265449523926
1690464347677736669,,8541,,1690464347,677648660,"""world""",,,3.3776583671569824,13.16815185546875,0.3994673192501068
1690464347697741967,,8542,,1690464347,697643047,"""world""",,,3.3777105808258057,13.168147087097168,0.4033370614051819
1690464347697748719,,8543,,1690464347,697655950,"""world""",,,3.377737522125244,13.168221473693848,0.4072772264480591
1690464347717775004,,8544,,1690464347,717640122,"""world""",,,3.377732276916504,13.168208122253418,0.4110260605812073
1690464347727774606,,8545,,1690464347,727684703,"""world""",,,3.3776679039001465,13.168235778808594,0.41491299867630005
1690464347737723059,,8546,,1690464347,737632844,"""world""",,,3.3775627613067627,13.168290138244629,0.41877472400665283
1690464347747735626,,8547,,1690464347,747637970,"""world""",,,3.3774776458740234,13.168278694152832,0.4225880801677704
1690464347757729672,,8548,,1690464347,757636112,"""world""",,,3.3774092197418213,13.168362617492676,0.4263753294944763
1690464347757733428,,8549,,1690464347,757647426,"""world""",,,3.3772988319396973,13.16834545135498,0.43009597063064575
1690464347777749412,,8550,,1690464347,777627455,"""world""",,,3.3772549629211426,13.168350219726562,0.433864951133728
1690464347777754722,,8551,,1690464347,777637827,"""world""",,,3.3771183490753174,13.168339729309082,0.437582790851593
1690464347787755569,,8552,,1690464347,787629627,"""world""",,,3.376929521560669,13.1682710647583,0.44116294384002686
1690464347807699333,,8553,,1690464347,807634267,"""world""",,,3.3767776489257812,13.168330192565918,0.44483983516693115
1690464347817704237,,8554,,1690464347,817627851,"""world""",,,3.376675844192505,13.16815185546875,0.4482315182685852
1690464347817711868,,8555,,1690464347,817640008,"""world""",,,3.376577854156494,13.168041229248047,0.45172250270843506
1690464347837689451,,8556,,1690464347,837631054,"""world""",,,3.3765077590942383,13.167850494384766,0.45502883195877075
1690464347847698641,,8557,,1690464347,847633362,"""world""",,,3.3763554096221924,13.167550086975098,0.45837607979774475
1690464347847704513,,8558,,1690464347,847643933,"""world""",,,3.3763833045959473,13.167206764221191,0.46169614791870117
1690464347857707514,,8559,,1690464347,857633158,"""world""",,,3.3763444423675537,13.166905403137207,0.4648142457008362
1690464347877714227,,8560,,1690464347,877625873,"""world""",,,3.376309394836426,13.166455268859863,0.4680037200450897
1690464347887680947,,8561,,1690464347,887628421,"""world""",,,3.3761367797851562,13.165932655334473,0.47105535864830017
1690464347897715715,,8562,,1690464347,897647830,"""world""",,,3.3759853839874268,13.165570259094238,0.47425729036331177
1690464347907716374,,8563,,1690464347,907637422,"""world""",,,3.37589168548584,13.165059089660645,0.4772152602672577
1690464347907720793,,8564,,1690464347,907650833,"""world""",,,3.3756494522094727,13.164528846740723,0.48030421137809753
1690464347917738229,,8565,,1690464347,917668064,"""world""",,,3.3755669593811035,13.164006233215332,0.4833027124404907
1690464347937734107,,8566,,1690464347,937659674,"""world""",,,3.3754100799560547,13.163403511047363,0.48644185066223145
1690464347937743370,,8567,,1690464347,937674184,"""world""",,,3.3753209114074707,13.162718772888184,0.4894462823867798
1690464347957736328,,8568,,1690464347,957665295,"""world""",,,3.375326156616211,13.16205883026123,0.4924390912055969
1690464347967747393,,8569,,1690464347,967670741,"""world""",,,3.375185251235962,13.161312103271484,0.49554741382598877
1690464347967755889,,8570,,1690464347,967685495,"""world""",,,3.3750908374786377,13.160491943359375,0.49849933385849
1690464347987718744,,8571,,1690464347,987658468,"""world""",,,3.3752689361572266,13.15966510772705,0.5014557838439941
1690464347997777116,,8572,,1690464347,997675707,"""world""",,,3.375279664993286,13.158687591552734,0.504425048828125
1690464347997783834,,8573,,1690464347,997695958,"""world""",,,3.3751816749572754,13.15762710571289,0.5074125528335571
1690464348017699461,,8574,,1690464348,17634378,"""world""",,,3.375185489654541,13.156586647033691,0.5104340314865112
1690464348027731263,,8575,,1690464348,27648311,"""world""",,,3.3751072883605957,13.155531883239746,0.5133907198905945
1690464348037677195,,8576,,1690464348,37625590,"""world""",,,3.374957323074341,13.154293060302734,0.5163600444793701
1690464348037686587,,8577,,1690464348,37634483,"""world""",,,3.374845504760742,13.15305233001709,0.5193039774894714
1690464348057756688,,8578,,1690464348,57637067,"""world""",,,3.374861240386963,13.151863098144531,0.522236168384552
1690464348057765348,,8579,,1690464348,57649063,"""world""",,,3.3749353885650635,13.150412559509277,0.5251612663269043
1690464348077676425,,8580,,1690464348,77624676,"""world""",,,3.3750412464141846,13.149027824401855,0.5280413627624512
1690464348087681329,,8581,,1690464348,87626812,"""world""",,,3.3751070499420166,13.147353172302246,0.5308637619018555
1690464348087686439,,8582,,1690464348,87636223,"""world""",,,3.3749499320983887,13.14583683013916,0.5337783694267273
1690464348107728697,,8583,,1690464348,107638121,"""world""",,,3.375044107437134,13.144007682800293,0.5364941358566284
1690464348117760634,,8584,,1690464348,117656348,"""world""",,,3.3752424716949463,13.142268180847168,0.5394070744514465
1690464348117768478,,8585,,1690464348,117667179,"""world""",,,3.3752808570861816,13.14041519165039,0.5422803163528442
1690464348137738136,,8586,,1690464348,137631556,"""world""",,,3.37539005279541,13.13847827911377,0.5450215339660645
1690464348147706377,,8587,,1690464348,147634539,"""world""",,,3.3753509521484375,13.13648509979248,0.5478896498680115
1690464348157773093,,8588,,1690464348,157664455,"""world""",,,3.3754398822784424,13.134262084960938,0.5507040023803711
1690464348157780981,,8589,,1690464348,157674735,"""world""",,,3.3756165504455566,13.13199234008789,0.5534125566482544
1690464348177713686,,8590,,1690464348,177626335,"""world""",,,3.375704526901245,13.129692077636719,0.5561239123344421
1690464348187711608,,8591,,1690464348,187628918,"""world""",,,3.375791311264038,13.127312660217285,0.5589734315872192
1690464348197751370,,8592,,1690464348,197650780,"""world""",,,3.3759498596191406,13.124672889709473,0.5616926550865173
1690464348207762674,,8593,,1690464348,207631371,"""world""",,,3.3761885166168213,13.122074127197266,0.5643619298934937
1690464348217762900,,8594,,1690464348,217627474,"""world""",,,3.3763222694396973,13.119463920593262,0.5670737624168396
1690464348227738044,,8595,,1690464348,227645955,"""world""",,,3.3765177726745605,13.116551399230957,0.5696983337402344
1690464348237726673,,8596,,1690464348,237630344,"""world""",,,3.3767499923706055,13.11358642578125,0.5721956491470337
1690464348237735096,,8597,,1690464348,237640428,"""world""",,,3.3769264221191406,13.110735893249512,0.5749369859695435
1690464348257692966,,8598,,1690464348,257636213,"""world""",,,3.3771843910217285,13.10768985748291,0.577532172203064
1690464348267706190,,8599,,1690464348,267637853,"""world""",,,3.3772802352905273,13.104451179504395,0.5800951719284058
1690464348267715206,,8600,,1690464348,267648876,"""world""",,,3.3775789737701416,13.101115226745605,0.5825995802879333
1690464348287720893,,8601,,1690464348,287635480,"""world""",,,3.3778812885284424,13.097747802734375,0.5851909518241882
1690464348297699107,,8602,,1690464348,297637006,"""world""",,,3.3781704902648926,13.094206809997559,0.5876685380935669
1690464348307699139,,8603,,1690464348,307635977,"""world""",,,3.3783440589904785,13.090583801269531,0.5901588797569275
1690464348317739853,,8604,,1690464348,317635579,"""world""",,,3.3786277770996094,13.086979866027832,0.5926489233970642
1690464348327734309,,8605,,1690464348,327632864,"""world""",,,3.3790619373321533,13.08321475982666,0.5952104926109314
1690464348337684916,,8606,,1690464348,337629825,"""world""",,,3.3793153762817383,13.079316139221191,0.5976142287254333
1690464348347693960,,8607,,1690464348,347631893,"""world""",,,3.379629135131836,13.075217247009277,0.6000343561172485
1690464348357691145,,8608,,1690464348,357631587,"""world""",,,3.3798699378967285,13.071173667907715,0.6024522185325623
1690464348367698205,,8609,,1690464348,367631558,"""world""",,,3.3802273273468018,13.066981315612793,0.6048866510391235
1690464348377667093,,8610,,1690464348,377618202,"""world""",,,3.3804543018341064,13.062812805175781,0.6073635816574097
1690464348387698423,,8611,,1690464348,387624623,"""world""",,,3.3808650970458984,13.058395385742188,0.6097473502159119
1690464348397711881,,8612,,1690464348,397632964,"""world""",,,3.381105899810791,13.054011344909668,0.6121690273284912
1690464348397717446,,8613,,1690464348,397647361,"""world""",,,3.3814501762390137,13.049439430236816,0.61463463306427
1690464348407693835,,8614,,1690464348,407630380,"""world""",,,3.3818981647491455,13.044822692871094,0.6169760227203369
1690464348427731269,,8615,,1690464348,427633201,"""world""",,,3.382148265838623,13.04003620147705,0.6194256544113159
1690464348437687368,,8616,,1690464348,437628006,"""world""",,,3.3827080726623535,13.035120964050293,0.6218318343162537
1690464348447694902,,8617,,1690464348,447632703,"""world""",,,3.3830456733703613,13.030223846435547,0.6241516470909119
1690464348457712241,,8618,,1690464348,457638655,"""world""",,,3.3834733963012695,13.025179862976074,0.6265544295310974
1690464348467717767,,8619,,1690464348,467646317,"""world""",,,3.3839497566223145,13.020137786865234,0.6289169788360596
1690464348477694397,,8620,,1690464348,477625097,"""world""",,,3.3843424320220947,13.014885902404785,0.6312626600265503
1690464348477702780,,8621,,1690464348,477637045,"""world""",,,3.3846046924591064,13.009541511535645,0.6336514949798584
1690464348487705007,,8622,,1690464348,487629401,"""world""",,,3.3851377964019775,13.004195213317871,0.6360408067703247
1690464348507695300,,8623,,1690464348,507633816,"""world""",,,3.3855018615722656,12.998645782470703,0.6383371353149414
1690464348517699445,,8624,,1690464348,517627261,"""world""",,,3.3860793113708496,12.99321460723877,0.6405777931213379
1690464348517703459,,8625,,1690464348,517639223,"""world""",,,3.386497974395752,12.987486839294434,0.642723798751831
1690464348527695740,,8626,,1690464348,527627198,"""world""",,,3.386828660964966,12.981857299804688,0.6447278261184692
1690464348547700841,,8627,,1690464348,547632069,"""world""",,,3.3873767852783203,12.976147651672363,0.6466759443283081
1690464348547708289,,8628,,1690464348,547645168,"""world""",,,3.3878214359283447,12.970176696777344,0.6485028266906738
1690464348567693421,,8629,,1690464348,567633513,"""world""",,,3.3881936073303223,12.96435832977295,0.6502911448478699
1690464348577732846,,8630,,1690464348,577657639,"""world""",,,3.38870906829834,12.958317756652832,0.6519283056259155
1690464348587679477,,8631,,1690464348,587624796,"""world""",,,3.3892576694488525,12.952247619628906,0.6534945368766785
1690464348587684947,,8632,,1690464348,587643413,"""world""",,,3.3897507190704346,12.946003913879395,0.6549373269081116
1690464348607708931,,8633,,1690464348,607635153,"""world""",,,3.3901758193969727,12.939797401428223,0.6563445925712585
1690464348617701355,,8634,,1690464348,617626112,"""world""",,,3.390639305114746,12.933502197265625,0.6577285528182983
1690464348627685154,,8635,,1690464348,627627868,"""world""",,,3.391099214553833,12.927169799804688,0.6590375900268555
1690464348637683182,,8636,,1690464348,637628554,"""world""",,,3.3915858268737793,12.920809745788574,0.66033935546875
1690464348647692757,,8637,,1690464348,647633592,"""world""",,,3.3921608924865723,12.914198875427246,0.6615849137306213
1690464348657700192,,8638,,1690464348,657631650,"""world""",,,3.3926873207092285,12.907795906066895,0.6628009676933289
1690464348667736524,,8639,,1690464348,667633323,"""world""",,,3.393092393875122,12.90120792388916,0.6638875007629395
1690464348667743550,,8640,,1690464348,667645405,"""world""",,,3.3934719562530518,12.89444637298584,0.6651032567024231
1690464348687732657,,8641,,1690464348,687626933,"""world""",,,3.3941826820373535,12.887680053710938,0.6660249829292297
1690464348697702352,,8642,,1690464348,697636327,"""world""",,,3.394876003265381,12.881022453308105,0.6669905781745911
1690464348697710519,,8643,,1690464348,697649097,"""world""",,,3.3953850269317627,12.874070167541504,0.6679283976554871
1690464348717749091,,8644,,1690464348,717647327,"""world""",,,3.3958802223205566,12.867149353027344,0.6689122319221497
1690464348727694729,,8645,,1690464348,727631260,"""world""",,,3.396348237991333,12.86011791229248,0.669804573059082
1690464348737700505,,8646,,1690464348,737632020,"""world""",,,3.3968582153320312,12.85311222076416,0.670606791973114
1690464348747690477,,8647,,1690464348,747632315,"""world""",,,3.3974220752716064,12.846046447753906,0.6714794039726257
1690464348757692385,,8648,,1690464348,757632770,"""world""",,,3.397935152053833,12.839007377624512,0.6723651885986328
1690464348767697299,,8649,,1690464348,767633806,"""world""",,,3.3984909057617188,12.83175277709961,0.673078715801239
1690464348777687129,,8650,,1690464348,777619266,"""world""",,,3.399017333984375,12.82453441619873,0.6738889217376709
1690464348787685811,,8651,,1690464348,787630620,"""world""",,,3.399541139602661,12.817268371582031,0.6746997833251953
1690464348797700162,,8652,,1690464348,797641074,"""world""",,,3.400134325027466,12.809944152832031,0.675534188747406
1690464348807688660,,8653,,1690464348,807631019,"""world""",,,3.4006805419921875,12.80257797241211,0.676201581954956
1690464348817716406,,8654,,1690464348,817624495,"""world""",,,3.4013772010803223,12.795199394226074,0.676800549030304
1690464348817724763,,8655,,1690464348,817635057,"""world""",,,3.401862621307373,12.787652015686035,0.6775432229042053
1690464348837703200,,8656,,1690464348,837629967,"""world""",,,3.4023571014404297,12.780123710632324,0.6783129572868347
1690464348847698925,,8657,,1690464348,847634533,"""world""",,,3.40297532081604,12.772547721862793,0.6789248585700989
1690464348857701332,,8658,,1690464348,857633469,"""world""",,,3.403538703918457,12.765056610107422,0.6795091032981873
1690464348857705120,,8659,,1690464348,857646322,"""world""",,,3.4040024280548096,12.757536888122559,0.6803016066551208
1690464348877713442,,8660,,1690464348,877624258,"""world""",,,3.404472827911377,12.749954223632812,0.6809479594230652
1690464348887754042,,8661,,1690464348,887635078,"""world""",,,3.4050092697143555,12.742340087890625,0.6815834045410156
1690464348897726390,,8662,,1690464348,897647698,"""world""",,,3.405538558959961,12.734794616699219,0.6822232604026794
1690464348907694675,,8663,,1690464348,907635066,"""world""",,,3.406028985977173,12.727107048034668,0.6828214526176453
1690464348917701719,,8664,,1690464348,917631770,"""world""",,,3.4065194129943848,12.719422340393066,0.683372974395752
1690464348927765529,,8665,,1690464348,927632733,"""world""",,,3.4070358276367188,12.711762428283691,0.6839005351066589
1690464348937731864,,8666,,1690464348,937635317,"""world""",,,3.4073662757873535,12.704002380371094,0.684385359287262
1690464348947698991,,8667,,1690464348,947636464,"""world""",,,3.407782793045044,12.696208000183105,0.6848145127296448
1690464348947705929,,8668,,1690464348,947647945,"""world""",,,3.4080517292022705,12.688422203063965,0.6852055191993713
1690464348967727117,,8669,,1690464348,967635584,"""world""",,,3.4083917140960693,12.680508613586426,0.6855106353759766
1690464348977694982,,8670,,1690464348,977619521,"""world""",,,3.4086413383483887,12.6726713180542,0.685894787311554
1690464348987694757,,8671,,1690464348,987631363,"""world""",,,3.4087374210357666,12.664767265319824,0.6862396001815796
1690464348997722258,,8672,,1690464348,997646036,"""world""",,,3.4089808464050293,12.656917572021484,0.6864792704582214
1690464349007759049,,8673,,1690464349,7665590,"""world""",,,3.40914249420166,12.6489896774292,0.68669193983078
1690464349017767304,,8674,,1690464349,17678822,"""world""",,,3.4092323780059814,12.641085624694824,0.686849057674408
1690464349027702322,,8675,,1690464349,27636306,"""world""",,,3.4092345237731934,12.63318920135498,0.6870903372764587
1690464349037758253,,8676,,1690464349,37665223,"""world""",,,3.409214973449707,12.625245094299316,0.6872929930686951
1690464349047691357,,8677,,1690464349,47631452,"""world""",,,3.4091312885284424,12.617328643798828,0.6874287724494934
1690464349057705997,,8678,,1690464349,57635371,"""world""",,,3.409032106399536,12.609339714050293,0.6875905990600586
1690464349067740828,,8679,,1690464349,67636326,"""world""",,,3.4087657928466797,12.601402282714844,0.6876963376998901
1690464349077746209,,8680,,1690464349,77618785,"""world""",,,3.408555269241333,12.59341049194336,0.6878194808959961
1690464349087727190,,8681,,1690464349,87627889,"""world""",,,3.4081146717071533,12.585524559020996,0.6880017518997192
1690464349097724973,,8682,,1690464349,97644592,"""world""",,,3.4078540802001953,12.577502250671387,0.6880397200584412
1690464349097734315,,8683,,1690464349,97660533,"""world""",,,3.4073643684387207,12.569525718688965,0.6881937384605408
1690464349117762812,,8684,,1690464349,117637522,"""world""",,,3.407008409500122,12.561482429504395,0.6881300210952759
1690464349117775836,,8685,,1690464349,117652281,"""world""",,,3.4064316749572754,12.553494453430176,0.6882342100143433
1690464349137722506,,8686,,1690464349,137632103,"""world""",,,3.405733823776245,12.545578002929688,0.6883344054222107
1690464349147729589,,8687,,1690464349,147634495,"""world""",,,3.404999017715454,12.537617683410645,0.6883679628372192
1690464349147734180,,8688,,1690464349,147645625,"""world""",,,3.4040768146514893,12.529597282409668,0.6884504556655884
1690464349167768956,,8689,,1690464349,167634861,"""world""",,,3.4031593799591064,12.521597862243652,0.6884867548942566
1690464349177701393,,8690,,1690464349,177616289,"""world""",,,3.402132034301758,12.5135498046875,0.6884375810623169
1690464349187700339,,8691,,1690464349,187628916,"""world""",,,3.4009690284729004,12.50559139251709,0.6884710192680359
1690464349197736492,,8692,,1690464349,197655532,"""world""",,,3.399848222732544,12.497542381286621,0.6884520053863525
1690464349197742824,,8693,,1690464349,197685959,"""world""",,,3.3985629081726074,12.48950481414795,0.688430905342102
1690464349207789295,,8694,,1690464349,207659478,"""world""",,,3.396982192993164,12.481579780578613,0.6885256171226501
1690464349217762785,,8695,,1690464349,217677475,"""world""",,,3.3954901695251465,12.473583221435547,0.6884958148002625
1690464349237723488,,8696,,1690464349,237663554,"""world""",,,3.3938374519348145,12.465474128723145,0.6884571313858032
1690464349247690544,,8697,,1690464349,247633432,"""world""",,,3.3920836448669434,12.457480430603027,0.6884557008743286
1690464349257743537,,8698,,1690464349,257637010,"""world""",,,3.3901150226593018,12.449554443359375,0.6884598135948181
1690464349267765259,,8699,,1690464349,267667240,"""world""",,,3.388031005859375,12.44146728515625,0.6884936690330505
1690464349277705282,,8700,,1690464349,277652887,"""world""",,,3.3861184120178223,12.433505058288574,0.6884263157844543
1690464349287713894,,8701,,1690464349,287659806,"""world""",,,3.3838014602661133,12.425559997558594,0.6883798241615295
1690464349297741853,,8702,,1690464349,297647746,"""world""",,,3.38151216506958,12.417523384094238,0.6882917284965515
1690464349307727111,,8703,,1690464349,307664176,"""world""",,,3.378957986831665,12.409530639648438,0.6881939172744751
1690464349317721815,,8704,,1690464349,317657670,"""world""",,,3.3764162063598633,12.401581764221191,0.6881944537162781
1690464349317726465,,8705,,1690464349,317678793,"""world""",,,3.3737571239471436,12.393585205078125,0.6880152821540833
1690464349337708421,,8706,,1690464349,337632704,"""world""",,,3.370994806289673,12.38561725616455,0.6879281401634216
1690464349347691670,,8707,,1690464349,347635033,"""world""",,,3.3680269718170166,12.37767505645752,0.687850832939148
1690464349357743429,,8708,,1690464349,357679807,"""world""",,,3.365006685256958,12.369585990905762,0.6876553297042847
1690464349367701107,,8709,,1690464349,367640454,"""world""",,,3.3617160320281982,12.361735343933105,0.687592625617981
1690464349377669099,,8710,,1690464349,377619273,"""world""",,,3.35844087600708,12.353565216064453,0.6873816847801208
1690464349387678391,,8711,,1690464349,387626129,"""world""",,,3.3551604747772217,12.345641136169434,0.6870852708816528
1690464349397706975,,8712,,1690464349,397638455,"""world""",,,3.35162615776062,12.337746620178223,0.6869620084762573
1690464349407767787,,8713,,1690464349,407662605,"""world""",,,3.3478400707244873,12.32977294921875,0.6868920922279358
1690464349407772128,,8714,,1690464349,407671716,"""world""",,,3.3441720008850098,12.321727752685547,0.6865218281745911
1690464349427763647,,8715,,1690464349,427637539,"""world""",,,3.340325355529785,12.313887596130371,0.6864418387413025
1690464349437695642,,8716,,1690464349,437630391,"""world""",,,3.3364193439483643,12.30588150024414,0.6861873865127563
1690464349447729461,,8717,,1690464349,447664925,"""world""",,,3.3321704864501953,12.297958374023438,0.6859923005104065
1690464349457761396,,8718,,1690464349,457638593,"""world""",,,3.3282055854797363,12.290038108825684,0.6857001185417175
1690464349467801049,,8719,,1690464349,467693930,"""world""",,,3.32391619682312,12.282218933105469,0.6855277419090271
1690464349467805807,,8720,,1690464349,467725951,"""world""",,,3.319446563720703,12.274299621582031,0.6853175163269043
1690464349487710184,,8721,,1690464349,487635743,"""world""",,,3.3149232864379883,12.266404151916504,0.6850725412368774
1690464349497787820,,8722,,1690464349,497656244,"""world""",,,3.310415029525757,12.258355140686035,0.684718668460846
1690464349497792126,,8723,,1690464349,497677475,"""world""",,,3.3056299686431885,12.250508308410645,0.6845493912696838
1690464349517730005,,8724,,1690464349,517628166,"""world""",,,3.3007776737213135,12.242618560791016,0.6842511892318726
1690464349527705891,,8725,,1690464349,527633080,"""world""",,,3.296093225479126,12.2346830368042,0.6838077902793884
1690464349537740547,,8726,,1690464349,537632065,"""world""",,,3.2910866737365723,12.226737022399902,0.6835481524467468
1690464349547705381,,8727,,1690464349,547634896,"""world""",,,3.2860779762268066,12.218981742858887,0.6832590699195862
1690464349547712116,,8728,,1690464349,547645901,"""world""",,,3.2809245586395264,12.211079597473145,0.6829226613044739
1690464349567730484,,8729,,1690464349,567636731,"""world""",,,3.275749683380127,12.203104972839355,0.6824998259544373
1690464349577692365,,8730,,1690464349,577618336,"""world""",,,3.270515203475952,12.1952486038208,0.6820768713951111
1690464349587695470,,8731,,1690464349,587626245,"""world""",,,3.2650463581085205,12.187487602233887,0.6817951798439026
1690464349587703071,,8732,,1690464349,587635583,"""world""",,,3.259669780731201,12.179615020751953,0.6814411878585815
1690464349607725285,,8733,,1690464349,607632607,"""world""",,,3.2544121742248535,12.171676635742188,0.6809073090553284
1690464349617673080,,8734,,1690464349,617619302,"""world""",,,3.248802423477173,12.163798332214355,0.6805113554000854
1690464349627695262,,8735,,1690464349,627634726,"""world""",,,3.2432475090026855,12.155972480773926,0.6800854206085205
1690464349637730568,,8736,,1690464349,637673596,"""world""",,,3.237666606903076,12.148245811462402,0.6796241402626038
1690464349647705360,,8737,,1690464349,647639172,"""world""",,,3.232081651687622,12.140362739562988,0.6791397333145142
1690464349657751813,,8738,,1690464349,657643327,"""world""",,,3.226543664932251,12.132494926452637,0.678663432598114
1690464349657759000,,8739,,1690464349,657654012,"""world""",,,3.2207963466644287,12.124701499938965,0.6783229112625122
1690464349677746673,,8740,,1690464349,677656673,"""world""",,,3.2150156497955322,12.116826057434082,0.6778966784477234
1690464349687713069,,8741,,1690464349,687629211,"""world""",,,3.209287166595459,12.108959197998047,0.6773132681846619
1690464349697740171,,8742,,1690464349,697640071,"""world""",,,3.203443765640259,12.101178169250488,0.6769115328788757
1690464349707730392,,8743,,1690464349,707632056,"""world""",,,3.197638511657715,12.093453407287598,0.6765053272247314
1690464349717668907,,8744,,1690464349,717619994,"""world""",,,3.1917881965637207,12.085591316223145,0.6760762333869934
1690464349727709793,,8745,,1690464349,727635104,"""world""",,,3.185908079147339,12.077835083007812,0.6756778955459595
1690464349737690334,,8746,,1690464349,737628281,"""world""",,,3.180015802383423,12.069968223571777,0.6752372980117798
1690464349737696703,,8747,,1690464349,737638759,"""world""",,,3.1741816997528076,12.062171936035156,0.6747704148292542
1690464349757718146,,8748,,1690464349,757637525,"""world""",,,3.16821551322937,12.05437183380127,0.6743605136871338
1690464349767749684,,8749,,1690464349,767634566,"""world""",,,3.162410020828247,12.046534538269043,0.6739101409912109
1690464349767757025,,8750,,1690464349,767645496,"""world""",,,3.1565184593200684,12.03875732421875,0.6734764575958252
1690464349787723072,,8751,,1690464349,787660538,"""world""",,,3.150614023208618,12.030933380126953,0.673048198223114
1690464349797762637,,8752,,1690464349,797682852,"""world""",,,3.1448020935058594,12.023123741149902,0.6726095676422119
1690464349797769783,,8753,,1690464349,797713044,"""world""",,,3.138990879058838,12.015238761901855,0.6721348166465759
1690464349807724261,,8754,,1690464349,807665235,"""world""",,,3.1331050395965576,12.007331848144531,0.6716369986534119
1690464349827725531,,8755,,1690464349,827635835,"""world""",,,3.127321481704712,11.999489784240723,0.671156108379364
1690464349837767737,,8756,,1690464349,837665491,"""world""",,,3.1215364933013916,11.991612434387207,0.6707141399383545
1690464349837774871,,8757,,1690464349,837677085,"""world""",,,3.115767002105713,11.983699798583984,0.6701588034629822
1690464349857751045,,8758,,1690464349,857673065,"""world""",,,3.1101491451263428,11.975799560546875,0.6696468591690063
1690464349867726246,,8759,,1690464349,867638244,"""world""",,,3.1044881343841553,11.967766761779785,0.6690641641616821
1690464349867731051,,8760,,1690464349,867665838,"""world""",,,3.0987727642059326,11.959843635559082,0.6685577630996704
1690464349887765096,,8761,,1690464349,887670655,"""world""",,,3.093247890472412,11.951889991760254,0.6679971218109131
1690464349897725191,,8762,,1690464349,897639897,"""world""",,,3.0877509117126465,11.943942070007324,0.6675276160240173
1690464349897732181,,8763,,1690464349,897651621,"""world""",,,3.082362651824951,11.936018943786621,0.6669579744338989
1690464349917738557,,8764,,1690464349,917627901,"""world""",,,3.0769753456115723,11.928065299987793,0.6664513349533081
1690464349927723051,,8765,,1690464349,927658932,"""world""",,,3.0716211795806885,11.920063018798828,0.6659867763519287
1690464349927730416,,8766,,1690464349,927670454,"""world""",,,3.066406488418579,11.912014961242676,0.6654996871948242
1690464349947727354,,8767,,1690464349,947632698,"""world""",,,3.061293363571167,11.903965950012207,0.6649501323699951
1690464349957701626,,8768,,1690464349,957635395,"""world""",,,3.05617356300354,11.895821571350098,0.66438227891922
1690464349967759526,,8769,,1690464349,967672261,"""world""",,,3.051091432571411,11.887593269348145,0.6638502478599548
1690464349977660878,,8770,,1690464349,977618914,"""world""",,,3.046112298965454,11.879395484924316,0.6633657813072205
1690464349987710799,,8771,,1690464349,987627178,"""world""",,,3.0411593914031982,11.871208190917969,0.6628141403198242
1690464349987714262,,8772,,1690464349,987635455,"""world""",,,3.0363094806671143,11.863056182861328,0.6623399257659912
1690464349997737587,,8773,,1690464349,997638353,"""world""",,,3.031567096710205,11.85478687286377,0.6618449687957764
1690464350017732830,,8774,,1690464350,17631917,"""world""",,,3.0268056392669678,11.846477508544922,0.6613904237747192
1690464350017744092,,8775,,1690464350,17641804,"""world""",,,3.022181272506714,11.8381986618042,0.6609750986099243
1690464350037728043,,8776,,1690464350,37634926,"""world""",,,3.0176498889923096,11.829968452453613,0.6605446934700012
1690464350047715104,,8777,,1690464350,47641676,"""world""",,,3.01318621635437,11.821609497070312,0.6600531935691833
1690464350057738614,,8778,,1690464350,57667496,"""world""",,,3.008751153945923,11.813102722167969,0.6596091985702515
1690464350057745601,,8779,,1690464350,57681012,"""world""",,,3.004220724105835,11.804598808288574,0.6592429280281067
1690464350067741170,,8780,,1690464350,67667014,"""world""",,,3.0000271797180176,11.796034812927246,0.6587799787521362
1690464350087751444,,8781,,1690464350,87635219,"""world""",,,2.9959511756896973,11.787405967712402,0.6583327651023865
1690464350087760009,,8782,,1690464350,87647138,"""world""",,,2.991849422454834,11.778900146484375,0.6578405499458313
1690464350097766104,,8783,,1690464350,97670678,"""world""",,,2.987828016281128,11.770153999328613,0.6575042009353638
1690464350117719974,,8784,,1690464350,117654289,"""world""",,,2.9838452339172363,11.761462211608887,0.6570772528648376
1690464350117730262,,8785,,1690464350,117665993,"""world""",,,2.9801185131073,11.75264835357666,0.6567280888557434
1690464350137742230,,8786,,1690464350,137666241,"""world""",,,2.9762845039367676,11.743830680847168,0.6564617156982422
1690464350147729596,,8787,,1690464350,147663184,"""world""",,,2.9726080894470215,11.734963417053223,0.6560807824134827
1690464350147732910,,8788,,1690464350,147675830,"""world""",,,2.96895170211792,11.726056098937988,0.6558563709259033
1690464350167746458,,8789,,1690464350,167682122,"""world""",,,2.965465784072876,11.717085838317871,0.6555605530738831
1690464350177697860,,8790,,1690464350,177621078,"""world""",,,2.9620003700256348,11.70820140838623,0.6553546786308289
1690464350187715171,,8791,,1690464350,187661435,"""world""",,,2.958705425262451,11.699240684509277,0.6551421284675598
1690464350197787902,,8792,,1690464350,197689471,"""world""",,,2.9554660320281982,11.68991470336914,0.6548284888267517
1690464350207743433,,8793,,1690464350,207664897,"""world""",,,2.952181100845337,11.680777549743652,0.6546258926391602
1690464350207751266,,8794,,1690464350,207677037,"""world""",,,2.949113368988037,11.671459197998047,0.6544832587242126
1690464350227702825,,8795,,1690464350,227636510,"""world""",,,2.94604229927063,11.662150382995605,0.6543049216270447
1690464350237711184,,8796,,1690464350,237632546,"""world""",,,2.943084239959717,11.652787208557129,0.6542094349861145
1690464350247723850,,8797,,1690464350,247641150,"""world""",,,2.9403040409088135,11.6433744430542,0.6540156006813049
1690464350247727941,,8798,,1690464350,247691618,"""world""",,,2.9373793601989746,11.633843421936035,0.6540564894676208
1690464350267747895,,8799,,1690464350,267634483,"""world""",,,2.934731960296631,11.624346733093262,0.6539651155471802
1690464350277696702,,8800,,1690464350,277616685,"""world""",,,2.931990385055542,11.61456298828125,0.6539897918701172
1690464350287707486,,8801,,1690464350,287627349,"""world""",,,2.9294655323028564,11.605013847351074,0.6539556384086609
1690464350297754686,,8802,,1690464350,297683443,"""world""",,,2.9268205165863037,11.595173835754395,0.6540655493736267
1690464350307707381,,8803,,1690464350,307642848,"""world""",,,2.9244790077209473,11.585273742675781,0.6540318727493286
1690464350317722190,,8804,,1690464350,317631609,"""world""",,,2.922067880630493,11.575516700744629,0.6542202234268188
1690464350327713160,,8805,,1690464350,327645046,"""world""",,,2.9198954105377197,11.565587043762207,0.654288113117218
1690464350337694095,,8806,,1690464350,337631649,"""world""",,,2.9176270961761475,11.555644035339355,0.6545198559761047
1690464350347723773,,8807,,1690464350,347649265,"""world""",,,2.915639638900757,11.545565605163574,0.6546697020530701
1690464350347727758,,8808,,1690464350,347661476,"""world""",,,2.913464307785034,11.53549861907959,0.6549333333969116
1690464350367734096,,8809,,1690464350,367635750,"""world""",,,2.9115593433380127,11.52529525756836,0.6551415920257568
1690464350377675105,,8810,,1690464350,377619153,"""world""",,,2.909580707550049,11.515109062194824,0.6554552912712097
1690464350387693514,,8811,,1690464350,387625454,"""world""",,,2.9076948165893555,11.504849433898926,0.6557497382164001
1690464350397786015,,8812,,1690464350,397683654,"""world""",,,2.905900239944458,11.494544982910156,0.6560304164886475
1690464350397794678,,8813,,1690464350,397700729,"""world""",,,2.904165029525757,11.48422908782959,0.6563009023666382
1690464350407750542,,8814,,1690464350,407660086,"""world""",,,2.902514934539795,11.47370433807373,0.6565136313438416
1690464350427703827,,8815,,1690464350,427634241,"""world""",,,2.900914430618286,11.463263511657715,0.6568531394004822
1690464350437725810,,8816,,1690464350,437631426,"""world""",,,2.8993184566497803,11.452666282653809,0.6570584177970886
1690464350447686316,,8817,,1690464350,447632427,"""world""",,,2.89786696434021,11.442259788513184,0.6573888659477234
1690464350457740829,,8818,,1690464350,457656231,"""world""",,,2.896400213241577,11.431583404541016,0.6577169895172119
1690464350467796609,,8819,,1690464350,467648562,"""world""",,,2.8949265480041504,11.421104431152344,0.6580464243888855
1690464350467805499,,8820,,1690464350,467680636,"""world""",,,2.8934390544891357,11.410550117492676,0.6583539247512817
1690464350487741115,,8821,,1690464350,487632143,"""world""",,,2.8920791149139404,11.39989185333252,0.6586731672286987
1690464350497786534,,8822,,1690464350,497668337,"""world""",,,2.8906540870666504,11.389168739318848,0.6589013934135437
1690464350497794888,,8823,,1690464350,497688877,"""world""",,,2.8891894817352295,11.378382682800293,0.6591274738311768
1690464350517738042,,8824,,1690464350,517622259,"""world""",,,2.887857675552368,11.367599487304688,0.6594433188438416
1690464350517745369,,8825,,1690464350,517632921,"""world""",,,2.88657808303833,11.356689453125,0.6596001386642456
1690464350537740839,,8826,,1690464350,537631827,"""world""",,,2.8852553367614746,11.345871925354004,0.6598103046417236
1690464350547702808,,8827,,1690464350,547633680,"""world""",,,2.883924722671509,11.334921836853027,0.6599909663200378
1690464350547710465,,8828,,1690464350,547644584,"""world""",,,2.88261079788208,11.323870658874512,0.6602064371109009
1690464350567763259,,8829,,1690464350,567646201,"""world""",,,2.8815016746520996,11.31286334991455,0.6603038311004639
1690464350577703262,,8830,,1690464350,577616873,"""world""",,,2.8802378177642822,11.301993370056152,0.6606380343437195
1690464350587719571,,8831,,1690464350,587627151,"""world""",,,2.879009962081909,11.291014671325684,0.6608752608299255
1690464350597729729,,8832,,1690464350,597635126,"""world""",,,2.877736806869507,11.280009269714355,0.6612500548362732
1690464350607729602,,8833,,1690464350,607631671,"""world""",,,2.8766119480133057,11.269011497497559,0.6613256931304932
1690464350617752849,,8834,,1690464350,617652617,"""world""",,,2.8752710819244385,11.257976531982422,0.6615394353866577
1690464350627729051,,8835,,1690464350,627663424,"""world""",,,2.874033212661743,11.24703311920166,0.6618487238883972
1690464350637712088,,8836,,1690464350,637631260,"""world""",,,2.8728291988372803,11.236061096191406,0.6620444059371948
1690464350647698023,,8837,,1690464350,647635451,"""world""",,,2.871605634689331,11.225016593933105,0.6622527837753296
1690464350647705171,,8838,,1690464350,647646026,"""world""",,,2.8703885078430176,11.213871955871582,0.662386953830719
1690464350667736779,,8839,,1690464350,667633457,"""world""",,,2.868875026702881,11.202889442443848,0.6627727746963501
1690464350677702801,,8840,,1690464350,677616521,"""world""",,,2.867520570755005,11.191723823547363,0.6630733609199524
1690464350687712566,,8841,,1690464350,687625258,"""world""",,,2.866255283355713,11.1807861328125,0.663373589515686
1690464350697762078,,8842,,1690464350,697661376,"""world""",,,2.8648428916931152,11.169815063476562,0.6636484265327454
1690464350707708522,,8843,,1690464350,707636345,"""world""",,,2.8634047508239746,11.158812522888184,0.6639395952224731
1690464350707715046,,8844,,1690464350,707649738,"""world""",,,2.8618338108062744,11.147881507873535,0.6642707586288452
1690464350727699245,,8845,,1690464350,727633246,"""world""",,,2.8602206707000732,11.136902809143066,0.6646124124526978
1690464350737692623,,8846,,1690464350,737633179,"""world""",,,2.858555316925049,11.12588119506836,0.6648709774017334
1690464350747692674,,8847,,1690464350,747630964,"""world""",,,2.8569705486297607,11.114906311035156,0.6650804281234741
1690464350757704790,,8848,,1690464350,757633388,"""world""",,,2.8550686836242676,11.103911399841309,0.6654018759727478
1690464350767745101,,8849,,1690464350,767656112,"""world""",,,2.853280544281006,11.09307861328125,0.6657153964042664
1690464350777676376,,8850,,1690464350,777623729,"""world""",,,2.8514113426208496,11.082125663757324,0.6660240888595581
1690464350787723937,,8851,,1690464350,787641452,"""world""",,,2.8494198322296143,11.071273803710938,0.6663669943809509
1690464350797744981,,8852,,1690464350,797664267,"""world""",,,2.8474862575531006,11.060367584228516,0.666640043258667
1690464350807704703,,8853,,1690464350,807635266,"""world""",,,2.8454337120056152,11.049647331237793,0.6668787598609924
1690464350807708892,,8854,,1690464350,807648711,"""world""",,,2.8431546688079834,11.038777351379395,0.6672455072402954
1690464350827704956,,8855,,1690464350,827636472,"""world""",,,2.84090256690979,11.027899742126465,0.6676252484321594
1690464350827714426,,8856,,1690464350,827650219,"""world""",,,2.8385493755340576,11.017298698425293,0.6680750250816345
1690464350837701951,,8857,,1690464350,837633811,"""world""",,,2.8361895084381104,11.006546020507812,0.6683958172798157
