rosbagTimestamp,header,seq,stamp,secs,nsecs,frame_id,pose,position,x,y,z
1690464532167667382,,17937,,1690464532,167621184,"""world""",,,3.3577866554260254,13.146663665771484,0.04306195676326752
1690464532177664860,,17938,,1690464532,177617829,"""world""",,,3.357844829559326,13.146682739257812,0.04313630983233452
1690464532187674703,,17939,,1690464532,187627610,"""world""",,,3.3578667640686035,13.146666526794434,0.04306214302778244
1690464532197710924,,17940,,1690464532,197643092,"""world""",,,3.3577919006347656,13.14665699005127,0.04302387684583664
1690464532207711132,,17941,,1690464532,207627929,"""world""",,,3.3578457832336426,13.146655082702637,0.043090563267469406
1690464532217695351,,17942,,1690464532,217632436,"""world""",,,3.357862710952759,13.1466646194458,0.04304845631122589
1690464532228834678,,17943,,1690464532,227635798,"""world""",,,3.357809543609619,13.146649360656738,0.043026283383369446
1690464532237811922,,17944,,1690464532,237689378,"""world""",,,3.357809066772461,13.146659851074219,0.043101098388433456
1690464532247780045,,17945,,1690464532,247718463,"""world""",,,3.3578414916992188,13.146622657775879,0.043014608323574066
1690464532257710953,,17946,,1690464532,257642148,"""world""",,,3.3578319549560547,13.14667797088623,0.04304300993680954
1690464532267700069,,17947,,1690464532,267637466,"""world""",,,3.357807159423828,13.146663665771484,0.043091870844364166
1690464532277675936,,17948,,1690464532,277624162,"""world""",,,3.357875108718872,13.14666748046875,0.043038010597229004
1690464532287688428,,17949,,1690464532,287627399,"""world""",,,3.3578083515167236,13.146671295166016,0.04306180775165558
1690464532297717182,,17950,,1690464532,297646170,"""world""",,,3.357797145843506,13.146653175354004,0.043064527213573456
1690464532307695486,,17951,,1690464532,307631152,"""world""",,,3.357848644256592,13.146653175354004,0.043068207800388336
1690464532317718848,,17952,,1690464532,317645438,"""world""",,,3.357815980911255,13.146695137023926,0.04308714345097542
1690464532327728700,,17953,,1690464532,327648464,"""world""",,,3.3577842712402344,13.14665699005127,0.043077029287815094
1690464532337700171,,17954,,1690464532,337636891,"""world""",,,3.3578720092773438,13.146641731262207,0.04304564744234085
1690464532347752124,,17955,,1690464532,347691252,"""world""",,,3.357846736907959,13.146672248840332,0.04308665916323662
1690464532357696423,,17956,,1690464532,357636061,"""world""",,,3.3577749729156494,13.14665699005127,0.04307132586836815
1690464532367712530,,17957,,1690464532,367641061,"""world""",,,3.3578779697418213,13.146618843078613,0.04306400939822197
1690464532377674190,,17958,,1690464532,377620474,"""world""",,,3.3578569889068604,13.146687507629395,0.04307846352458
1690464532387683517,,17959,,1690464532,387627906,"""world""",,,3.357792377471924,13.146647453308105,0.043025903403759
1690464532397705939,,17960,,1690464532,397640034,"""world""",,,3.357832431793213,13.146655082702637,0.043084487318992615
1690464532407721986,,17961,,1690464532,407660055,"""world""",,,3.3578732013702393,13.146675109863281,0.04305374249815941
1690464532417683740,,17962,,1690464532,417626250,"""world""",,,3.357755661010742,13.146672248840332,0.04306512326002121
1690464532427711879,,17963,,1690464532,427639515,"""world""",,,3.357846736907959,13.146662712097168,0.04307631775736809
1690464532437793235,,17964,,1690464532,437739524,"""world""",,,3.357870101928711,13.14667797088623,0.04308027774095535
1690464532447693653,,17965,,1690464532,447634220,"""world""",,,3.357759952545166,13.146681785583496,0.04306337982416153
1690464532457701423,,17966,,1690464532,457636732,"""world""",,,3.3578124046325684,13.14666748046875,0.04308357462286949
1690464532467711043,,17967,,1690464532,467637368,"""world""",,,3.357844829559326,13.146676063537598,0.04309028014540672
1690464532477683280,,17968,,1690464532,477625340,"""world""",,,3.357819080352783,13.1466703414917,0.04310506582260132
1690464532487736380,,17969,,1690464532,487633257,"""world""",,,3.3578104972839355,13.146653175354004,0.043075110763311386
1690464532497765544,,17970,,1690464532,497679058,"""world""",,,3.3578052520751953,13.146659851074219,0.043055713176727295
1690464532507716781,,17971,,1690464532,507659618,"""world""",,,3.3577985763549805,13.146658897399902,0.043064482510089874
1690464532517687143,,17972,,1690464532,517632880,"""world""",,,3.3577959537506104,13.146645545959473,0.04304373264312744
1690464532527702688,,17973,,1690464532,527637429,"""world""",,,3.3578133583068848,13.14666748046875,0.043124355375766754
1690464532537748237,,17974,,1690464532,537688008,"""world""",,,3.357856035232544,13.146679878234863,0.04312824830412865
1690464532547690252,,17975,,1690464532,547633016,"""world""",,,3.357809066772461,13.146672248840332,0.043147291988134384
1690464532557697926,,17976,,1690464532,557635922,"""world""",,,3.3578548431396484,13.146660804748535,0.04309479147195816
1690464532567700172,,17977,,1690464532,567631262,"""world""",,,3.3578133583068848,13.146662712097168,0.043131452053785324
1690464532577692527,,17978,,1690464532,577645331,"""world""",,,3.357832908630371,13.146662712097168,0.043110441416502
1690464532587690977,,17979,,1690464532,587626744,"""world""",,,3.357792377471924,13.146658897399902,0.04314617067575455
1690464532597812262,,17980,,1690464532,597676141,"""world""",,,3.357820510864258,13.146632194519043,0.04313657060265541
1690464532607714952,,17981,,1690464532,607632447,"""world""",,,3.357787609100342,13.14664363861084,0.04315109923481941
1690464532617748548,,17982,,1690464532,617650375,"""world""",,,3.3577752113342285,13.146632194519043,0.04314282909035683
1690464532627760123,,17983,,1690464532,627687287,"""world""",,,3.3577985763549805,13.146567344665527,0.04310915246605873
1690464532637774574,,17984,,1690464532,637712863,"""world""",,,3.35772705078125,13.146565437316895,0.04313270002603531
1690464532647732306,,17985,,1690464532,647633645,"""world""",,,3.357719659805298,13.146560668945312,0.04315544664859772
1690464532657729284,,17986,,1690464532,657637049,"""world""",,,3.3577053546905518,13.146537780761719,0.04316255822777748
1690464532667729833,,17987,,1690464532,667659209,"""world""",,,3.3576951026916504,13.146553039550781,0.04321218654513359
1690464532677762000,,17988,,1690464532,677680213,"""world""",,,3.357738971710205,13.146526336669922,0.04324880987405777
1690464532687736887,,17989,,1690464532,687660899,"""world""",,,3.3577194213867188,13.146541595458984,0.043237876147031784
1690464532697695819,,17990,,1690464532,697637640,"""world""",,,3.357699394226074,13.146527290344238,0.04325185343623161
1690464532707684717,,17991,,1690464532,707630714,"""world""",,,3.3577075004577637,13.146502494812012,0.04322756081819534
1690464532717674125,,17992,,1690464532,717622272,"""world""",,,3.3577187061309814,13.146590232849121,0.043325383216142654
1690464532727726714,,17993,,1690464532,727633345,"""world""",,,3.357691764831543,13.146538734436035,0.04327999800443649
1690464532737779356,,17994,,1690464532,737687866,"""world""",,,3.3577253818511963,13.146594047546387,0.04327896982431412
1690464532747722704,,17995,,1690464532,747631691,"""world""",,,3.3577184677124023,13.1466064453125,0.04334438964724541
1690464532757730625,,17996,,1690464532,757636243,"""world""",,,3.3576202392578125,13.146624565124512,0.043347183614969254
1690464532767784844,,17997,,1690464532,767643509,"""world""",,,3.357668399810791,13.14677906036377,0.04349624365568161
1690464532777761494,,17998,,1690464532,777680682,"""world""",,,3.3577065467834473,13.146770477294922,0.043468721210956573
1690464532787730969,,17999,,1690464532,787628279,"""world""",,,3.3577513694763184,13.14685344696045,0.04362272843718529
1690464532797752247,,18000,,1690464532,797669545,"""world""",,,3.357809543609619,13.14692211151123,0.043773751705884933
1690464532807709002,,18001,,1690464532,807623860,"""world""",,,3.3578264713287354,13.14692211151123,0.04397314041852951
1690464532817679936,,18002,,1690464532,817622197,"""world""",,,3.3577961921691895,13.146893501281738,0.04425042122602463
1690464532827700228,,18003,,1690464532,827640901,"""world""",,,3.3578298091888428,13.146869659423828,0.04465227201581001
1690464532837750740,,18004,,1690464532,837688048,"""world""",,,3.3578193187713623,13.1467866897583,0.045170195400714874
1690464532847690490,,18005,,1690464532,847633191,"""world""",,,3.357872724533081,13.146804809570312,0.0459122397005558
1690464532857703703,,18006,,1690464532,857636179,"""world""",,,3.3578250408172607,13.146832466125488,0.04690476134419441
1690464532867733744,,18007,,1690464532,867651268,"""world""",,,3.357779026031494,13.14690113067627,0.04839743673801422
1690464532877728017,,18008,,1690464532,877678172,"""world""",,,3.357759952545166,13.147087097167969,0.05000431090593338
1690464532887762393,,18009,,1690464532,887659352,"""world""",,,3.3578035831451416,13.147141456604004,0.0517970472574234
1690464532897713938,,18010,,1690464532,897644839,"""world""",,,3.357823610305786,13.147305488586426,0.05386700853705406
1690464532907691470,,18011,,1690464532,907628324,"""world""",,,3.3578357696533203,13.14762020111084,0.056366924196481705
1690464532917717475,,18012,,1690464532,917652803,"""world""",,,3.3578286170959473,13.14780044555664,0.05898945406079292
1690464532927712343,,18013,,1690464532,927639300,"""world""",,,3.357915163040161,13.148067474365234,0.062074337154626846
1690464532937774350,,18014,,1690464532,937681034,"""world""",,,3.3579235076904297,13.148234367370605,0.06531047821044922
1690464532947752651,,18015,,1690464532,947691426,"""world""",,,3.3580143451690674,13.148643493652344,0.06899074465036392
1690464532957781744,,18016,,1690464532,957665631,"""world""",,,3.3580498695373535,13.148773193359375,0.07281915843486786
1690464532967708908,,18017,,1690464532,967638251,"""world""",,,3.358025074005127,13.149012565612793,0.07702741026878357
1690464532977759888,,18018,,1690464532,977704724,"""world""",,,3.358107805252075,13.149262428283691,0.08158650249242783
1690464532987694992,,18019,,1690464532,987628578,"""world""",,,3.358196496963501,13.149426460266113,0.08647875487804413
1690464532997708960,,18020,,1690464532,997641073,"""world""",,,3.358262062072754,13.14965534210205,0.09176002442836761
1690464533007683599,,18021,,1690464533,7625278,"""world""",,,3.3584485054016113,13.149890899658203,0.09719860553741455
1690464533017691613,,18022,,1690464533,17620300,"""world""",,,3.3585267066955566,13.150115013122559,0.10319487750530243
1690464533027685117,,18023,,1690464533,27630810,"""world""",,,3.3586318492889404,13.150421142578125,0.10924910008907318
1690464533037698321,,18024,,1690464533,37632765,"""world""",,,3.358694314956665,13.150611877441406,0.115601547062397
1690464533047749153,,18025,,1690464533,47688133,"""world""",,,3.3586716651916504,13.15073299407959,0.122043676674366
1690464533057721074,,18026,,1690464533,57629865,"""world""",,,3.3587400913238525,13.150837898254395,0.12860438227653503
1690464533067703676,,18027,,1690464533,67637714,"""world""",,,3.358814001083374,13.1509428024292,0.13546693325042725
1690464533077721089,,18028,,1690464533,77673378,"""world""",,,3.3588881492614746,13.151153564453125,0.14242205023765564
1690464533087687151,,18029,,1690464533,87625210,"""world""",,,3.358959197998047,13.151501655578613,0.14969438314437866
1690464533097708949,,18030,,1690464533,97646063,"""world""",,,3.359025239944458,13.151740074157715,0.15694589912891388
1690464533107695410,,18031,,1690464533,107624735,"""world""",,,3.3591790199279785,13.152084350585938,0.16427338123321533
1690464533117678057,,18032,,1690464533,117618005,"""world""",,,3.3591678142547607,13.152629852294922,0.17162398993968964
1690464533127683529,,18033,,1690464533,127630631,"""world""",,,3.3592159748077393,13.152960777282715,0.17909979820251465
1690464533137764799,,18034,,1690464533,137699033,"""world""",,,3.359363555908203,13.153304100036621,0.1865832656621933
1690464533147756944,,18035,,1690464533,147697075,"""world""",,,3.359410285949707,13.153700828552246,0.19412212073802948
1690464533157691775,,18036,,1690464533,157631949,"""world""",,,3.3593173027038574,13.154011726379395,0.20127978920936584
1690464533167702650,,18037,,1690464533,167632055,"""world""",,,3.3593196868896484,13.154350280761719,0.20842304825782776
1690464533177676008,,18038,,1690464533,177617853,"""world""",,,3.359231948852539,13.154521942138672,0.21552830934524536
1690464533187730307,,18039,,1690464533,187624854,"""world""",,,3.35937762260437,13.154749870300293,0.22269661724567413
1690464533197702507,,18040,,1690464533,197640208,"""world""",,,3.3594799041748047,13.155097007751465,0.22958576679229736
1690464533207734487,,18041,,1690464533,207681068,"""world""",,,3.3594913482666016,13.15534496307373,0.23637676239013672
1690464533217687680,,18042,,1690464533,217620407,"""world""",,,3.359628200531006,13.155591011047363,0.24325405061244965
1690464533227704542,,18043,,1690464533,227643081,"""world""",,,3.359738349914551,13.155896186828613,0.2499423623085022
1690464533237746420,,18044,,1690464533,237688865,"""world""",,,3.359879732131958,13.156132698059082,0.25651654601097107
1690464533247687032,,18045,,1690464533,247631446,"""world""",,,3.3598804473876953,13.156378746032715,0.2629433870315552
1690464533257685911,,18046,,1690464533,257629781,"""world""",,,3.3600127696990967,13.156790733337402,0.2693595290184021
1690464533267699830,,18047,,1690464533,267634956,"""world""",,,3.3600199222564697,13.157112121582031,0.2755711078643799
1690464533277697088,,18048,,1690464533,277618998,"""world""",,,3.359971046447754,13.157429695129395,0.28172925114631653
1690464533287748330,,18049,,1690464533,287626071,"""world""",,,3.3598456382751465,13.157626152038574,0.2877243757247925
1690464533297763669,,18050,,1690464533,297665557,"""world""",,,3.3597731590270996,13.157958030700684,0.2936429977416992
1690464533307743168,,18051,,1690464533,307632546,"""world""",,,3.3597586154937744,13.158209800720215,0.2994026839733124
1690464533317780002,,18052,,1690464533,317663711,"""world""",,,3.3595995903015137,13.158465385437012,0.30508339405059814
1690464533327722321,,18053,,1690464533,327643695,"""world""",,,3.359590768814087,13.15872859954834,0.31058281660079956
1690464533337720122,,18054,,1690464533,337637969,"""world""",,,3.359496593475342,13.158896446228027,0.3159051537513733
1690464533347706849,,18055,,1690464533,347637199,"""world""",,,3.3594021797180176,13.159034729003906,0.3211773633956909
1690464533357708980,,18056,,1690464533,357638497,"""world""",,,3.3592607975006104,13.159029960632324,0.32623291015625
1690464533367734922,,18057,,1690464533,367644384,"""world""",,,3.359203815460205,13.159027099609375,0.33135879039764404
1690464533377686558,,18058,,1690464533,377628987,"""world""",,,3.3591129779815674,13.159092903137207,0.3362909257411957
1690464533387728712,,18059,,1690464533,387636260,"""world""",,,3.3591065406799316,13.159192085266113,0.34113579988479614
1690464533397742898,,18060,,1690464533,397650764,"""world""",,,3.3589839935302734,13.159175872802734,0.3459244668483734
1690464533407739699,,18061,,1690464533,407681690,"""world""",,,3.3587429523468018,13.159103393554688,0.35067519545555115
1690464533417682857,,18062,,1690464533,417626095,"""world""",,,3.358607530593872,13.158974647521973,0.35539647936820984
1690464533427696464,,18063,,1690464533,427609218,"""world""",,,3.358386993408203,13.158870697021484,0.36008572578430176
1690464533437760282,,18064,,1690464533,437691298,"""world""",,,3.3582699298858643,13.158733367919922,0.364834725856781
1690464533447736199,,18065,,1690464533,447675035,"""world""",,,3.358114242553711,13.158520698547363,0.36929091811180115
1690464533457707528,,18066,,1690464533,457642446,"""world""",,,3.357991933822632,13.158340454101562,0.37388625741004944
1690464533467702146,,18067,,1690464533,467636508,"""world""",,,3.3579154014587402,13.158034324645996,0.3784276843070984
1690464533477691008,,18068,,1690464533,477630435,"""world""",,,3.357841968536377,13.157652854919434,0.3828905522823334
1690464533487735279,,18069,,1690464533,487649900,"""world""",,,3.3577628135681152,13.157244682312012,0.3873426616191864
1690464533497800472,,18070,,1690464533,497673780,"""world""",,,3.357642412185669,13.156708717346191,0.3917599320411682
1690464533507688303,,18071,,1690464533,507629586,"""world""",,,3.3575968742370605,13.156044006347656,0.3962641656398773
1690464533517673401,,18072,,1690464533,517619888,"""world""",,,3.357374429702759,13.15532398223877,0.40064579248428345
1690464533527712012,,18073,,1690464533,527640182,"""world""",,,3.3574042320251465,13.1544189453125,0.40485328435897827
1690464533537684512,,18074,,1690464533,537587408,"""world""",,,3.3572373390197754,13.153666496276855,0.4090917110443115
1690464533547699306,,18075,,1690464533,547636206,"""world""",,,3.357186794281006,13.15267562866211,0.413404643535614
1690464533557699431,,18076,,1690464533,557636432,"""world""",,,3.3570141792297363,13.1516752243042,0.4175742566585541
1690464533567723968,,18077,,1690464533,567642435,"""world""",,,3.3570196628570557,13.150550842285156,0.4217172861099243
1690464533577734327,,18078,,1690464533,577679491,"""world""",,,3.356912612915039,13.149415016174316,0.42584359645843506
1690464533587699833,,18079,,1690464533,587633591,"""world""",,,3.356931447982788,13.148114204406738,0.4300590455532074
1690464533597734656,,18080,,1690464533,597649123,"""world""",,,3.356877326965332,13.146561622619629,0.43406176567077637
1690464533607718034,,18081,,1690464533,607626738,"""world""",,,3.3568813800811768,13.145008087158203,0.43798086047172546
1690464533617672284,,18082,,1690464533,617619350,"""world""",,,3.3567957878112793,13.14326000213623,0.4419419467449188
1690464533627695096,,18083,,1690464533,627632214,"""world""",,,3.356837034225464,13.141497611999512,0.44580399990081787
1690464533637754056,,18084,,1690464533,637687737,"""world""",,,3.3569416999816895,13.13974380493164,0.4497722387313843
1690464533647693315,,18085,,1690464533,647632479,"""world""",,,3.35699462890625,13.137730598449707,0.4535682201385498
1690464533657690204,,18086,,1690464533,657628245,"""world""",,,3.357102870941162,13.135537147521973,0.45742976665496826
1690464533667722267,,18087,,1690464533,667645611,"""world""",,,3.3570690155029297,13.133219718933105,0.46117669343948364
1690464533677734795,,18088,,1690464533,677683545,"""world""",,,3.3572449684143066,13.130915641784668,0.46506267786026
1690464533687702949,,18089,,1690464533,687628693,"""world""",,,3.357465982437134,13.128421783447266,0.468692421913147
1690464533697796741,,18090,,1690464533,697677206,"""world""",,,3.3574867248535156,13.125770568847656,0.47239813208580017
1690464533707748047,,18091,,1690464533,707631038,"""world""",,,3.3576011657714844,13.122721672058105,0.4761252999305725
1690464533717706450,,18092,,1690464533,717619933,"""world""",,,3.3578972816467285,13.119906425476074,0.47977179288864136
1690464533727739353,,18093,,1690464533,727640874,"""world""",,,3.3581104278564453,13.116851806640625,0.48334968090057373
1690464533737747048,,18094,,1690464533,737687288,"""world""",,,3.3583602905273438,13.113460540771484,0.48689591884613037
1690464533747697235,,18095,,1690464533,747633290,"""world""",,,3.3585433959960938,13.11019229888916,0.49047619104385376
1690464533757700664,,18096,,1690464533,757634897,"""world""",,,3.3587818145751953,13.106727600097656,0.49419650435447693
1690464533767698491,,18097,,1690464533,767635841,"""world""",,,3.3590950965881348,13.10296630859375,0.4976663291454315
1690464533777723729,,18098,,1690464533,777673916,"""world""",,,3.359502077102661,13.099333763122559,0.5011270642280579
1690464533787738572,,18099,,1690464533,787639084,"""world""",,,3.3598556518554688,13.095386505126953,0.5048317313194275
1690464533797737484,,18100,,1690464533,797649013,"""world""",,,3.360196590423584,13.0913724899292,0.5082686543464661
1690464533807677000,,18101,,1690464533,807622750,"""world""",,,3.3606796264648438,13.087096214294434,0.5118815898895264
1690464533817667689,,18102,,1690464533,817615702,"""world""",,,3.3610806465148926,13.082571983337402,0.5153473019599915
1690464533827701341,,18103,,1690464533,827634555,"""world""",,,3.3615684509277344,13.078163146972656,0.5188180804252625
1690464533837793950,,18104,,1690464533,837723982,"""world""",,,3.3620848655700684,13.073477745056152,0.5223549008369446
1690464533847702232,,18105,,1690464533,847636309,"""world""",,,3.3626556396484375,13.068741798400879,0.5258129239082336
1690464533857689703,,18106,,1690464533,857629601,"""world""",,,3.3632709980010986,13.063762664794922,0.5292947292327881
1690464533867702714,,18107,,1690464533,867637619,"""world""",,,3.3639097213745117,13.058625221252441,0.5328249931335449
1690464533877704716,,18108,,1690464533,877622475,"""world""",,,3.3643572330474854,13.053385734558105,0.5364372134208679
1690464533887731731,,18109,,1690464533,887632224,"""world""",,,3.3652069568634033,13.048111915588379,0.5398461222648621
1690464533897732605,,18110,,1690464533,897643312,"""world""",,,3.365971803665161,13.042668342590332,0.5433862209320068
1690464533907716303,,18111,,1690464533,907624470,"""world""",,,3.366725206375122,13.037154197692871,0.5469881892204285
1690464533917667257,,18112,,1690464533,917620814,"""world""",,,3.3675692081451416,13.031561851501465,0.5505127310752869
1690464533927723494,,18113,,1690464533,927632813,"""world""",,,3.368417263031006,13.02586841583252,0.5541818737983704
1690464533937807033,,18114,,1690464533,937685726,"""world""",,,3.3692359924316406,13.019949913024902,0.5577691197395325
1690464533947798288,,18115,,1690464533,947690667,"""world""",,,3.37032151222229,13.014056205749512,0.5613568425178528
1690464533957691035,,18116,,1690464533,957634326,"""world""",,,3.371405601501465,13.00821304321289,0.5649010539054871
1690464533967737078,,18117,,1690464533,967649718,"""world""",,,3.3725509643554688,13.0020112991333,0.5684850215911865
1690464533977734298,,18118,,1690464533,977682414,"""world""",,,3.373833179473877,12.995905876159668,0.572010338306427
1690464533987691038,,18119,,1690464533,987626443,"""world""",,,3.3751449584960938,12.989540100097656,0.5754089951515198
1690464533997734870,,18120,,1690464533,997648027,"""world""",,,3.376455545425415,12.98320484161377,0.5788635611534119
1690464534007686423,,18121,,1690464534,7627903,"""world""",,,3.377786874771118,12.976932525634766,0.5823706984519958
1690464534017741260,,18122,,1690464534,17617799,"""world""",,,3.379164934158325,12.970420837402344,0.5856894850730896
1690464534027735540,,18123,,1690464534,27631852,"""world""",,,3.3806710243225098,12.963770866394043,0.5889365077018738
1690464534037754620,,18124,,1690464534,37691091,"""world""",,,3.3822386264801025,12.957314491271973,0.5922274589538574
1690464534047745214,,18125,,1690464534,47682241,"""world""",,,3.383769989013672,12.950549125671387,0.5954639315605164
1690464534057720072,,18126,,1690464534,57639536,"""world""",,,3.3854832649230957,12.94381046295166,0.5986501574516296
1690464534067697709,,18127,,1690464534,67634505,"""world""",,,3.3872175216674805,12.937076568603516,0.6017951369285583
1690464534077738870,,18128,,1690464534,77678540,"""world""",,,3.389030933380127,12.93045711517334,0.6050162315368652
1690464534087701655,,18129,,1690464534,87626185,"""world""",,,3.3909339904785156,12.92364501953125,0.6079879403114319
1690464534097778562,,18130,,1690464534,97679531,"""world""",,,3.3928158283233643,12.916834831237793,0.6110403537750244
1690464534107722888,,18131,,1690464534,107668285,"""world""",,,3.394897699356079,12.91014575958252,0.614094614982605
1690464534117699155,,18132,,1690464534,117647161,"""world""",,,3.396932601928711,12.9033784866333,0.6169531345367432
1690464534127705110,,18133,,1690464534,127633307,"""world""",,,3.3992679119110107,12.896403312683105,0.6197950839996338
1690464534137699679,,18134,,1690464534,137632426,"""world""",,,3.4013638496398926,12.889843940734863,0.6227617263793945
1690464534147695468,,18135,,1690464534,147633613,"""world""",,,3.4037296772003174,12.883132934570312,0.6254932880401611
1690464534157687753,,18136,,1690464534,157629960,"""world""",,,3.406081438064575,12.876290321350098,0.6281824707984924
1690464534167726508,,18137,,1690464534,167643767,"""world""",,,3.4084396362304688,12.869477272033691,0.630696713924408
1690464534177734415,,18138,,1690464534,177678326,"""world""",,,3.411017417907715,12.862751960754395,0.6331042647361755
1690464534187728404,,18139,,1690464534,187627452,"""world""",,,3.4134674072265625,12.85608196258545,0.6353764533996582
1690464534197732393,,18140,,1690464534,197640988,"""world""",,,3.4161856174468994,12.84928035736084,0.6374431848526001
1690464534207711842,,18141,,1690464534,207623705,"""world""",,,3.4188971519470215,12.842604637145996,0.6394144296646118
1690464534217675774,,18142,,1690464534,217616365,"""world""",,,3.421600341796875,12.836020469665527,0.6411585807800293
1690464534227711074,,18143,,1690464534,227638235,"""world""",,,3.424405336380005,12.829266548156738,0.6428372859954834
1690464534237746680,,18144,,1690464534,237686895,"""world""",,,3.4270858764648438,12.822638511657715,0.644292950630188
1690464534247728731,,18145,,1690464534,247634015,"""world""",,,3.4302735328674316,12.816024780273438,0.6456706523895264
1690464534257701819,,18146,,1690464534,257628525,"""world""",,,3.433324098587036,12.809558868408203,0.6469643712043762
1690464534267784170,,18147,,1690464534,267641737,"""world""",,,3.4364311695098877,12.802983283996582,0.6479606628417969
1690464534277769512,,18148,,1690464534,277677639,"""world""",,,3.4395458698272705,12.796669006347656,0.6490758061408997
1690464534287693572,,18149,,1690464534,287625104,"""world""",,,3.442831516265869,12.790279388427734,0.6497737169265747
1690464534297813948,,18150,,1690464534,297699276,"""world""",,,3.44622540473938,12.783966064453125,0.6503897905349731
1690464534307735789,,18151,,1690464534,307662257,"""world""",,,3.4495677947998047,12.777542114257812,0.6508927345275879
1690464534317689498,,18152,,1690464534,317629798,"""world""",,,3.4529290199279785,12.771289825439453,0.6512316465377808
1690464534327744235,,18153,,1690464534,327657435,"""world""",,,3.456547260284424,12.765159606933594,0.6514813899993896
1690464534337795387,,18154,,1690464534,337710475,"""world""",,,3.4600038528442383,12.758888244628906,0.6514114141464233
1690464534347700420,,18155,,1690464534,347638260,"""world""",,,3.4636919498443604,12.752849578857422,0.6513078212738037
1690464534357704244,,18156,,1690464534,357641516,"""world""",,,3.467395782470703,12.746761322021484,0.6511388421058655
1690464534367739073,,18157,,1690464534,367664508,"""world""",,,3.4711055755615234,12.740721702575684,0.6507623195648193
1690464534377731215,,18158,,1690464534,377658659,"""world""",,,3.4749550819396973,12.734892845153809,0.6503728032112122
1690464534387719125,,18159,,1690464534,387640349,"""world""",,,3.4789576530456543,12.729022979736328,0.6497595310211182
1690464534397764436,,18160,,1690464534,397677214,"""world""",,,3.482781410217285,12.723177909851074,0.6491895914077759
1690464534407739229,,18161,,1690464534,407662104,"""world""",,,3.4867546558380127,12.717450141906738,0.6485978960990906
1690464534417719340,,18162,,1690464534,417658803,"""world""",,,3.490842819213867,12.711785316467285,0.647947371006012
1690464534427738598,,18163,,1690464534,427650496,"""world""",,,3.494899272918701,12.70618724822998,0.6472251415252686
1690464534437740715,,18164,,1690464534,437672437,"""world""",,,3.499222993850708,12.700545310974121,0.646479070186615
1690464534447743247,,18165,,1690464534,447670036,"""world""",,,3.5032618045806885,12.695218086242676,0.6457322239875793
1690464534457703801,,18166,,1690464534,457647231,"""world""",,,3.5075552463531494,12.68970775604248,0.6449759006500244
1690464534467736677,,18167,,1690464534,467666609,"""world""",,,3.511925220489502,12.68441104888916,0.6441442966461182
1690464534477698377,,18168,,1690464534,477634259,"""world""",,,3.516242504119873,12.679097175598145,0.6432663202285767
1690464534487708732,,18169,,1690464534,487633103,"""world""",,,3.5206050872802734,12.67392635345459,0.6425471305847168
1690464534497801848,,18170,,1690464534,497656783,"""world""",,,3.5250511169433594,12.668808937072754,0.6417604684829712
1690464534507733618,,18171,,1690464534,507633714,"""world""",,,3.5296146869659424,12.663707733154297,0.6408799290657043
1690464534517723523,,18172,,1690464534,517660220,"""world""",,,3.534062623977661,12.658775329589844,0.6400918364524841
1690464534527705685,,18173,,1690464534,527637843,"""world""",,,3.5387508869171143,12.653788566589355,0.6391358375549316
1690464534537756263,,18174,,1690464534,537677406,"""world""",,,3.5432372093200684,12.648863792419434,0.6383316516876221
1690464534547691107,,18175,,1690464534,547633211,"""world""",,,3.547891616821289,12.644097328186035,0.6374725699424744
1690464534557692207,,18176,,1690464534,557635772,"""world""",,,3.5525546073913574,12.639297485351562,0.6365953087806702
1690464534567709234,,18177,,1690464534,567635725,"""world""",,,3.557227373123169,12.634674072265625,0.6357913613319397
1690464534577728281,,18178,,1690464534,577677255,"""world""",,,3.561952590942383,12.630057334899902,0.6347964406013489
1690464534587687777,,18179,,1690464534,587624185,"""world""",,,3.566629409790039,12.625439643859863,0.6340017914772034
1690464534597844367,,18180,,1690464534,597689802,"""world""",,,3.5715255737304688,12.620880126953125,0.6330063939094543
1690464534607723160,,18181,,1690464534,607629688,"""world""",,,3.576308488845825,12.61637020111084,0.6320276260375977
1690464534617743244,,18182,,1690464534,617683397,"""world""",,,3.5810301303863525,12.611979484558105,0.6311995387077332
1690464534627699171,,18183,,1690464534,627635359,"""world""",,,3.585771083831787,12.607455253601074,0.6302081942558289
1690464534637748538,,18184,,1690464534,637685657,"""world""",,,3.590599536895752,12.603266716003418,0.6293413639068604
1690464534647687548,,18185,,1690464534,647629301,"""world""",,,3.595625400543213,12.598922729492188,0.6283334493637085
1690464534657697261,,18186,,1690464534,657636522,"""world""",,,3.600451707839966,12.594639778137207,0.6273946762084961
1690464534667705046,,18187,,1690464534,667635374,"""world""",,,3.605309009552002,12.590500831604004,0.6265016198158264
1690464534677764989,,18188,,1690464534,677678765,"""world""",,,3.610208511352539,12.586368560791016,0.6256271004676819
1690464534687689368,,18189,,1690464534,687625132,"""world""",,,3.6151537895202637,12.582275390625,0.6247014403343201
1690464534697842851,,18190,,1690464534,697645988,"""world""",,,3.6200897693634033,12.578086853027344,0.6235893368721008
1690464534707723803,,18191,,1690464534,707631324,"""world""",,,3.6249372959136963,12.574002265930176,0.6227104663848877
1690464534717702965,,18192,,1690464534,717656459,"""world""",,,3.62977933883667,12.569969177246094,0.621729850769043
1690464534727685008,,18193,,1690464534,727627060,"""world""",,,3.6347732543945312,12.566033363342285,0.6207995414733887
1690464534737695397,,18194,,1690464534,737631597,"""world""",,,3.6395668983459473,12.562113761901855,0.6198858022689819
1690464534747706641,,18195,,1690464534,747632565,"""world""",,,3.6445865631103516,12.558112144470215,0.618742048740387
1690464534757700892,,18196,,1690464534,757636565,"""world""",,,3.649458408355713,12.5541410446167,0.6177814602851868
1690464534767726594,,18197,,1690464534,767644648,"""world""",,,3.654425859451294,12.55038070678711,0.6168221831321716
1690464534777731302,,18198,,1690464534,777679104,"""world""",,,3.65922474861145,12.54649829864502,0.615833044052124
1690464534787694241,,18199,,1690464534,787627720,"""world""",,,3.664158344268799,12.542611122131348,0.614840567111969
1690464534797762063,,18200,,1690464534,797662159,"""world""",,,3.669097423553467,12.53884220123291,0.6138439774513245
1690464534807695814,,18201,,1690464534,807626090,"""world""",,,3.6739981174468994,12.535157203674316,0.6129595041275024
1690464534817763347,,18202,,1690464534,817680017,"""world""",,,3.678894519805908,12.531449317932129,0.6119887828826904
1690464534827689576,,18203,,1690464534,827628940,"""world""",,,3.68367338180542,12.527713775634766,0.6109471321105957
1690464534837770575,,18204,,1690464534,837674814,"""world""",,,3.6885318756103516,12.523829460144043,0.6099385619163513
1690464534847735410,,18205,,1690464534,847639425,"""world""",,,3.6934680938720703,12.520149230957031,0.6089680790901184
1690464534857689013,,18206,,1690464534,857631593,"""world""",,,3.698146343231201,12.516474723815918,0.6080132126808167
1690464534867723650,,18207,,1690464534,867634911,"""world""",,,3.7029919624328613,12.512733459472656,0.6070606112480164
1690464534877764956,,18208,,1690464534,877678603,"""world""",,,3.7078840732574463,12.509124755859375,0.6060541272163391
1690464534887722566,,18209,,1690464534,887625000,"""world""",,,3.7126870155334473,12.505457878112793,0.6050694584846497
1690464534897747913,,18210,,1690464534,897658565,"""world""",,,3.717364549636841,12.501754760742188,0.6041746139526367
1690464534907694406,,18211,,1690464534,907628412,"""world""",,,3.722221851348877,12.498080253601074,0.6032439470291138
1690464534917715328,,18212,,1690464534,917651697,"""world""",,,3.7269468307495117,12.494475364685059,0.6023321747779846
1690464534927696214,,18213,,1690464534,927634796,"""world""",,,3.7317795753479004,12.490772247314453,0.6013302803039551
1690464534937726900,,18214,,1690464534,937633117,"""world""",,,3.736468553543091,12.4871187210083,0.600334107875824
1690464534947705840,,18215,,1690464534,947636130,"""world""",,,3.7410900592803955,12.483502388000488,0.5995486378669739
1690464534957762430,,18216,,1690464534,957662450,"""world""",,,3.7459022998809814,12.479762077331543,0.5985398292541504
1690464534967732290,,18217,,1690464534,967662647,"""world""",,,3.7504796981811523,12.476019859313965,0.5976478457450867
1690464534977777522,,18218,,1690464534,977724356,"""world""",,,3.755152702331543,12.472270011901855,0.5967588424682617
1690464534987727436,,18219,,1690464534,987660951,"""world""",,,3.7597544193267822,12.468582153320312,0.5958890318870544
1690464534997763680,,18220,,1690464534,997663553,"""world""",,,3.7643635272979736,12.465012550354004,0.5950217843055725
1690464535007764663,,18221,,1690464535,7685978,"""world""",,,3.769075632095337,12.461262702941895,0.5941142439842224
1690464535017766474,,18222,,1690464535,17681994,"""world""",,,3.773550271987915,12.45746898651123,0.5933071374893188
1690464535027701428,,18223,,1690464535,27629320,"""world""",,,3.778104782104492,12.453631401062012,0.59246826171875
1690464535037702556,,18224,,1690464535,37633491,"""world""",,,3.7828962802886963,12.449943542480469,0.5915132761001587
1690464535047701063,,18225,,1690464535,47634615,"""world""",,,3.787310838699341,12.446150779724121,0.5906745195388794
1690464535057700347,,18226,,1690464535,57632150,"""world""",,,3.791821002960205,12.4422607421875,0.589809000492096
1690464535067746463,,18227,,1690464535,67631182,"""world""",,,3.7962429523468018,12.43841552734375,0.5889359712600708
1690464535077753875,,18228,,1690464535,77668095,"""world""",,,3.800680160522461,12.43453311920166,0.5880773663520813
1690464535087688530,,18229,,1690464535,87622536,"""world""",,,3.8053183555603027,12.430660247802734,0.5871237516403198
1690464535097721167,,18230,,1690464535,97649434,"""world""",,,3.8095734119415283,12.42680835723877,0.5863742232322693
1690464535107743179,,18231,,1690464535,107681387,"""world""",,,3.813944101333618,12.422833442687988,0.585567057132721
1690464535117664000,,18232,,1690464535,117616586,"""world""",,,3.8183999061584473,12.418770790100098,0.5846191644668579
1690464535127681938,,18233,,1690464535,127627550,"""world""",,,3.82267689704895,12.414802551269531,0.5838016271591187
1690464535137689907,,18234,,1690464535,137631388,"""world""",,,3.827075242996216,12.410840034484863,0.5829903483390808
1690464535147691495,,18235,,1690464535,147633176,"""world""",,,3.831402063369751,12.406768798828125,0.5822540521621704
1690464535157722690,,18236,,1690464535,157632461,"""world""",,,3.8356735706329346,12.402690887451172,0.581548810005188
1690464535167693860,,18237,,1690464535,167632273,"""world""",,,3.8399300575256348,12.398545265197754,0.5807444453239441
1690464535177729506,,18238,,1690464535,177679615,"""world""",,,3.8441243171691895,12.394371032714844,0.5799697637557983
1690464535187692977,,18239,,1690464535,187628694,"""world""",,,3.848388910293579,12.390131950378418,0.5793461203575134
1690464535197713463,,18240,,1690464535,197637673,"""world""",,,3.852482318878174,12.385937690734863,0.5786538124084473
1690464535207742483,,18241,,1690464535,207676894,"""world""",,,3.8566036224365234,12.381725311279297,0.5779863595962524
1690464535217699799,,18242,,1690464535,217652748,"""world""",,,3.8608157634735107,12.377486228942871,0.5773850679397583
1690464535227761318,,18243,,1690464535,227661267,"""world""",,,3.864964008331299,12.373133659362793,0.5767605900764465
1690464535237690630,,18244,,1690464535,237636022,"""world""",,,3.869009494781494,12.36873722076416,0.5761659145355225
1690464535247695190,,18245,,1690464535,247635759,"""world""",,,3.8730309009552,12.364371299743652,0.5757339000701904
1690464535257694274,,18246,,1690464535,257632595,"""world""",,,3.877138614654541,12.359734535217285,0.5751672983169556
1690464535267706562,,18247,,1690464535,267635440,"""world""",,,3.881211042404175,12.355297088623047,0.574695348739624
1690464535277706291,,18248,,1690464535,277654185,"""world""",,,3.885152816772461,12.350714683532715,0.5743008852005005
1690464535287720555,,18249,,1690464535,287654617,"""world""",,,3.8891148567199707,12.346186637878418,0.573901891708374
1690464535297742460,,18250,,1690464535,297659334,"""world""",,,3.893099308013916,12.341559410095215,0.5736240744590759
1690464535307741686,,18251,,1690464535,307641565,"""world""",,,3.8970608711242676,12.336926460266113,0.573226809501648
1690464535317674271,,18252,,1690464535,317621402,"""world""",,,3.900967836380005,12.332169532775879,0.5729435682296753
1690464535327707048,,18253,,1690464535,327641054,"""world""",,,3.904900074005127,12.327359199523926,0.5726153254508972
1690464535337694762,,18254,,1690464535,337635401,"""world""",,,3.90867280960083,12.322638511657715,0.572500467300415
1690464535347700895,,18255,,1690464535,347638227,"""world""",,,3.9125356674194336,12.317779541015625,0.5722267627716064
1690464535357725214,,18256,,1690464535,357636826,"""world""",,,3.9163403511047363,12.312987327575684,0.5721510648727417
1690464535367726756,,18257,,1690464535,367633901,"""world""",,,3.9201364517211914,12.308049201965332,0.5720065832138062
1690464535377736699,,18258,,1690464535,377685495,"""world""",,,3.9239161014556885,12.30313777923584,0.5719549655914307
1690464535387712406,,18259,,1690464535,387656353,"""world""",,,3.927614450454712,12.29816722869873,0.5718626976013184
1690464535397822681,,18260,,1690464535,397698221,"""world""",,,3.9313435554504395,12.293136596679688,0.571953535079956
1690464535407702232,,18261,,1690464535,407632980,"""world""",,,3.9350247383117676,12.28803539276123,0.5720171928405762
1690464535417674122,,18262,,1690464535,417619710,"""world""",,,3.938756227493286,12.282959938049316,0.5720716714859009
1690464535427670854,,18263,,1690464535,427607005,"""world""",,,3.9422836303710938,12.277770042419434,0.572299599647522
1690464535437710585,,18264,,1690464535,437637085,"""world""",,,3.9459567070007324,12.27263355255127,0.5725154280662537
1690464535447699376,,18265,,1690464535,447634818,"""world""",,,3.9495601654052734,12.267494201660156,0.5727835893630981
1690464535457713082,,18266,,1690464535,457636010,"""world""",,,3.953261375427246,12.262227058410645,0.5730804800987244
1690464535467697159,,18267,,1690464535,467634102,"""world""",,,3.956784725189209,12.25683879852295,0.5733725428581238
1690464535477696656,,18268,,1690464535,477634524,"""world""",,,3.960221767425537,12.251602172851562,0.5738769769668579
1690464535487701506,,18269,,1690464535,487634870,"""world""",,,3.9638261795043945,12.246253967285156,0.574286937713623
1690464535497776921,,18270,,1690464535,497653040,"""world""",,,3.9673056602478027,12.24083423614502,0.5746339559555054
1690464535507725441,,18271,,1690464535,507631794,"""world""",,,3.9707529544830322,12.235398292541504,0.5750977993011475
1690464535517674408,,18272,,1690464535,517620971,"""world""",,,3.974198818206787,12.229911804199219,0.5756111145019531
1690464535527696177,,18273,,1690464535,527635768,"""world""",,,3.9776549339294434,12.22446060180664,0.5761393904685974
1690464535537694428,,18274,,1690464535,537632810,"""world""",,,3.9812159538269043,12.218994140625,0.5766794085502625
1690464535547702526,,18275,,1690464535,547633360,"""world""",,,3.9846105575561523,12.213424682617188,0.5772098898887634
1690464535557713197,,18276,,1690464535,557632918,"""world""",,,3.9878945350646973,12.207740783691406,0.5778186917304993
1690464535567719748,,18277,,1690464535,567647918,"""world""",,,3.9912986755371094,12.202217102050781,0.5783800482749939
1690464535577693691,,18278,,1690464535,577628304,"""world""",,,3.994659423828125,12.196670532226562,0.5788994431495667
1690464535587696418,,18279,,1690464535,587629213,"""world""",,,3.9981131553649902,12.19104290008545,0.5794063210487366
1690464535597711588,,18280,,1690464535,597643549,"""world""",,,4.001333236694336,12.185368537902832,0.5799263119697571
1690464535607735991,,18281,,1690464535,607630907,"""world""",,,4.004591941833496,12.179664611816406,0.5805562138557434
1690464535617709793,,18282,,1690464535,617620058,"""world""",,,4.007902145385742,12.173900604248047,0.5809798240661621
1690464535627719685,,18283,,1690464535,627643078,"""world""",,,4.011188507080078,12.168206214904785,0.5814427733421326
1690464535637737166,,18284,,1690464535,637631961,"""world""",,,4.014501094818115,12.162384033203125,0.5818676352500916
1690464535647816356,,18285,,1690464535,647684395,"""world""",,,4.017701625823975,12.156577110290527,0.5824150443077087
1690464535657766788,,18286,,1690464535,657662304,"""world""",,,4.020930290222168,12.150818824768066,0.5829026699066162
1690464535667753995,,18287,,1690464535,667681544,"""world""",,,4.024216651916504,12.145118713378906,0.5833203792572021
1690464535677752169,,18288,,1690464535,677697345,"""world""",,,4.027500152587891,12.139199256896973,0.5836881995201111
1690464535687746087,,18289,,1690464535,687662467,"""world""",,,4.030638694763184,12.13333797454834,0.5841381549835205
1690464535697703009,,18290,,1690464535,697645955,"""world""",,,4.033761024475098,12.127530097961426,0.5846322774887085
1690464535707770036,,18291,,1690464535,707708223,"""world""",,,4.03704833984375,12.121707916259766,0.58502197265625
1690464535717703240,,18292,,1690464535,717618846,"""world""",,,4.040036678314209,12.115918159484863,0.5855676531791687
1690464535727705684,,18293,,1690464535,727638423,"""world""",,,4.043188095092773,12.110001564025879,0.5859875082969666
1690464535737746196,,18294,,1690464535,737681151,"""world""",,,4.046314239501953,12.103983879089355,0.5864518284797668
1690464535747688245,,18295,,1690464535,747630047,"""world""",,,4.04939079284668,12.098101615905762,0.5868244767189026
1690464535757692206,,18296,,1690464535,757633246,"""world""",,,4.052493095397949,12.09217357635498,0.5872896313667297
1690464535767698391,,18297,,1690464535,767633749,"""world""",,,4.055532455444336,12.086201667785645,0.5877930521965027
1690464535777741626,,18298,,1690464535,777678677,"""world""",,,4.058684825897217,12.080131530761719,0.588207483291626
1690464535787690936,,18299,,1690464535,787627321,"""world""",,,4.0616278648376465,12.074110984802246,0.5886697769165039
1690464535797768989,,18300,,1690464535,797662251,"""world""",,,4.064785957336426,12.068222999572754,0.5891127586364746
1690464535807721023,,18301,,1690464535,807663902,"""world""",,,4.067830562591553,12.062176704406738,0.5895771980285645
1690464535817736365,,18302,,1690464535,817651359,"""world""",,,4.070911407470703,12.05611801147461,0.589961588382721
1690464535827713272,,18303,,1690464535,827642548,"""world""",,,4.073867321014404,12.050084114074707,0.5905240774154663
1690464535837769770,,18304,,1690464535,837699778,"""world""",,,4.07691764831543,12.044109344482422,0.5909765362739563
1690464535847697223,,18305,,1690464535,847633791,"""world""",,,4.079813003540039,12.037921905517578,0.5912825465202332
1690464535857691728,,18306,,1690464535,857627814,"""world""",,,4.082950592041016,12.031929016113281,0.591670036315918
1690464535867702565,,18307,,1690464535,867634236,"""world""",,,4.085920333862305,12.0258207321167,0.5921587944030762
1690464535877733193,,18308,,1690464535,877669148,"""world""",,,4.0888142585754395,12.019752502441406,0.5926191210746765
1690464535887687639,,18309,,1690464535,887624596,"""world""",,,4.091890335083008,12.01373291015625,0.5929015278816223
1690464535897809546,,18310,,1690464535,897643243,"""world""",,,4.0948615074157715,12.007548332214355,0.5932932496070862
1690464535907690795,,18311,,1690464535,907635274,"""world""",,,4.097870826721191,12.001429557800293,0.5935165286064148
1690464535917735717,,18312,,1690464535,917649709,"""world""",,,4.100741863250732,11.995257377624512,0.5939378142356873
1690464535927753641,,18313,,1690464535,927681479,"""world""",,,4.1037468910217285,11.989147186279297,0.5941176414489746
1690464535937793016,,18314,,1690464535,937698859,"""world""",,,4.10675048828125,11.983002662658691,0.5944048762321472
1690464535947757818,,18315,,1690464535,947697871,"""world""",,,4.109696865081787,11.976679801940918,0.5945231318473816
1690464535957707834,,18316,,1690464535,957632373,"""world""",,,4.112624168395996,11.970416069030762,0.594728410243988
1690464535967700499,,18317,,1690464535,967633394,"""world""",,,4.115640163421631,11.96423053741455,0.5948575139045715
1690464535977719466,,18318,,1690464535,977648502,"""world""",,,4.118616104125977,11.957904815673828,0.5949700474739075
1690464535987715734,,18319,,1690464535,987631687,"""world""",,,4.121598720550537,11.95158863067627,0.5951015949249268
1690464535997713662,,18320,,1690464535,997643859,"""world""",,,4.1245222091674805,11.945239067077637,0.5951791405677795
1690464536007694662,,18321,,1690464536,7632190,"""world""",,,4.127475738525391,11.938961029052734,0.5953564047813416
1690464536017675537,,18322,,1690464536,17621682,"""world""",,,4.1305155754089355,11.93260669708252,0.5954968929290771
1690464536027742466,,18323,,1690464536,27667087,"""world""",,,4.1334381103515625,11.926258087158203,0.5957019329071045
1690464536037761546,,18324,,1690464536,37672677,"""world""",,,4.136524200439453,11.919917106628418,0.5959199666976929
1690464536047738295,,18325,,1690464536,47685051,"""world""",,,4.139514446258545,11.913357734680176,0.5961520075798035
1690464536057691001,,18326,,1690464536,57630477,"""world""",,,4.142499923706055,11.90698528289795,0.5965549349784851
1690464536067718732,,18327,,1690464536,67643686,"""world""",,,4.145402431488037,11.900452613830566,0.5970471501350403
1690464536077691766,,18328,,1690464536,77640673,"""world""",,,4.148505687713623,11.893877983093262,0.5975362062454224
1690464536087694483,,18329,,1690464536,87628701,"""world""",,,4.151501655578613,11.887320518493652,0.5981985926628113
1690464536097757577,,18330,,1690464536,97681466,"""world""",,,4.154436111450195,11.880764961242676,0.599112868309021
1690464536107737783,,18331,,1690464536,107639439,"""world""",,,4.157526016235352,11.874041557312012,0.600063681602478
1690464536117709718,,18332,,1690464536,117621850,"""world""",,,4.160516738891602,11.867436408996582,0.6012182831764221
1690464536127692931,,18333,,1690464536,127630783,"""world""",,,4.16356086730957,11.860705375671387,0.6024147868156433
1690464536137757596,,18334,,1690464536,137689972,"""world""",,,4.166580677032471,11.853950500488281,0.6037636399269104
1690464536147693399,,18335,,1690464536,147634351,"""world""",,,4.169576644897461,11.847189903259277,0.6052560210227966
1690464536157696306,,18336,,1690464536,157631362,"""world""",,,4.172632217407227,11.840327262878418,0.6067748665809631
1690464536167695997,,18337,,1690464536,167631349,"""world""",,,4.175673484802246,11.833500862121582,0.6086681485176086
1690464536177774009,,18338,,1690464536,177688324,"""world""",,,4.17875862121582,11.826638221740723,0.6104819178581238
1690464536187720945,,18339,,1690464536,187628046,"""world""",,,4.181738376617432,11.819674491882324,0.6124510765075684
1690464536197740830,,18340,,1690464536,197660410,"""world""",,,4.184922695159912,11.81280517578125,0.6145950555801392
1690464536207740017,,18341,,1690464536,207643657,"""world""",,,4.188033103942871,11.805763244628906,0.6167134642601013
1690464536217743945,,18342,,1690464536,217665766,"""world""",,,4.1911420822143555,11.798789978027344,0.6189581155776978
1690464536227727584,,18343,,1690464536,227632563,"""world""",,,4.194187164306641,11.791637420654297,0.6212682127952576
1690464536237737267,,18344,,1690464536,237635728,"""world""",,,4.197347640991211,11.784651756286621,0.6236225366592407
1690464536247697900,,18345,,1690464536,247637151,"""world""",,,4.200418472290039,11.777544975280762,0.6261117458343506
1690464536257758138,,18346,,1690464536,257676438,"""world""",,,4.203505992889404,11.770419120788574,0.6286494135856628
1690464536267735124,,18347,,1690464536,267664991,"""world""",,,4.2064995765686035,11.763232231140137,0.6311665177345276
1690464536277704747,,18348,,1690464536,277655150,"""world""",,,4.209659576416016,11.75609302520752,0.6338536143302917
1690464536287733283,,18349,,1690464536,287661750,"""world""",,,4.212825775146484,11.748820304870605,0.6364314556121826
1690464536297768313,,18350,,1690464536,297685810,"""world""",,,4.2159423828125,11.741656303405762,0.6391231417655945
1690464536307715835,,18351,,1690464536,307640479,"""world""",,,4.219097137451172,11.73435115814209,0.6418134570121765
1690464536317743962,,18352,,1690464536,317685050,"""world""",,,4.222084999084473,11.726983070373535,0.6444912552833557
1690464536327707792,,18353,,1690464536,327639737,"""world""",,,4.225288391113281,11.719707489013672,0.6471916437149048
1690464536337736785,,18354,,1690464536,337670941,"""world""",,,4.228391647338867,11.712227821350098,0.6499028205871582
1690464536347726095,,18355,,1690464536,347646132,"""world""",,,4.231610298156738,11.70489501953125,0.6526617407798767
1690464536357727453,,18356,,1690464536,357664701,"""world""",,,4.234685897827148,11.697545051574707,0.655516505241394
1690464536367773014,,18357,,1690464536,367665291,"""world""",,,4.237852096557617,11.690165519714355,0.6583597660064697
1690464536377750166,,18358,,1690464536,377659333,"""world""",,,4.240963459014893,11.682701110839844,0.6611394286155701
1690464536387795126,,18359,,1690464536,387669061,"""world""",,,4.244019508361816,11.675192832946777,0.6639112830162048
1690464536397717173,,18360,,1690464536,397636768,"""world""",,,4.247258186340332,11.667683601379395,0.6667120456695557
1690464536407729406,,18361,,1690464536,407633102,"""world""",,,4.250313758850098,11.660115242004395,0.6694819331169128
1690464536417701716,,18362,,1690464536,417618493,"""world""",,,4.253407955169678,11.652684211730957,0.6723060607910156
1690464536427729722,,18363,,1690464536,427640653,"""world""",,,4.256587505340576,11.645050048828125,0.6750816106796265
1690464536437704438,,18364,,1690464536,437642754,"""world""",,,4.259764671325684,11.637497901916504,0.6777991652488708
1690464536447695310,,18365,,1690464536,447634944,"""world""",,,4.2628493309021,11.629875183105469,0.680424690246582
1690464536457703884,,18366,,1690464536,457634079,"""world""",,,4.265986442565918,11.622169494628906,0.683032214641571
1690464536467740386,,18367,,1690464536,467637636,"""world""",,,4.269100189208984,11.61462116241455,0.685620129108429
1690464536477693619,,18368,,1690464536,477630490,"""world""",,,4.272199630737305,11.606926918029785,0.6881433129310608
1690464536487758160,,18369,,1690464536,487668744,"""world""",,,4.275420188903809,11.599278450012207,0.6905235648155212
1690464536497733926,,18370,,1690464536,497646367,"""world""",,,4.2784624099731445,11.591537475585938,0.6927914023399353
1690464536507693181,,18371,,1690464536,507634465,"""world""",,,4.2816596031188965,11.583892822265625,0.69504714012146
1690464536517666866,,18372,,1690464536,517618783,"""world""",,,4.284782886505127,11.576156616210938,0.697161853313446
1690464536527697012,,18373,,1690464536,527641619,"""world""",,,4.287893772125244,11.568346977233887,0.699143648147583
1690464536537702924,,18374,,1690464536,537635909,"""world""",,,4.291099548339844,11.560685157775879,0.7010101079940796
1690464536547699225,,18375,,1690464536,547634796,"""world""",,,4.294147491455078,11.552845001220703,0.7028014063835144
1690464536557698331,,18376,,1690464536,557639879,"""world""",,,4.2972517013549805,11.545008659362793,0.7045461535453796
1690464536567701608,,18377,,1690464536,567631378,"""world""",,,4.300454139709473,11.537357330322266,0.7062044143676758
1690464536577695781,,18378,,1690464536,577644302,"""world""",,,4.3036017417907715,11.529484748840332,0.7077600359916687
1690464536587710314,,18379,,1690464536,587635707,"""world""",,,4.3067169189453125,11.521723747253418,0.7092531323432922
1690464536597708391,,18380,,1690464536,597638485,"""world""",,,4.30991268157959,11.513859748840332,0.7106466293334961
1690464536607698016,,18381,,1690464536,607634370,"""world""",,,4.313069820404053,11.506148338317871,0.7119688987731934
1690464536617702322,,18382,,1690464536,617619881,"""world""",,,4.316247940063477,11.498344421386719,0.713263213634491
1690464536627708210,,18383,,1690464536,627647132,"""world""",,,4.319429397583008,11.490364074707031,0.7143869996070862
1690464536637697430,,18384,,1690464536,637634938,"""world""",,,4.322615623474121,11.482650756835938,0.7155674695968628
1690464536647665461,,18385,,1690464536,647607469,"""world""",,,4.325844764709473,11.47467041015625,0.7165798544883728
1690464536657696391,,18386,,1690464536,657633384,"""world""",,,4.329002380371094,11.466781616210938,0.717639684677124
1690464536667688290,,18387,,1690464536,667626523,"""world""",,,4.332226753234863,11.459041595458984,0.7187132835388184
1690464536677727792,,18388,,1690464536,677674883,"""world""",,,4.335450172424316,11.451014518737793,0.7196139097213745
1690464536687707000,,18389,,1690464536,687629894,"""world""",,,4.338579177856445,11.443182945251465,0.7205451130867004
1690464536697890046,,18390,,1690464536,697659010,"""world""",,,4.341909885406494,11.435142517089844,0.7214868068695068
1690464536707696350,,18391,,1690464536,707632840,"""world""",,,4.344995975494385,11.427386283874512,0.7223517894744873
1690464536717665946,,18392,,1690464536,717619385,"""world""",,,4.348254680633545,11.419400215148926,0.7231739163398743
1690464536727698844,,18393,,1690464536,727643572,"""world""",,,4.3515214920043945,11.411460876464844,0.7240321636199951
1690464536737752714,,18394,,1690464536,737691309,"""world""",,,4.354692459106445,11.403465270996094,0.7247441411018372
1690464536747697230,,18395,,1690464536,747636084,"""world""",,,4.357966899871826,11.395527839660645,0.7255876660346985
1690464536757730037,,18396,,1690464536,757632202,"""world""",,,4.361179828643799,11.38754940032959,0.7263579368591309
1690464536767704049,,18397,,1690464536,767632688,"""world""",,,4.364325046539307,11.379532814025879,0.727107048034668
1690464536777740044,,18398,,1690464536,777671887,"""world""",,,4.367605209350586,11.371617317199707,0.7278875708580017
1690464536787715098,,18399,,1690464536,787624473,"""world""",,,4.370930194854736,11.3635835647583,0.7286383509635925
1690464536797873256,,18400,,1690464536,797646711,"""world""",,,4.3741774559021,11.355598449707031,0.7293490767478943
1690464536807765551,,18401,,1690464536,807654471,"""world""",,,4.3775248527526855,11.347488403320312,0.7300228476524353
1690464536817704605,,18402,,1690464536,817622323,"""world""",,,4.3806891441345215,11.339383125305176,0.7307672500610352
1690464536827717970,,18403,,1690464536,827642484,"""world""",,,4.384030818939209,11.331385612487793,0.7314486503601074
1690464536837851233,,18404,,1690464536,837703062,"""world""",,,4.3875226974487305,11.323264122009277,0.7321022748947144
1690464536847733768,,18405,,1690464536,847633770,"""world""",,,4.390925884246826,11.315211296081543,0.7326558828353882
1690464536857726906,,18406,,1690464536,857631708,"""world""",,,4.3941497802734375,11.30700397491455,0.7333297729492188
1690464536867773249,,18407,,1690464536,867635007,"""world""",,,4.397486686706543,11.299052238464355,0.733955979347229
1690464536877716546,,18408,,1690464536,877628755,"""world""",,,4.400756359100342,11.290863037109375,0.7345206141471863
1690464536887709523,,18409,,1690464536,887620348,"""world""",,,4.4042158126831055,11.282783508300781,0.7351415157318115
1690464536897718961,,18410,,1690464536,897644665,"""world""",,,4.407533645629883,11.274584770202637,0.7357103824615479
1690464536907736580,,18411,,1690464536,907664111,"""world""",,,4.410961151123047,11.26645565032959,0.7361891269683838
1690464536917741736,,18412,,1690464536,917620317,"""world""",,,4.414365768432617,11.258308410644531,0.736769437789917
1690464536927690625,,18413,,1690464536,927630973,"""world""",,,4.417680740356445,11.250069618225098,0.7372860908508301
1690464536937699355,,18414,,1690464536,937632968,"""world""",,,4.421174049377441,11.241836547851562,0.7377488613128662
1690464536947694675,,18415,,1690464536,947634826,"""world""",,,4.424630165100098,11.233683586120605,0.7382478713989258
1690464536957703888,,18416,,1690464536,957632772,"""world""",,,4.428179740905762,11.225428581237793,0.7386621236801147
1690464536967708717,,18417,,1690464536,967632625,"""world""",,,4.431558609008789,11.217249870300293,0.7391729354858398
1690464536977711840,,18418,,1690464536,977624244,"""world""",,,4.43516731262207,11.208895683288574,0.7394563555717468
1690464536987704384,,18419,,1690464536,987621569,"""world""",,,4.4385271072387695,11.20068645477295,0.7398737668991089
1690464536997712337,,18420,,1690464536,997637899,"""world""",,,4.442000389099121,11.192325592041016,0.7401325106620789
1690464537007750899,,18421,,1690464537,7685754,"""world""",,,4.4454450607299805,11.184127807617188,0.7404496669769287
1690464537017667376,,18422,,1690464537,17617528,"""world""",,,4.448990821838379,11.17585277557373,0.7407675385475159
1690464537027699953,,18423,,1690464537,27633255,"""world""",,,4.452514171600342,11.167487144470215,0.7410348653793335
1690464537037702142,,18424,,1690464537,37634580,"""world""",,,4.456016540527344,11.159144401550293,0.741403341293335
1690464537047693810,,18425,,1690464537,47631572,"""world""",,,4.459469795227051,11.150684356689453,0.7416239380836487
1690464537057692241,,18426,,1690464537,57627438,"""world""",,,4.463042736053467,11.142495155334473,0.7418621182441711
1690464537067701564,,18427,,1690464537,67633482,"""world""",,,4.466538429260254,11.1340913772583,0.7421204447746277
1690464537077687049,,18428,,1690464537,77628499,"""world""",,,4.4701385498046875,11.125821113586426,0.7425224184989929
1690464537087688478,,18429,,1690464537,87623346,"""world""",,,4.473725318908691,11.11734676361084,0.7428085803985596
1690464537097710578,,18430,,1690464537,97636242,"""world""",,,4.477422714233398,11.108909606933594,0.7432005405426025
1690464537107727984,,18431,,1690464537,107668728,"""world""",,,4.480826377868652,11.100375175476074,0.7434539794921875
1690464537117671129,,18432,,1690464537,117618192,"""world""",,,4.484426021575928,11.09188175201416,0.7439468502998352
1690464537127699871,,18433,,1690464537,127632699,"""world""",,,4.488002777099609,11.083495140075684,0.7443666458129883
1690464537137702295,,18434,,1690464537,137633122,"""world""",,,4.491734981536865,11.07508373260498,0.744773268699646
