rosbagTimestamp,header,seq,stamp,secs,nsecs,frame_id,pose,position,x,y,z
1691261979550988146,,2024,,1691261979,550883616,"""world""",,,-2.9626972675323486,0.06784992665052414,0.12482237815856934
1691261979590959868,,2025,,1691261979,590873532,"""world""",,,-2.9626967906951904,0.06782469153404236,0.12487226724624634
1691261979860999239,,2026,,1691261979,860888951,"""world""",,,-2.9627068042755127,0.06784536689519882,0.12484340369701385
1691261979861007283,,2027,,1691261979,860905283,"""world""",,,-2.962695360183716,0.06781619042158127,0.1247929260134697
1691261979861034582,,2028,,1691261979,860926196,"""world""",,,-2.9626989364624023,0.06784617900848389,0.12483146041631699
1691261979890948966,,2029,,1691261979,890873033,"""world""",,,-2.962710380554199,0.06789670139551163,0.12481045722961426
1691261979960981773,,2030,,1691261979,960889675,"""world""",,,-2.9626920223236084,0.06786864250898361,0.1248505562543869
1691261979970970970,,2031,,1691261979,970867443,"""world""",,,-2.9626848697662354,0.06779447942972183,0.12478628009557724
1691261980000997656,,2032,,1691261980,891969,"""world""",,,-2.962693452835083,0.06779729574918747,0.12485462427139282
1691261980051010459,,2033,,1691261980,50900372,"""world""",,,-2.9626801013946533,0.06784682720899582,0.12481372058391571
1691261980060957480,,2034,,1691261980,60873672,"""world""",,,-2.962691068649292,0.06786930561065674,0.12481293082237244
1691261980090956557,,2035,,1691261980,90867065,"""world""",,,-2.9626951217651367,0.06790029257535934,0.12479700893163681
1691261980120954416,,2036,,1691261980,120879229,"""world""",,,-2.9627015590667725,0.06787452846765518,0.12484239786863327
1691261980130967138,,2037,,1691261980,130896093,"""world""",,,-2.96270489692688,0.06777968257665634,0.12480362504720688
1691261980160990704,,2038,,1691261980,160872949,"""world""",,,-2.962705612182617,0.06781210750341415,0.12483589351177216
1691261980181133921,,2039,,1691261980,181016014,"""world""",,,-2.9627130031585693,0.06789984554052353,0.12484554946422577
1691261980190944824,,2040,,1691261980,190871521,"""world""",,,-2.9627442359924316,0.0656614825129509,0.1254054307937622
1691261980210929263,,2041,,1691261980,210862183,"""world""",,,-2.9626924991607666,0.06784427165985107,0.12482768297195435
1691261980240938956,,2042,,1691261980,240874349,"""world""",,,-2.9627273082733154,0.06782886385917664,0.12484600394964218
1691261980270933047,,2043,,1691261980,270867962,"""world""",,,-2.962695837020874,0.06783800572156906,0.12487484514713287
1691261980300943673,,2044,,1691261980,300871185,"""world""",,,-2.9627685546875,0.06786257773637772,0.12484290450811386
1691261980310954994,,2045,,1691261980,310877580,"""world""",,,-2.962764024734497,0.06787282228469849,0.12484811246395111
1691261980320955805,,2046,,1691261980,320872798,"""world""",,,-2.9628117084503174,0.0679057314991951,0.12488412111997604
1691261980390991353,,2047,,1691261980,390904440,"""world""",,,-2.962871551513672,0.06794627755880356,0.1249881237745285
1691261980400941261,,2048,,1691261980,400871756,"""world""",,,-2.9628820419311523,0.06794475764036179,0.12501314282417297
1691261980440946898,,2049,,1691261980,440871715,"""world""",,,-2.9629838466644287,0.06794600933790207,0.12500864267349243
1691261980470960717,,2050,,1691261980,470879484,"""world""",,,-2.9630250930786133,0.06809177994728088,0.1249345988035202
1691261980490960763,,2051,,1691261980,490874861,"""world""",,,-2.9631612300872803,0.06823804974555969,0.12495830655097961
1691261980500955977,,2052,,1691261980,500876916,"""world""",,,-2.9631736278533936,0.0681864321231842,0.12504327297210693
1691261980510935068,,2053,,1691261980,510868210,"""world""",,,-2.963292360305786,0.0681830421090126,0.12515008449554443
1691261980520945024,,2054,,1691261980,520871656,"""world""",,,-2.963361978530884,0.06810639053583145,0.12531326711177826
1691261980531001538,,2055,,1691261980,530891018,"""world""",,,-2.963412046432495,0.06802873313426971,0.1255662590265274
1691261980540946851,,2056,,1691261980,540872794,"""world""",,,-2.9635202884674072,0.06805790215730667,0.12572379410266876
1691261980550952643,,2057,,1691261980,550877322,"""world""",,,-2.963624954223633,0.06797123700380325,0.1260778307914734
1691261980590976397,,2058,,1691261980,590871085,"""world""",,,-2.9641315937042236,0.06588095426559448,0.1306738257408142
1691261980600949347,,2059,,1691261980,600878159,"""world""",,,-2.9639387130737305,0.0678514912724495,0.13174112141132355
1691261980610921929,,2060,,1691261980,610859409,"""world""",,,-2.9639575481414795,0.06554742902517319,0.13474063575267792
1691261980631038659,,2061,,1691261980,630910025,"""world""",,,-2.9635987281799316,0.0652879998087883,0.14030888676643372
1691261980661045294,,2062,,1691261980,660887125,"""world""",,,-2.963291883468628,0.06740570068359375,0.15019747614860535
1691261980670963360,,2063,,1691261980,670877417,"""world""",,,-2.9630649089813232,0.0673077255487442,0.15463976562023163
1691261980681038199,,2064,,1691261980,680925282,"""world""",,,-2.963024854660034,0.06738398969173431,0.1591457724571228
1691261980690997526,,2065,,1691261980,690877059,"""world""",,,-2.963080644607544,0.06518390029668808,0.16462691128253937
1691261980700975754,,2066,,1691261980,700872077,"""world""",,,-2.9628889560699463,0.06718841940164566,0.16903114318847656
1691261980710941044,,2067,,1691261980,710866476,"""world""",,,-2.962763547897339,0.06711495667695999,0.17466969788074493
1691261980720965103,,2068,,1691261980,720877542,"""world""",,,-2.962618112564087,0.06706138700246811,0.18028905987739563
1691261980731036106,,2069,,1691261980,730916753,"""world""",,,-2.96246075630188,0.06701373308897018,0.1862298995256424
1691261980740942912,,2070,,1691261980,740869082,"""world""",,,-2.962278366088867,0.06677084416151047,0.19244402647018433
1691261980750985257,,2071,,1691261980,750873554,"""world""",,,-2.9621963500976562,0.06669250875711441,0.1987546980381012
1691261980761004430,,2072,,1691261980,760879543,"""world""",,,-2.9621422290802,0.06655626744031906,0.20521634817123413
1691261980770973235,,2073,,1691261980,770872561,"""world""",,,-2.961954355239868,0.06646289676427841,0.21165403723716736
1691261980781010551,,2074,,1691261980,780901499,"""world""",,,-2.9619076251983643,0.06639692187309265,0.2183271199464798
1691261980790992952,,2075,,1691261980,790891833,"""world""",,,-2.961958646774292,0.06611716002225876,0.22520682215690613
1691261980800945976,,2076,,1691261980,800876883,"""world""",,,-2.961822271347046,0.06601458042860031,0.2321932315826416
1691261980810963750,,2077,,1691261980,810854043,"""world""",,,-2.961719274520874,0.0658651813864708,0.23908087611198425
1691261980820990871,,2078,,1691261980,820882363,"""world""",,,-2.9615261554718018,0.06564086675643921,0.24608394503593445
1691261980920954794,,2079,,1691261980,920876696,"""world""",,,-2.9601211547851562,0.062064770609140396,0.31352439522743225
1691261980931007842,,2080,,1691261980,930896131,"""world""",,,-2.9599835872650146,0.06175578013062477,0.31972742080688477
1691261980990954018,,2081,,1691261980,990878531,"""world""",,,-2.9584999084472656,0.06011151894927025,0.3533966839313507
1691261981010931541,,2082,,1691261981,10861814,"""world""",,,-2.9582910537719727,0.05994363874197006,0.36323368549346924
1691261981050991855,,2083,,1691261981,50870561,"""world""",,,-2.9575741291046143,0.05964051932096481,0.3814117908477783
1691261981060974859,,2084,,1691261981,60878507,"""world""",,,-2.9573581218719482,0.05903567373752594,0.3859395384788513
1691261981070995738,,2085,,1691261981,70895108,"""world""",,,-2.957432985305786,0.05927301570773125,0.39009061455726624
1691261981210981956,,2086,,1691261981,210873052,"""world""",,,-2.956977605819702,0.057752080261707306,0.44263654947280884
1691261981220985394,,2087,,1691261981,220901030,"""world""",,,-2.957063913345337,0.05773288756608963,0.44615286588668823
1691261981281020293,,2088,,1691261981,280899621,"""world""",,,-2.9575002193450928,0.05749575048685074,0.4665236175060272
1691261981340981656,,2089,,1691261981,340871467,"""world""",,,-2.958631992340088,0.05854634568095207,0.48536795377731323
1691261981350951844,,2090,,1691261981,350871591,"""world""",,,-2.958787441253662,0.058426037430763245,0.48839467763900757
1691261981370947867,,2091,,1691261981,370870989,"""world""",,,-2.959317207336426,0.058608442544937134,0.4943605661392212
1691261981380969782,,2092,,1691261981,380886524,"""world""",,,-2.9594545364379883,0.0588049478828907,0.4972256124019623
1691261981390944988,,2093,,1691261981,390872959,"""world""",,,-2.9598207473754883,0.05878331512212753,0.5000245571136475
1691261981400947194,,2094,,1691261981,400867281,"""world""",,,-2.9600419998168945,0.05902441591024399,0.5028917789459229
1691261981410921846,,2095,,1691261981,410860299,"""world""",,,-2.96024751663208,0.05881700664758682,0.5059720277786255
1691261981420945507,,2096,,1691261981,420870615,"""world""",,,-2.960601568222046,0.0592290461063385,0.5085372924804688
1691261981431093512,,2097,,1691261981,430947920,"""world""",,,-2.960831880569458,0.05908171460032463,0.5114209055900574
1691261981470970967,,2098,,1691261981,470876735,"""world""",,,-2.962235927581787,0.06009920686483383,0.5221856236457825
1691261981480960138,,2099,,1691261981,480879533,"""world""",,,-2.962582588195801,0.060314781963825226,0.5247337818145752
1691261981500953802,,2100,,1691261981,500870364,"""world""",,,-2.963329315185547,0.06064540147781372,0.5300604104995728
1691261981570941786,,2101,,1691261981,570867976,"""world""",,,-2.9659698009490967,0.0624929703772068,0.548483669757843
1691261981581255294,,2102,,1691261981,580880082,"""world""",,,-2.9664418697357178,0.06268665194511414,0.5510371327400208
1691261981600960584,,2103,,1691261981,600875277,"""world""",,,-2.967400074005127,0.06370269507169724,0.5559224486351013
1691261981621061490,,2104,,1691261981,620932831,"""world""",,,-2.9680862426757812,0.06440724432468414,0.5609104037284851
1691261981631037260,,2105,,1691261981,630930865,"""world""",,,-2.968585252761841,0.06472505629062653,0.5634539127349854
1691261981640938154,,2106,,1691261981,640872930,"""world""",,,-2.9690589904785156,0.06487741321325302,0.565822184085846
1691261981670948654,,2107,,1691261981,670881361,"""world""",,,-2.9703116416931152,0.06608918309211731,0.5728232264518738
1691261981680968563,,2108,,1691261981,680888974,"""world""",,,-2.970675230026245,0.06587471067905426,0.5753631591796875
1691261981700935336,,2109,,1691261981,700869468,"""world""",,,-2.9716219902038574,0.06684943288564682,0.5799229145050049
1691261981710922931,,2110,,1691261981,710856562,"""world""",,,-2.972113609313965,0.0675700455904007,0.5819685459136963
1691261981720975144,,2111,,1691261981,720880797,"""world""",,,-2.9725918769836426,0.06804955750703812,0.5842329859733582
1691261981761047569,,2112,,1691261981,760907237,"""world""",,,-2.974216938018799,0.0690605491399765,0.5926380157470703
1691261981770960791,,2113,,1691261981,770865947,"""world""",,,-2.974606990814209,0.06941242516040802,0.5945467352867126
1691261981781023054,,2114,,1691261981,780909095,"""world""",,,-2.975085735321045,0.06990408897399902,0.596616804599762
1691261981810955491,,2115,,1691261981,810868083,"""world""",,,-2.9764955043792725,0.07168495655059814,0.6024119853973389
1691261981820952695,,2116,,1691261981,820876826,"""world""",,,-2.9768521785736084,0.07182098180055618,0.6042830944061279
1691261981860965691,,2117,,1691261981,860878682,"""world""",,,-2.978494644165039,0.07378935813903809,0.6118117570877075
1691261981870969476,,2118,,1691261981,870868380,"""world""",,,-2.9788219928741455,0.07371297478675842,0.613833487033844
1691261981881065253,,2119,,1691261981,880909114,"""world""",,,-2.9791719913482666,0.07394123822450638,0.6156470775604248
1691261981890958020,,2120,,1691261981,890874265,"""world""",,,-2.9795870780944824,0.07455795258283615,0.617642343044281
1691261981910979876,,2121,,1691261981,910883217,"""world""",,,-2.9804625511169434,0.07579629123210907,0.6211255788803101
1691261981920980342,,2122,,1691261981,920901146,"""world""",,,-2.9808189868927,0.0762130618095398,0.6231485605239868
1691261981940958507,,2123,,1691261981,940880397,"""world""",,,-2.981288433074951,0.07655823230743408,0.626872181892395
1691261981960992141,,2124,,1691261981,960904902,"""world""",,,-2.9819979667663574,0.07796809077262878,0.6305980086326599
1691261981970961133,,2125,,1691261981,970874858,"""world""",,,-2.9822745323181152,0.07807598263025284,0.6325361728668213
1691261981990989127,,2126,,1691261981,990914163,"""world""",,,-2.9828224182128906,0.07909131050109863,0.6364023685455322
1691261982010978885,,2127,,1691261982,10899678,"""world""",,,-2.9834625720977783,0.08037301898002625,0.6401756405830383
1691261982020976094,,2128,,1691261982,20903326,"""world""",,,-2.98366641998291,0.08065882325172424,0.6420852541923523
1691261982060965980,,2129,,1691261982,60870884,"""world""",,,-2.9845340251922607,0.08233366906642914,0.6497748494148254
1691261982070957324,,2130,,1691261982,70872377,"""world""",,,-2.9846787452697754,0.08250164240598679,0.6517281532287598
1691261982090963711,,2131,,1691261982,90878263,"""world""",,,-2.9850311279296875,0.08346302062273026,0.655503511428833
1691261982100945458,,2132,,1691261982,100869531,"""world""",,,-2.9852449893951416,0.08395737409591675,0.6572895646095276
1691261982110937470,,2133,,1691261982,110867960,"""world""",,,-2.9854042530059814,0.08465857803821564,0.6590966582298279
1691261982120946809,,2134,,1691261982,120872131,"""world""",,,-2.9856526851654053,0.08518896251916885,0.6607847809791565
1691261982130997586,,2135,,1691261982,130892038,"""world""",,,-2.9857850074768066,0.08539867401123047,0.6625356078147888
1691261982150963148,,2136,,1691261982,150880792,"""world""",,,-2.986011266708374,0.08631814271211624,0.6661911606788635
1691261982160967653,,2137,,1691261982,160873954,"""world""",,,-2.986114740371704,0.08711595088243484,0.6678616404533386
1691261982170947749,,2138,,1691261982,170870148,"""world""",,,-2.9862101078033447,0.08709936589002609,0.6696737408638
1691261982180959426,,2139,,1691261982,180877089,"""world""",,,-2.9864091873168945,0.08744281530380249,0.671323299407959
1691261982190929491,,2140,,1691261982,190854918,"""world""",,,-2.9865264892578125,0.08789051324129105,0.6730156540870667
1691261982210943819,,2141,,1691261982,210862295,"""world""",,,-2.9866230487823486,0.08850999921560287,0.6765742897987366
1691261982220955902,,2142,,1691261982,220871247,"""world""",,,-2.9867639541625977,0.08952248841524124,0.6782870292663574
1691261982231128773,,2143,,1691261982,230929335,"""world""",,,-2.9868485927581787,0.08978508412837982,0.6799392104148865
1691261982240973347,,2144,,1691261982,240870907,"""world""",,,-2.9868268966674805,0.08986426144838333,0.6816077828407288
1691261982260988429,,2145,,1691261982,260877950,"""world""",,,-2.987022876739502,0.09099189192056656,0.6851641535758972
1691261982270974031,,2146,,1691261982,270870796,"""world""",,,-2.987168073654175,0.09206085652112961,0.6866593956947327
1691261982280928176,,2147,,1691261982,280843077,"""world""",,,-2.9870169162750244,0.09210462123155594,0.6885532736778259
1691261982290966525,,2148,,1691261982,290878436,"""world""",,,-2.9868710041046143,0.09232145547866821,0.6902843713760376
1691261982300940609,,2149,,1691261982,300870078,"""world""",,,-2.986943244934082,0.09279561787843704,0.6920676827430725
1691261982310955132,,2150,,1691261982,310890848,"""world""",,,-2.986931324005127,0.09319718927145004,0.6936983466148376
1691261982320969654,,2151,,1691261982,320875755,"""world""",,,-2.9868972301483154,0.09378679096698761,0.6952939033508301
1691261982331052285,,2152,,1691261982,330929748,"""world""",,,-2.9868435859680176,0.09505870193243027,0.6967498660087585
1691261982350956378,,2153,,1691261982,350874499,"""world""",,,-2.986734390258789,0.09510048478841782,0.6994547843933105
1691261982360981021,,2154,,1691261982,360882871,"""world""",,,-2.986678123474121,0.09565774351358414,0.7007275223731995
1691261982390970139,,2155,,1691261982,390885197,"""world""",,,-2.9867050647735596,0.09686360508203506,0.7038919925689697
1691261982410963416,,2156,,1691261982,410865616,"""world""",,,-2.9866116046905518,0.09824920445680618,0.7056768536567688
1691261982421008713,,2157,,1691261982,420908793,"""world""",,,-2.9866044521331787,0.09860570728778839,0.7063735723495483
1691261982430954862,,2158,,1691261982,430879764,"""world""",,,-2.9865758419036865,0.0989665538072586,0.7069641351699829
1691261982440948440,,2159,,1691261982,440870270,"""world""",,,-2.9864935874938965,0.09940215945243835,0.7076027989387512
1691261982460994157,,2160,,1691261982,460913842,"""world""",,,-2.986335515975952,0.100666843354702,0.7085832953453064
1691261982470977192,,2161,,1691261982,470868182,"""world""",,,-2.986260414123535,0.10137508064508438,0.7089823484420776
1691261982481005406,,2162,,1691261982,480889393,"""world""",,,-2.9861860275268555,0.10219107568264008,0.7093407511711121
1691261982490970398,,2163,,1691261982,490875439,"""world""",,,-2.9859447479248047,0.10266292840242386,0.7098975777626038
1691261982500960804,,2164,,1691261982,500876514,"""world""",,,-2.985853910446167,0.10307329148054123,0.7102618217468262
1691261982510946843,,2165,,1691261982,510869730,"""world""",,,-2.9859423637390137,0.1039840430021286,0.7104701995849609
1691261982561002847,,2166,,1691261982,560916409,"""world""",,,-2.9855611324310303,0.1069134995341301,0.711677074432373
1691261982570975387,,2167,,1691261982,570902573,"""world""",,,-2.985522747039795,0.10756749659776688,0.7118454575538635
1691261982581048014,,2168,,1691261982,580895746,"""world""",,,-2.9853906631469727,0.1081157997250557,0.712052047252655
1691261982590974815,,2169,,1691261982,590877797,"""world""",,,-2.985330581665039,0.10881484299898148,0.7122110724449158
1691261982600980773,,2170,,1691261982,600869864,"""world""",,,-2.985213279724121,0.10955171287059784,0.7123255133628845
1691261982610927240,,2171,,1691261982,610858552,"""world""",,,-2.985111713409424,0.11022549867630005,0.7124668955802917
1691261982620974309,,2172,,1691261982,620882884,"""world""",,,-2.985055685043335,0.11097277700901031,0.7125933766365051
1691261982630956147,,2173,,1691261982,630872426,"""world""",,,-2.984936475753784,0.11179093271493912,0.7126476168632507
1691261982640989933,,2174,,1691261982,640874122,"""world""",,,-2.984867572784424,0.11237827688455582,0.712775468826294
1691261982650958000,,2175,,1691261982,650876635,"""world""",,,-2.9847822189331055,0.11273957043886185,0.7129031419754028
1691261982660976174,,2176,,1691261982,660882188,"""world""",,,-2.984699010848999,0.11317922919988632,0.7130641937255859
1691261982670944966,,2177,,1691261982,670874022,"""world""",,,-2.9845571517944336,0.1136769950389862,0.7132751941680908
1691261982681025933,,2178,,1691261982,680912391,"""world""",,,-2.984511613845825,0.11430483311414719,0.713333249092102
1691261982700939304,,2179,,1691261982,700869572,"""world""",,,-2.9844441413879395,0.1163497194647789,0.713298499584198
1691261982710937233,,2180,,1691261982,710866912,"""world""",,,-2.9843428134918213,0.11692072451114655,0.7133787274360657
1691261982720984292,,2181,,1691261982,720907812,"""world""",,,-2.984241485595703,0.11744159460067749,0.7134842276573181
1691261982730958738,,2182,,1691261982,730876912,"""world""",,,-2.9842684268951416,0.11819028109312057,0.7134997844696045
1691261982740951355,,2183,,1691261982,740876304,"""world""",,,-2.9842982292175293,0.11917430907487869,0.713499128818512
1691261982780990269,,2184,,1691261982,780895285,"""world""",,,-2.9839072227478027,0.12163744866847992,0.7135064601898193
1691261982790899395,,2185,,1691261982,790831280,"""world""",,,-2.983916759490967,0.12226004898548126,0.7134814858436584
1691261982800951645,,2186,,1691261982,800872828,"""world""",,,-2.9838764667510986,0.12272470444440842,0.7135235667228699
1691261982810952024,,2187,,1691261982,810869348,"""world""",,,-2.9838101863861084,0.12300622463226318,0.7134589552879333
1691261982820954819,,2188,,1691261982,820873402,"""world""",,,-2.983814239501953,0.12383932620286942,0.7134068012237549
1691261982830976141,,2189,,1691261982,830883929,"""world""",,,-2.983829975128174,0.12444102019071579,0.713300883769989
1691261982840947801,,2190,,1691261982,840874615,"""world""",,,-2.9837162494659424,0.12510450184345245,0.7131025791168213
1691261982851001989,,2191,,1691261982,850883151,"""world""",,,-2.983668804168701,0.1259254515171051,0.7129090428352356
1691261982860996851,,2192,,1691261982,860873502,"""world""",,,-2.983665943145752,0.12650136649608612,0.7128037810325623
1691261982870971631,,2193,,1691261982,870900357,"""world""",,,-2.9836816787719727,0.12713809311389923,0.7126646041870117
1691261982880975597,,2194,,1691261982,880888521,"""world""",,,-2.98367977142334,0.12763448059558868,0.7125527858734131
1691261982890952731,,2195,,1691261982,890869710,"""world""",,,-2.983632802963257,0.12799599766731262,0.7124934196472168
1691261982900996164,,2196,,1691261982,900882026,"""world""",,,-2.983644485473633,0.12843509018421173,0.7124170660972595
1691261982910945456,,2197,,1691261982,910864919,"""world""",,,-2.983633041381836,0.12905246019363403,0.7123376131057739
1691261982920962963,,2198,,1691261982,920871764,"""world""",,,-2.9836764335632324,0.1295371800661087,0.7122946381568909
1691261982941001402,,2199,,1691261982,940886218,"""world""",,,-2.9836108684539795,0.13071070611476898,0.7120270133018494
1691261982950983664,,2200,,1691261982,950873440,"""world""",,,-2.983649492263794,0.13102707266807556,0.7120075821876526
1691261982960939758,,2201,,1691261982,960873676,"""world""",,,-2.9836654663085938,0.13155576586723328,0.7119375467300415
1691261982970936155,,2202,,1691261982,970871662,"""world""",,,-2.9837045669555664,0.13211950659751892,0.7118726372718811
1691261982980965232,,2203,,1691261982,980872357,"""world""",,,-2.983693838119507,0.1325804442167282,0.711880624294281
1691261982990987753,,2204,,1691261982,990903265,"""world""",,,-2.9838509559631348,0.13341961801052094,0.711868405342102
1691261983000945854,,2205,,1691261983,871567,"""world""",,,-2.9837863445281982,0.13356871902942657,0.711925208568573
1691261983010922569,,2206,,1691261983,10856771,"""world""",,,-2.983898162841797,0.13404931128025055,0.7119272351264954
1691261983020971567,,2207,,1691261983,20875849,"""world""",,,-2.9838860034942627,0.13417303562164307,0.7119942903518677
1691261983040941768,,2208,,1691261983,40872422,"""world""",,,-2.983992099761963,0.13556122779846191,0.7118997573852539
1691261983050973272,,2209,,1691261983,50887150,"""world""",,,-2.984100103378296,0.1359785497188568,0.711968183517456
1691261983061036681,,2210,,1691261983,60926504,"""world""",,,-2.984149217605591,0.13629044592380524,0.7120754718780518
1691261983070959885,,2211,,1691261983,70871207,"""world""",,,-2.9841511249542236,0.1365472674369812,0.7121870517730713
1691261983080982033,,2212,,1691261983,80885555,"""world""",,,-2.984225273132324,0.13675443828105927,0.712315022945404
1691261983090957181,,2213,,1691261983,90870641,"""world""",,,-2.9843568801879883,0.1370818316936493,0.7124512791633606
1691261983100948428,,2214,,1691261983,100871599,"""world""",,,-2.984421730041504,0.13744190335273743,0.712612509727478
1691261983140945828,,2215,,1691261983,140869384,"""world""",,,-2.9849979877471924,0.1396285891532898,0.713086724281311
1691261983151027589,,2216,,1691261983,150920853,"""world""",,,-2.9851653575897217,0.13990408182144165,0.7132543325424194
1691261983161012020,,2217,,1691261983,160897259,"""world""",,,-2.985278367996216,0.14009633660316467,0.7134896516799927
1691261983170937137,,2218,,1691261983,170867051,"""world""",,,-2.985339403152466,0.14017510414123535,0.713795006275177
1691261983200979202,,2219,,1691261983,200874813,"""world""",,,-2.985846519470215,0.14203977584838867,0.7147405743598938
1691261983240997613,,2220,,1691261983,240905605,"""world""",,,-2.986215114593506,0.14277857542037964,0.7161474227905273
1691261983250955167,,2221,,1691261983,250874443,"""world""",,,-2.9863409996032715,0.1428937017917633,0.716526448726654
1691261983260976197,,2222,,1691261983,260891077,"""world""",,,-2.986496686935425,0.14322136342525482,0.7169606685638428
1691261983270955651,,2223,,1691261983,270870131,"""world""",,,-2.9865739345550537,0.1434779018163681,0.7173973917961121
1691261983280938962,,2224,,1691261983,280872001,"""world""",,,-2.9866981506347656,0.1439780741930008,0.7178959846496582
1691261983290950393,,2225,,1691261983,290873452,"""world""",,,-2.986952304840088,0.14433406293392181,0.7182823419570923
1691261983310924012,,2226,,1691261983,310859273,"""world""",,,-2.9872348308563232,0.1445184350013733,0.7192544937133789
1691261983350969746,,2227,,1691261983,350886614,"""world""",,,-2.987750768661499,0.14558914303779602,0.7214593887329102
1691261983361021466,,2228,,1691261983,360891201,"""world""",,,-2.9879512786865234,0.145752415060997,0.7220035791397095
1691261983370973551,,2229,,1691261983,370863568,"""world""",,,-2.988041639328003,0.14599166810512543,0.7225437760353088
1691261983380972155,,2230,,1691261983,380877088,"""world""",,,-2.988199234008789,0.14623595774173737,0.7230638861656189
1691261983391010524,,2231,,1691261983,390892566,"""world""",,,-2.9883811473846436,0.14659608900547028,0.7235925793647766
1691261983400949737,,2232,,1691261983,400867990,"""world""",,,-2.988626003265381,0.14702874422073364,0.7241472601890564
1691261983410930087,,2233,,1691261983,410855939,"""world""",,,-2.9887073040008545,0.14704029262065887,0.7247205972671509
1691261983431001877,,2234,,1691261983,430892472,"""world""",,,-2.9889378547668457,0.1476791501045227,0.726054847240448
1691261983441012251,,2235,,1691261983,440903095,"""world""",,,-2.9890618324279785,0.1475939154624939,0.7266665697097778
1691261983480971662,,2236,,1691261983,480880497,"""world""",,,-2.98945951461792,0.14824102818965912,0.7287534475326538
1691261983490956767,,2237,,1691261983,490891218,"""world""",,,-2.9894893169403076,0.14818325638771057,0.7293237447738647
1691261983500948382,,2238,,1691261983,500875164,"""world""",,,-2.9895617961883545,0.14827239513397217,0.7298204898834229
1691261983511061969,,2239,,1691261983,510928302,"""world""",,,-2.989643096923828,0.1481694132089615,0.7303733229637146
1691261983520950705,,2240,,1691261983,520877577,"""world""",,,-2.989837646484375,0.1482982486486435,0.7307886481285095
1691261983530976166,,2241,,1691261983,530883016,"""world""",,,-2.9899649620056152,0.1485988050699234,0.7312016487121582
1691261983540990443,,2242,,1691261983,540903261,"""world""",,,-2.989948272705078,0.14842228591442108,0.7318442463874817
1691261983550963053,,2243,,1691261983,550879488,"""world""",,,-2.990064859390259,0.1483212113380432,0.7322642207145691
1691261983560961009,,2244,,1691261983,560879406,"""world""",,,-2.9901247024536133,0.14826157689094543,0.7326591610908508
1691261983580938156,,2245,,1691261983,580855266,"""world""",,,-2.990457057952881,0.14866408705711365,0.7332592010498047
1691261983590958477,,2246,,1691261983,590881143,"""world""",,,-2.9905104637145996,0.14856043457984924,0.7336159944534302
1691261983600957835,,2247,,1691261983,600878740,"""world""",,,-2.99062442779541,0.14867223799228668,0.7339231967926025
1691261983610941669,,2248,,1691261983,610870263,"""world""",,,-2.9907820224761963,0.14888852834701538,0.734228789806366
1691261983620944466,,2249,,1691261983,620875386,"""world""",,,-2.99088716506958,0.1488049477338791,0.7345690727233887
1691261983630955236,,2250,,1691261983,630875621,"""world""",,,-2.9909753799438477,0.14866586029529572,0.7349066734313965
1691261983640954884,,2251,,1691261983,640877285,"""world""",,,-2.9910531044006348,0.14858736097812653,0.7351831793785095
1691261983650953183,,2252,,1691261983,650870651,"""world""",,,-2.991201639175415,0.14871029555797577,0.735392689704895
1691261983660979381,,2253,,1691261983,660886584,"""world""",,,-2.9913041591644287,0.14898602664470673,0.7356792092323303
1691261983670944566,,2254,,1691261983,670869292,"""world""",,,-2.991417646408081,0.14890752732753754,0.7359107136726379
1691261983680953717,,2255,,1691261983,680874495,"""world""",,,-2.9914655685424805,0.14859944581985474,0.7361893057823181
1691261983690981363,,2256,,1691261983,690889580,"""world""",,,-2.9916086196899414,0.14848019182682037,0.7364369034767151
1691261983700990496,,2257,,1691261983,700879069,"""world""",,,-2.991809606552124,0.14893251657485962,0.736797571182251
1691261983710950914,,2258,,1691261983,710867701,"""world""",,,-2.991914749145508,0.14891032874584198,0.7370471954345703
1691261983720952475,,2259,,1691261983,720873353,"""world""",,,-2.9920129776000977,0.14886708557605743,0.7373194098472595
1691261983730958008,,2260,,1691261983,730870918,"""world""",,,-2.9921529293060303,0.14886435866355896,0.7375580668449402
1691261983740939775,,2261,,1691261983,740867551,"""world""",,,-2.992211103439331,0.14818471670150757,0.7378629446029663
1691261983760965519,,2262,,1691261983,760878187,"""world""",,,-2.9924468994140625,0.14777342975139618,0.7384382486343384
1691261983770960613,,2263,,1691261983,770882803,"""world""",,,-2.9926750659942627,0.1477053314447403,0.7387161254882812
1691261983780949961,,2264,,1691261983,780878916,"""world""",,,-2.9928815364837646,0.14768251776695251,0.7389231324195862
1691261983790978884,,2265,,1691261983,790886206,"""world""",,,-2.993079900741577,0.14758716523647308,0.7391725778579712
1691261983800937106,,2266,,1691261983,800871453,"""world""",,,-2.9932029247283936,0.14721645414829254,0.7394809126853943
1691261983810889262,,2267,,1691261983,810814062,"""world""",,,-2.9934606552124023,0.1469755321741104,0.7397395372390747
1691261983820985209,,2268,,1691261983,820898669,"""world""",,,-2.993726968765259,0.1469767689704895,0.740061342716217
1691261983840955525,,2269,,1691261983,840874096,"""world""",,,-2.994185209274292,0.14650028944015503,0.7406889796257019
1691261983850949841,,2270,,1691261983,850870286,"""world""",,,-2.99438214302063,0.14595253765583038,0.7410706281661987
1691261983860995342,,2271,,1691261983,860906468,"""world""",,,-2.9945788383483887,0.14562176167964935,0.7413922548294067
1691261983870947944,,2272,,1691261983,870870157,"""world""",,,-2.9947357177734375,0.145323246717453,0.741796612739563
1691261983880942374,,2273,,1691261983,880873972,"""world""",,,-2.9949543476104736,0.14518573880195618,0.742156445980072
1691261983931064683,,2274,,1691261983,930893541,"""world""",,,-2.9962563514709473,0.14396628737449646,0.7443304061889648
1691261983950945377,,2275,,1691261983,950873488,"""world""",,,-2.9968583583831787,0.143678680062294,0.7452328205108643
1691261983961020281,,2276,,1691261983,960902860,"""world""",,,-2.9971466064453125,0.1438162922859192,0.7456158399581909
1691261983970966473,,2277,,1691261983,970868205,"""world""",,,-2.997377395629883,0.143236443400383,0.7461333274841309
1691261983980942735,,2278,,1691261983,980871585,"""world""",,,-2.9976322650909424,0.14296238124370575,0.7466424703598022
1691261983991233206,,2279,,1691261983,990914575,"""world""",,,-2.997875452041626,0.14267773926258087,0.74715656042099
1691261984000956081,,2280,,1691261984,875779,"""world""",,,-2.9981141090393066,0.14223447442054749,0.7477836608886719
1691261984010925762,,2281,,1691261984,10856959,"""world""",,,-2.998492956161499,0.14213500916957855,0.7483444809913635
1691261984020978622,,2282,,1691261984,20869763,"""world""",,,-2.9988272190093994,0.14190436899662018,0.7489302158355713
1691261984050960392,,2283,,1691261984,50871638,"""world""",,,-2.9997708797454834,0.14116355776786804,0.7509758472442627
1691261984070950796,,2284,,1691261984,70874163,"""world""",,,-3.0003583431243896,0.14063318073749542,0.752435564994812
1691261984080965100,,2285,,1691261984,80874544,"""world""",,,-3.000633478164673,0.1403150111436844,0.753246009349823
1691261984090959500,,2286,,1691261984,90880012,"""world""",,,-3.000929117202759,0.14007531106472015,0.7541137337684631
1691261984100943074,,2287,,1691261984,100869706,"""world""",,,-3.0012118816375732,0.14010876417160034,0.7549919486045837
1691261984151060539,,2288,,1691261984,150922433,"""world""",,,-3.0029029846191406,0.13895604014396667,0.7601940631866455
1691261984161037735,,2289,,1691261984,160941847,"""world""",,,-3.0033843517303467,0.13894253969192505,0.7614862322807312
1691261984170970004,,2290,,1691261984,170900685,"""world""",,,-3.0036513805389404,0.13860614597797394,0.7626029849052429
1691261984190964548,,2291,,1691261984,190882907,"""world""",,,-3.004215955734253,0.13800333440303802,0.7651070356369019
1691261984240953070,,2292,,1691261984,240871923,"""world""",,,-3.005925416946411,0.1379673182964325,0.7716783285140991
1691261984251036769,,2293,,1691261984,250911017,"""world""",,,-3.0062923431396484,0.1376330554485321,0.7731083035469055
1691261984260994087,,2294,,1691261984,260898604,"""world""",,,-3.006588935852051,0.13745614886283875,0.7744464874267578
1691261984270939469,,2295,,1691261984,270868019,"""world""",,,-3.0069425106048584,0.13736310601234436,0.775896430015564
1691261984281020924,,2296,,1691261984,280881945,"""world""",,,-3.0073325634002686,0.13742871582508087,0.7772852778434753
1691261984311014644,,2297,,1691261984,310895747,"""world""",,,-3.008382558822632,0.1370757669210434,0.7816290259361267
1691261984320972340,,2298,,1691261984,320880736,"""world""",,,-3.008798122406006,0.13732071220874786,0.7832067012786865
1691261984331094724,,2299,,1691261984,330929354,"""world""",,,-3.009171485900879,0.13757093250751495,0.7844903469085693
1691261984340983736,,2300,,1691261984,340877160,"""world""",,,-3.00944185256958,0.13730208575725555,0.7859524488449097
1691261984361030203,,2301,,1691261984,360908955,"""world""",,,-3.010005474090576,0.13727658987045288,0.7889806628227234
1691261984370944522,,2302,,1691261984,370873419,"""world""",,,-3.010347843170166,0.13717924058437347,0.7904196381568909
1691261984380952174,,2303,,1691261984,380877400,"""world""",,,-3.0106492042541504,0.13729211688041687,0.7918456196784973
1691261984410970810,,2304,,1691261984,410872027,"""world""",,,-3.0115814208984375,0.13787928223609924,0.7963536381721497
1691261984420943911,,2305,,1691261984,420870727,"""world""",,,-3.011880397796631,0.13741102814674377,0.7980278134346008
1691261984470954173,,2306,,1691261984,470880042,"""world""",,,-3.013273239135742,0.1372787356376648,0.8060283660888672
1691261984480957201,,2307,,1691261984,480875550,"""world""",,,-3.0134713649749756,0.13723573088645935,0.8076138496398926
1691261984490948632,,2308,,1691261984,490871695,"""world""",,,-3.0137758255004883,0.13731025159358978,0.8093929886817932
1691261984500952747,,2309,,1691261984,500876917,"""world""",,,-3.0140912532806396,0.13727957010269165,0.8109830021858215
1691261984510943532,,2310,,1691261984,510868548,"""world""",,,-3.0143840312957764,0.1373210847377777,0.8126602172851562
1691261984540974710,,2311,,1691261984,540870925,"""world""",,,-3.0151751041412354,0.13767625391483307,0.8175934553146362
1691261984570991918,,2312,,1691261984,570876394,"""world""",,,-3.0157952308654785,0.1377275586128235,0.8227719664573669
1691261984590989344,,2313,,1691261984,590870788,"""world""",,,-3.016300916671753,0.13797390460968018,0.8262866735458374
1691261984600981480,,2314,,1691261984,600871183,"""world""",,,-3.016498327255249,0.1378210037946701,0.8280302286148071
1691261984610935638,,2315,,1691261984,610861325,"""world""",,,-3.0166237354278564,0.1380544751882553,0.8299509882926941
1691261984620949294,,2316,,1691261984,620867972,"""world""",,,-3.0169777870178223,0.13828125596046448,0.8316504955291748
1691261984650994519,,2317,,1691261984,650877468,"""world""",,,-3.0175957679748535,0.13878701627254486,0.837012767791748
1691261984670936959,,2318,,1691261984,670869223,"""world""",,,-3.018085479736328,0.13904662430286407,0.8407648801803589
1691261984680951404,,2319,,1691261984,680874968,"""world""",,,-3.018260955810547,0.13881616294384003,0.842638373374939
1691261984710944806,,2320,,1691261984,710870968,"""world""",,,-3.018869400024414,0.13902631402015686,0.8483757376670837
1691261984780954011,,2321,,1691261984,780876973,"""world""",,,-3.019973039627075,0.13912639021873474,0.8619546890258789
1691261984790945887,,2322,,1691261984,790871814,"""world""",,,-3.0201308727264404,0.13959743082523346,0.864026665687561
1691261984800938957,,2323,,1691261984,800872846,"""world""",,,-3.0202395915985107,0.13923689723014832,0.8659268617630005
1691261984810962942,,2324,,1691261984,810856691,"""world""",,,-3.0204787254333496,0.13936343789100647,0.8677992820739746
1691261984840981237,,2325,,1691261984,840875613,"""world""",,,-3.0208096504211426,0.13981246948242188,0.8736822605133057
1691261984860993650,,2326,,1691261984,860885281,"""world""",,,-3.021204948425293,0.14019742608070374,0.8774767518043518
1691261984880972907,,2327,,1691261984,880871714,"""world""",,,-3.021372079849243,0.14010655879974365,0.8814992904663086
1691261984900949992,,2328,,1691261984,900875655,"""world""",,,-3.0217227935791016,0.1403866857290268,0.8853872418403625
1691261984910938579,,2329,,1691261984,910864227,"""world""",,,-3.0218281745910645,0.14087486267089844,0.8871824145317078
1691261984920968891,,2330,,1691261984,920873388,"""world""",,,-3.0219101905822754,0.140502467751503,0.8893331289291382
1691261984931169524,,2331,,1691261984,930993420,"""world""",,,-3.0219922065734863,0.14049503207206726,0.8912182450294495
1691261984970989439,,2332,,1691261984,970869327,"""world""",,,-3.0223329067230225,0.14079388976097107,0.8990647792816162
1691261984980956634,,2333,,1691261984,980880317,"""world""",,,-3.022508382797241,0.14083334803581238,0.9008388519287109
1691261984990963943,,2334,,1691261984,990869067,"""world""",,,-3.0225508213043213,0.1413297802209854,0.9028207659721375
1691261985000936671,,2335,,1691261985,868601,"""world""",,,-3.0226449966430664,0.1410493403673172,0.9046385288238525
1691261985020989530,,2336,,1691261985,20902523,"""world""",,,-3.0226991176605225,0.14098624885082245,0.9083696603775024
1691261985031334639,,2337,,1691261985,30907779,"""world""",,,-3.022836685180664,0.14115503430366516,0.9101643562316895
1691261985040962401,,2338,,1691261985,40875272,"""world""",,,-3.0228607654571533,0.1410273164510727,0.9121711850166321
1691261985050958919,,2339,,1691261985,50871142,"""world""",,,-3.0228233337402344,0.1407354325056076,0.9139692783355713
1691261985090967484,,2340,,1691261985,90874855,"""world""",,,-3.02297043800354,0.14057931303977966,0.9210536479949951
1691261985101012843,,2341,,1691261985,100873289,"""world""",,,-3.0230627059936523,0.14082802832126617,0.9226938486099243
1691261985150969517,,2342,,1691261985,150874237,"""world""",,,-3.023245096206665,0.14131996035575867,0.9300544261932373
1691261985160999446,,2343,,1691261985,160879156,"""world""",,,-3.0230188369750977,0.14068172872066498,0.9316533803939819
1691261985171001292,,2344,,1691261985,170916545,"""world""",,,-3.0228569507598877,0.14044082164764404,0.9330188035964966
1691261985180959175,,2345,,1691261985,180879885,"""world""",,,-3.0227150917053223,0.14060558378696442,0.934232234954834
1691261985190992841,,2346,,1691261985,190877587,"""world""",,,-3.0224649906158447,0.14053261280059814,0.9356640577316284
1691261985200952744,,2347,,1691261985,200875886,"""world""",,,-3.022012710571289,0.14039956033229828,0.9369386434555054
1691261985231017859,,2348,,1691261985,230894342,"""world""",,,-3.0195398330688477,0.13968110084533691,0.9416346549987793
1691261985240948956,,2349,,1691261985,240871618,"""world""",,,-3.018178701400757,0.13930942118167877,0.9431942701339722
1691261985280963072,,2350,,1691261985,280877282,"""world""",,,-3.0104663372039795,0.1395576298236847,0.9493517875671387
1691261985290962471,,2351,,1691261985,290869238,"""world""",,,-3.008225679397583,0.13749796152114868,0.9518868923187256
1691261985301002144,,2352,,1691261985,300875251,"""world""",,,-3.0055184364318848,0.1395539939403534,0.9528995156288147
1691261985310939345,,2353,,1691261985,310866699,"""world""",,,-3.0031356811523438,0.13879169523715973,0.954437792301178
1691261985320976941,,2354,,1691261985,320879610,"""world""",,,-3.0006206035614014,0.1379343420267105,0.9557363986968994
1691261985331058270,,2355,,1691261985,330908994,"""world""",,,-2.9978322982788086,0.1373000591993332,0.9569355845451355
1691261985360968773,,2356,,1691261985,360881272,"""world""",,,-2.988067865371704,0.13576458394527435,0.9602634906768799
1691261985370953218,,2357,,1691261985,370876126,"""world""",,,-2.9843082427978516,0.13519111275672913,0.9615015387535095
1691261985380955884,,2358,,1691261985,380876988,"""world""",,,-2.9802892208099365,0.134493887424469,0.9624226093292236
1691261985390947193,,2359,,1691261985,390873768,"""world""",,,-2.9762372970581055,0.1338396966457367,0.9634007811546326
1691261985400978561,,2360,,1691261985,400880771,"""world""",,,-2.9717228412628174,0.13335908949375153,0.964464008808136
1691261985410971485,,2361,,1691261985,410863781,"""world""",,,-2.967125654220581,0.13236123323440552,0.9651694297790527
1691261985420942748,,2362,,1691261985,420867378,"""world""",,,-2.962028741836548,0.13171455264091492,0.966036856174469
1691261985431129630,,2363,,1691261985,430971069,"""world""",,,-2.9566650390625,0.13120834529399872,0.9670088291168213
1691261985440946864,,2364,,1691261985,440873141,"""world""",,,-2.950993776321411,0.12988482415676117,0.9678492546081543
1691261985450953121,,2365,,1691261985,450874011,"""world""",,,-2.9449050426483154,0.12921947240829468,0.9685238003730774
1691261985460992080,,2366,,1691261985,460886231,"""world""",,,-2.938505172729492,0.12828896939754486,0.9695226550102234
1691261985470947447,,2367,,1691261985,470876922,"""world""",,,-2.9317562580108643,0.12722866237163544,0.9700711369514465
1691261985480972406,,2368,,1691261985,480870950,"""world""",,,-2.9246928691864014,0.12616315484046936,0.9707468152046204
1691261985490946361,,2369,,1691261985,490876180,"""world""",,,-2.9171807765960693,0.12497855722904205,0.9714756011962891
1691261985500944978,,2370,,1691261985,500872716,"""world""",,,-2.909466028213501,0.12391002476215363,0.9720351696014404
1691261985510935629,,2371,,1691261985,510862852,"""world""",,,-2.901371717453003,0.12272156029939651,0.9726511836051941
1691261985520964609,,2372,,1691261985,520878515,"""world""",,,-2.8928298950195312,0.12135279178619385,0.9733376502990723
1691261985531051112,,2373,,1691261985,530914049,"""world""",,,-2.883976936340332,0.12010282278060913,0.9739595055580139
1691261985540977626,,2374,,1691261985,540903434,"""world""",,,-2.874603271484375,0.11897947639226913,0.9745141863822937
1691261985550955762,,2375,,1691261985,550875949,"""world""",,,-2.865034341812134,0.11755872517824173,0.9749774932861328
1691261985561002573,,2376,,1691261985,560884049,"""world""",,,-2.8550503253936768,0.11604096740484238,0.9755005240440369
1691261985570946236,,2377,,1691261985,570875784,"""world""",,,-2.844379186630249,0.11457546055316925,0.9760713577270508
1691261985580966220,,2378,,1691261985,580877324,"""world""",,,-2.8333301544189453,0.1131099984049797,0.9766330718994141
1691261985590985887,,2379,,1691261985,590885879,"""world""",,,-2.8220577239990234,0.1113857626914978,0.9771108627319336
1691261985600945785,,2380,,1691261985,600869111,"""world""",,,-2.8102667331695557,0.10978507995605469,0.9776115417480469
1691261985610917446,,2381,,1691261985,610862786,"""world""",,,-2.7982518672943115,0.10794171690940857,0.9781363606452942
1691261985620980429,,2382,,1691261985,620883078,"""world""",,,-2.7855870723724365,0.10613927245140076,0.9787459969520569
1691261985631100857,,2383,,1691261985,630979644,"""world""",,,-2.772630453109741,0.10424059629440308,0.9791870713233948
1691261985640902689,,2384,,1691261985,640836408,"""world""",,,-2.759246826171875,0.10242685675621033,0.9795168042182922
1691261985650966270,,2385,,1691261985,650871587,"""world""",,,-2.7454898357391357,0.10053800791501999,0.9800333380699158
1691261985660977618,,2386,,1691261985,660876723,"""world""",,,-2.731114149093628,0.09859693050384521,0.9804725646972656
1691261985670954044,,2387,,1691261985,670872053,"""world""",,,-2.7165286540985107,0.0964701920747757,0.980872631072998
1691261985680955357,,2388,,1691261985,680882713,"""world""",,,-2.701481819152832,0.09443634003400803,0.9812180399894714
1691261985690961172,,2389,,1691261985,690875410,"""world""",,,-2.6859846115112305,0.09215548634529114,0.9816426634788513
1691261985700987554,,2390,,1691261985,700874558,"""world""",,,-2.670077085494995,0.090091772377491,0.9820078015327454
1691261985710943552,,2391,,1691261985,710857835,"""world""",,,-2.6535937786102295,0.08780317008495331,0.9823806285858154
1691261985720959000,,2392,,1691261985,720880393,"""world""",,,-2.6367733478546143,0.08560553193092346,0.9829105734825134
1691261985731086884,,2393,,1691261985,730918399,"""world""",,,-2.6196320056915283,0.08338045328855515,0.9831603169441223
1691261985740937059,,2394,,1691261985,740867338,"""world""",,,-2.6021649837493896,0.08067899942398071,0.983579695224762
1691261985751059204,,2395,,1691261985,750898627,"""world""",,,-2.58406662940979,0.07829942554235458,0.9840949177742004
1691261985760982449,,2396,,1691261985,760874971,"""world""",,,-2.565654754638672,0.07582143694162369,0.9842814803123474
1691261985770954232,,2397,,1691261985,770869351,"""world""",,,-2.547041654586792,0.07311326265335083,0.9846809506416321
1691261985781031083,,2398,,1691261985,780896777,"""world""",,,-2.5277011394500732,0.07064267992973328,0.9849715232849121
1691261985790999437,,2399,,1691261985,790915939,"""world""",,,-2.5082781314849854,0.0679292157292366,0.985375702381134
1691261985800941285,,2400,,1691261985,800871825,"""world""",,,-2.4884324073791504,0.06521636247634888,0.9855334162712097
1691261985810921399,,2401,,1691261985,810855493,"""world""",,,-2.468191385269165,0.06257675588130951,0.9858052134513855
1691261985820991071,,2402,,1691261985,820877502,"""world""",,,-2.4478559494018555,0.059573013335466385,0.9859145283699036
1691261985831112902,,2403,,1691261985,830933588,"""world""",,,-2.427351236343384,0.05692492052912712,0.9861111640930176
1691261985840947291,,2404,,1691261985,840871735,"""world""",,,-2.406487226486206,0.054076872766017914,0.9860736727714539
1691261985850993298,,2405,,1691261985,850891555,"""world""",,,-2.3853912353515625,0.05143078789114952,0.9861958622932434
1691261985860946566,,2406,,1691261985,860872727,"""world""",,,-2.3641834259033203,0.04854621738195419,0.9861938953399658
1691261985870957841,,2407,,1691261985,870874887,"""world""",,,-2.3426592350006104,0.04568026214838028,0.9862244725227356
1691261985881101580,,2408,,1691261985,880933646,"""world""",,,-2.3209688663482666,0.0425788015127182,0.9859898090362549
1691261985890971496,,2409,,1691261985,890879798,"""world""",,,-2.2987630367279053,0.03978782147169113,0.9858155250549316
1691261985900976592,,2410,,1691261985,900889117,"""world""",,,-2.27636981010437,0.036883775144815445,0.9853885769844055
1691261985920951514,,2411,,1691261985,920872283,"""world""",,,-2.2308807373046875,0.02781386487185955,0.9856975674629211
1691261985931121298,,2412,,1691261985,930949415,"""world""",,,-2.2078771591186523,0.025143753737211227,0.9854745864868164
1691261986140987245,,2413,,1691261986,140875625,"""world""",,,-1.7058683633804321,-0.0400390625,0.97959965467453
1691261986280996110,,2414,,1691261986,280870019,"""world""",,,-1.3180687427520752,-0.0932999849319458,0.9788235425949097
1691261986290964317,,2415,,1691261986,290871152,"""world""",,,-1.2924468517303467,-0.09693895280361176,0.97853684425354
1691261986301033453,,2416,,1691261986,300891733,"""world""",,,-1.2675782442092896,-0.10092726349830627,0.9786780476570129
1691261986310958491,,2417,,1691261986,310859616,"""world""",,,-1.2421784400939941,-0.10440892726182938,0.9787750244140625
1691261986320968139,,2418,,1691261986,320874267,"""world""",,,-1.2168900966644287,-0.10787065327167511,0.9788205623626709
1691261986350987538,,2419,,1691261986,350893620,"""world""",,,-1.1419644355773926,-0.11899884045124054,0.9787182211875916
1691261986360983628,,2420,,1691261986,360885299,"""world""",,,-1.1170296669006348,-0.12300939112901688,0.9790781140327454
1691261986370950315,,2421,,1691261986,370871829,"""world""",,,-1.092400312423706,-0.12652480602264404,0.9790087938308716
1691261986380956832,,2422,,1691261986,380876214,"""world""",,,-1.067970633506775,-0.13015645742416382,0.9789007306098938
1691261986390992812,,2423,,1691261986,390903886,"""world""",,,-1.0433014631271362,-0.13385868072509766,0.9792534708976746
1691261986410949391,,2424,,1691261986,410862067,"""world""",,,-0.9943320751190186,-0.14130869507789612,0.9796149134635925
1691261986420992238,,2425,,1691261986,420878890,"""world""",,,-0.9694017767906189,-0.14537417888641357,0.9803441762924194
1691261986620952808,,2426,,1691261986,620873079,"""world""",,,-0.61606764793396,-0.20098207890987396,0.9834016561508179
1691261986670958575,,2427,,1691261986,670878728,"""world""",,,-0.3895217478275299,-0.24017490446567535,0.9839262962341309
1691261986820968939,,2428,,1691261986,820878153,"""world""",,,-0.09984008967876434,-0.28558188676834106,0.9775459170341492
1691261986831086899,,2429,,1691261986,830914852,"""world""",,,-0.03349607437849045,-0.296633243560791,0.9761369824409485
1691261986850953668,,2430,,1691261986,850873975,"""world""",,,0.010793031193315983,-0.30389052629470825,0.9751725792884827
1691261986910953948,,2431,,1691261986,910866853,"""world""",,,0.1431344747543335,-0.3256493806838989,0.972126305103302
1691261987131688483,,2432,,1691261987,130901030,"""world""",,,0.3862077295780182,-0.3659932017326355,0.9662437438964844
1691261987131693479,,2433,,1691261987,130933177,"""world""",,,0.43009594082832336,-0.3731761574745178,0.9650447964668274
1691261987131703684,,2434,,1691261987,130939633,"""world""",,,0.626664936542511,-0.4051246643066406,0.9581782221794128
1691261987140996929,,2435,,1691261987,140901490,"""world""",,,0.6481581330299377,-0.4087115526199341,0.9568610191345215
1691261987150931382,,2436,,1691261987,150866864,"""world""",,,0.6690406799316406,-0.41226351261138916,0.9556623101234436
1691261987161002791,,2437,,1691261987,160868260,"""world""",,,0.6905784010887146,-0.4160867929458618,0.9539743661880493
1691261987170959240,,2438,,1691261987,170870073,"""world""",,,0.7108866572380066,-0.41916370391845703,0.952822208404541
1691261987331050817,,2439,,1691261987,330934324,"""world""",,,0.971248984336853,-0.4613776206970215,0.9338469505310059
1691261987340961894,,2440,,1691261987,340870213,"""world""",,,0.9898903965950012,-0.46454721689224243,0.9326347708702087
1691261987340967753,,2441,,1691261987,340883648,"""world""",,,1.0092684030532837,-0.466746985912323,0.9315588474273682
1691261987340988317,,2442,,1691261987,340900194,"""world""",,,1.0272692441940308,-0.47000330686569214,0.9304243922233582
1691261987340995746,,2443,,1691261987,340909246,"""world""",,,1.045267105102539,-0.47307077050209045,0.9293639063835144
1691261987350960239,,2444,,1691261987,350874283,"""world""",,,1.0632567405700684,-0.47593259811401367,0.928353488445282
1691261987360953517,,2445,,1691261987,360871600,"""world""",,,1.0808449983596802,-0.47875669598579407,0.9274341464042664
1691261987370949572,,2446,,1691261987,370871877,"""world""",,,1.0983189344406128,-0.4815051853656769,0.9264146685600281
1691261987380981206,,2447,,1691261987,380889866,"""world""",,,1.115329384803772,-0.48439711332321167,0.9254420399665833
1691261987390944552,,2448,,1691261987,390875125,"""world""",,,1.1315855979919434,-0.4871714115142822,0.9247844815254211
1691261987400952730,,2449,,1691261987,400868554,"""world""",,,1.1480971574783325,-0.489619642496109,0.9235138893127441
1691261987410906132,,2450,,1691261987,410844361,"""world""",,,1.1645203828811646,-0.49229347705841064,0.9227189421653748
1691261987420972723,,2451,,1691261987,420877871,"""world""",,,1.1802661418914795,-0.49485400319099426,0.9217836260795593
1691261987431037916,,2452,,1691261987,430920735,"""world""",,,1.195530652999878,-0.49743905663490295,0.9212421774864197
1691261987440937398,,2453,,1691261987,440869095,"""world""",,,1.2111972570419312,-0.49963775277137756,0.9200326204299927
1691261987450959516,,2454,,1691261987,450877818,"""world""",,,1.225498080253601,-0.5021729469299316,0.9194411039352417
1691261987470984816,,2455,,1691261987,470874185,"""world""",,,1.254781723022461,-0.5072067975997925,0.9181320667266846
1691261987481017647,,2456,,1691261987,480886367,"""world""",,,1.2688192129135132,-0.509196937084198,0.9170370697975159
1691261987490955904,,2457,,1691261987,490870791,"""world""",,,1.2823435068130493,-0.5118516683578491,0.9167224168777466
1691261987501071998,,2458,,1691261987,500910975,"""world""",,,1.2954810857772827,-0.5137473940849304,0.9160449504852295
1691261987520967419,,2459,,1691261987,520877445,"""world""",,,1.320987582206726,-0.517844021320343,0.9145707488059998
1691261987531596421,,2460,,1691261987,530886182,"""world""",,,1.3331828117370605,-0.5198151469230652,0.9137905240058899
1691261987540950196,,2461,,1691261987,540872679,"""world""",,,1.34560227394104,-0.5220063328742981,0.9131117463111877
1691261987550963312,,2462,,1691261987,550873489,"""world""",,,1.3570024967193604,-0.5240709185600281,0.9129355549812317
1691261987570946166,,2463,,1691261987,570869774,"""world""",,,1.379152774810791,-0.5275153517723083,0.911803662776947
1691261987580944847,,2464,,1691261987,580870049,"""world""",,,1.3896933794021606,-0.5291200280189514,0.9113110303878784
1691261987590968415,,2465,,1691261987,590871258,"""world""",,,1.4000588655471802,-0.5311093926429749,0.9108038544654846
1691261987600952350,,2466,,1691261987,600874384,"""world""",,,1.408933162689209,-0.5304676294326782,0.9098185896873474
1691261987610947587,,2467,,1691261987,610871952,"""world""",,,1.4199377298355103,-0.5338469743728638,0.9099782109260559
1691261987620956005,,2468,,1691261987,620876699,"""world""",,,1.4301435947418213,-0.5360953211784363,0.9099107384681702
1691261987631179251,,2469,,1691261987,630943400,"""world""",,,1.4397518634796143,-0.5374776721000671,0.9094231128692627
1691261987851019127,,2470,,1691261987,850876649,"""world""",,,1.5479847192764282,-0.5607726573944092,0.9060543179512024
1691261987851024620,,2471,,1691261987,850890795,"""world""",,,1.553107500076294,-0.5631946325302124,0.9059087634086609
1691261987860963862,,2472,,1691261987,860886583,"""world""",,,1.5859713554382324,-0.5782636404037476,0.9007943272590637
1691261987870942485,,2473,,1691261987,870870686,"""world""",,,1.5897750854492188,-0.5806649923324585,0.8999693989753723
1691261987890959033,,2474,,1691261987,890882973,"""world""",,,1.5973924398422241,-0.5859758257865906,0.8979165554046631
1691261988150969412,,2475,,1691261988,150871967,"""world""",,,1.647141695022583,-0.6653987169265747,0.873627781867981
1691261988150982190,,2476,,1691261988,150901233,"""world""",,,1.6485642194747925,-0.6710712909698486,0.8719578385353088
1691261990140948407,,2477,,1691261990,140871722,"""world""",,,1.6978245973587036,-1.2106094360351562,0.8023579716682434
1691261990260984066,,2478,,1691261990,260884196,"""world""",,,1.6903576850891113,-1.2419756650924683,0.7950361371040344
1691261990290977449,,2479,,1691261990,290887223,"""world""",,,1.6825823783874512,-1.2496010065078735,0.7919737696647644
1691261990350937696,,2480,,1691261990,350864296,"""world""",,,1.6789904832839966,-1.2777248620986938,0.7887436747550964
1691261990391007255,,2481,,1691261990,390902015,"""world""",,,1.6752827167510986,-1.2986067533493042,0.7861557006835938
1691261990460946700,,2482,,1691261990,460877626,"""world""",,,1.6694368124008179,-1.3408716917037964,0.7819717526435852
1691261991221007801,,2483,,1691261991,220897275,"""world""",,,1.6202967166900635,-1.6784021854400635,0.7924291491508484
1691261991290970009,,2484,,1691261991,290890485,"""world""",,,1.6185858249664307,-1.6854088306427002,0.8158011436462402
1691261991310959189,,2485,,1691261991,310883272,"""world""",,,1.6169724464416504,-1.6859365701675415,0.8228265047073364
1691261991740967015,,2486,,1691261991,740883569,"""world""",,,1.6057615280151367,-1.7040296792984009,0.9320424199104309
1691261992250954240,,2487,,1691261992,250871977,"""world""",,,1.5293083190917969,-1.7027724981307983,0.9509680867195129
1691261992260959422,,2488,,1691261992,260872817,"""world""",,,1.525037169456482,-1.7022768259048462,0.9507601857185364
1691261992270956811,,2489,,1691261992,270871680,"""world""",,,1.520769476890564,-1.7020832300186157,0.9507901668548584
1691261992280961753,,2490,,1691261992,280873321,"""world""",,,1.5160512924194336,-1.7014342546463013,0.9505385756492615
1691261992290971300,,2491,,1691261992,290893905,"""world""",,,1.5112358331680298,-1.7008463144302368,0.950596034526825
1691261992301008501,,2492,,1691261992,300912635,"""world""",,,1.5062872171401978,-1.7003674507141113,0.9506241679191589
1691261992310991250,,2493,,1691261992,310874656,"""world""",,,1.5010528564453125,-1.699468970298767,0.9506247639656067
1691261992320964180,,2494,,1691261992,320875946,"""world""",,,1.4957994222640991,-1.6991873979568481,0.9508995413780212
1691261992331055947,,2495,,1691261992,330935520,"""world""",,,1.4901819229125977,-1.6984325647354126,0.9511297345161438
1691261992341016537,,2496,,1691261992,340921133,"""world""",,,1.484208583831787,-1.6976386308670044,0.9514889717102051
1691261992350937272,,2497,,1691261992,350868332,"""world""",,,1.4781993627548218,-1.6971302032470703,0.9517815113067627
1691261992360947448,,2498,,1691261992,360868354,"""world""",,,1.4719773530960083,-1.6963272094726562,0.9522489905357361
1691261992370971329,,2499,,1691261992,370887247,"""world""",,,1.4655570983886719,-1.6954790353775024,0.953116238117218
1691261992380948451,,2500,,1691261992,380871632,"""world""",,,1.4588994979858398,-1.6948002576828003,0.9538156390190125
1691261992390965566,,2501,,1691261992,390874947,"""world""",,,1.4519882202148438,-1.6938495635986328,0.9545905590057373
1691261992400980553,,2502,,1691261992,400882617,"""world""",,,1.444990634918213,-1.693161964416504,0.9557044506072998
1691261992410954005,,2503,,1691261992,410867418,"""world""",,,1.4376527070999146,-1.6919012069702148,0.9567304253578186
1691261992420938588,,2504,,1691261992,420862670,"""world""",,,1.4303827285766602,-1.6912802457809448,0.9581130146980286
1691261992431021110,,2505,,1691261992,430897794,"""world""",,,1.4227384328842163,-1.690205693244934,0.959493100643158
1691261992441004461,,2506,,1691261992,440893603,"""world""",,,1.4150069952011108,-1.6893911361694336,0.9611883163452148
1691261992450942372,,2507,,1691261992,450864249,"""world""",,,1.4072576761245728,-1.688722014427185,0.9630241990089417
1691261992460960097,,2508,,1691261992,460870573,"""world""",,,1.3992818593978882,-1.6877355575561523,0.9648416638374329
1691261992470981430,,2509,,1691261992,470878247,"""world""",,,1.391195297241211,-1.6866813898086548,0.9669907689094543
1691261992480951034,,2510,,1691261992,480873072,"""world""",,,1.3832465410232544,-1.685644507408142,0.9691803455352783
1691261992490961715,,2511,,1691261992,490876375,"""world""",,,1.3752009868621826,-1.6846214532852173,0.9717567563056946
1691261992500990543,,2512,,1691261992,500886449,"""world""",,,1.3671449422836304,-1.6839572191238403,0.9744082689285278
1691261992510938489,,2513,,1691261992,510870216,"""world""",,,1.3588370084762573,-1.6828804016113281,0.9770990610122681
1691261992520917947,,2514,,1691261992,520861999,"""world""",,,1.3507356643676758,-1.6815292835235596,0.9796256422996521
1691261992531027884,,2515,,1691261992,530896046,"""world""",,,1.342518925666809,-1.6811219453811646,0.9825891852378845
1691261992540954126,,2516,,1691261992,540870906,"""world""",,,1.3341197967529297,-1.6798537969589233,0.9852299690246582
1691261992550927294,,2517,,1691261992,550856327,"""world""",,,1.3255925178527832,-1.6790595054626465,0.987906277179718
