rosbagTimestamp,header,seq,stamp,secs,nsecs,frame_id,pose,position,x,y,z
1691262078680954680,,2877,,1691262078,680878359,"""world""",,,1.0373131036758423,-1.7454638481140137,1.1319907903671265
1691262078970968327,,2878,,1691262078,970869827,"""world""",,,0.7317883372306824,-1.7977436780929565,1.1725114583969116
1691262079000988198,,2879,,1691262079,875643,"""world""",,,0.7049750685691833,-1.8025885820388794,1.1759451627731323
1691262079010971256,,2880,,1691262079,10880076,"""world""",,,0.6959095597267151,-1.8037488460540771,1.1767146587371826
1691262079041046444,,2881,,1691262079,40909680,"""world""",,,0.6696612238883972,-1.8075637817382812,1.1800533533096313
1691262079061030252,,2882,,1691262079,60883760,"""world""",,,0.6525732278823853,-1.810630202293396,1.18187415599823
1691262079080986654,,2883,,1691262079,80919847,"""world""",,,0.6352176666259766,-1.813841700553894,1.184094786643982
1691262079100962163,,2884,,1691262079,100871263,"""world""",,,0.6190141439437866,-1.8159908056259155,1.1861202716827393
1691262079131037646,,2885,,1691262079,130893070,"""world""",,,0.5930009484291077,-1.820560097694397,1.1895087957382202
1691262079150945645,,2886,,1691262079,150866591,"""world""",,,0.5764161944389343,-1.8234344720840454,1.1918314695358276
1691262079170959746,,2887,,1691262079,170871064,"""world""",,,0.559846043586731,-1.8255587816238403,1.194025993347168
1691262079180943478,,2888,,1691262079,180865650,"""world""",,,0.5516194105148315,-1.8276770114898682,1.1954991817474365
1691262079210932276,,2889,,1691262079,210860169,"""world""",,,0.526919960975647,-1.8311845064163208,1.1987513303756714
1691262079231040281,,2890,,1691262079,230890247,"""world""",,,0.510791540145874,-1.8332812786102295,1.2010715007781982
1691262079240958647,,2891,,1691262079,240876237,"""world""",,,0.502425491809845,-1.8350220918655396,1.2023797035217285
1691262079261027623,,2892,,1691262079,260904865,"""world""",,,0.4866897761821747,-1.8373750448226929,1.2046656608581543
1691262079271027380,,2893,,1691262079,270901169,"""world""",,,0.478605717420578,-1.8386855125427246,1.2058724164962769
1691262079291016385,,2894,,1691262079,290901336,"""world""",,,0.46247050166130066,-1.841012954711914,1.2080886363983154
1691262079300941164,,2895,,1691262079,300868752,"""world""",,,0.45498883724212646,-1.8419870138168335,1.2091745138168335
1691262079310927573,,2896,,1691262079,310859167,"""world""",,,0.44703614711761475,-1.8432952165603638,1.2102224826812744
1691262079320954294,,2897,,1691262079,320871661,"""world""",,,0.439052939414978,-1.844436526298523,1.2113885879516602
1691262079331002161,,2898,,1691262079,330882628,"""world""",,,0.4310237765312195,-1.8457108736038208,1.2122751474380493
1691262079340999284,,2899,,1691262079,340928388,"""world""",,,0.42326465249061584,-1.8474411964416504,1.2133420705795288
1691262079350989866,,2900,,1691262079,350887857,"""world""",,,0.4156079888343811,-1.847996711730957,1.214235782623291
1691262079360958999,,2901,,1691262079,360875776,"""world""",,,0.4077851474285126,-1.8494811058044434,1.2152563333511353
1691262079370938252,,2902,,1691262079,370864295,"""world""",,,0.40015989542007446,-1.8508468866348267,1.2162635326385498
1691262079380953625,,2903,,1691262079,380868414,"""world""",,,0.3925294876098633,-1.8520981073379517,1.2171239852905273
1691262079390981265,,2904,,1691262079,390873028,"""world""",,,0.38464903831481934,-1.8535640239715576,1.2180143594741821
1691262079400972082,,2905,,1691262079,400874379,"""world""",,,0.37701624631881714,-1.8540515899658203,1.218805193901062
1691262079410942710,,2906,,1691262079,410861177,"""world""",,,0.36938151717185974,-1.8555852174758911,1.2196305990219116
1691262079420966822,,2907,,1691262079,420873477,"""world""",,,0.3617649972438812,-1.8572745323181152,1.2205172777175903
1691262079430970236,,2908,,1691262079,430876108,"""world""",,,0.35422927141189575,-1.8578325510025024,1.2212276458740234
1691262079440985531,,2909,,1691262079,440916455,"""world""",,,0.3466201424598694,-1.8597605228424072,1.2221472263336182
1691262079450955906,,2910,,1691262079,450875638,"""world""",,,0.33901312947273254,-1.8606821298599243,1.2227731943130493
1691262079460975592,,2911,,1691262079,460872351,"""world""",,,0.3315097689628601,-1.8621814250946045,1.2236095666885376
1691262079470952555,,2912,,1691262079,470875028,"""world""",,,0.3240903317928314,-1.8626184463500977,1.2243289947509766
1691262079480962553,,2913,,1691262079,480870106,"""world""",,,0.31654059886932373,-1.8640350103378296,1.2251076698303223
1691262079490942413,,2914,,1691262079,490868833,"""world""",,,0.3089105486869812,-1.8656901121139526,1.2258529663085938
1691262079500975837,,2915,,1691262079,500870134,"""world""",,,0.30168700218200684,-1.866694450378418,1.22666335105896
1691262079510956957,,2916,,1691262079,510863488,"""world""",,,0.294351726770401,-1.8681446313858032,1.227547287940979
1691262079520951321,,2917,,1691262079,520871017,"""world""",,,0.2870945632457733,-1.8688629865646362,1.228285789489746
1691262079531117401,,2918,,1691262079,530924356,"""world""",,,0.27986589074134827,-1.8707033395767212,1.229110836982727
1691262079540934764,,2919,,1691262079,540868915,"""world""",,,0.27287572622299194,-1.8712695837020874,1.2299250364303589
1691262079550981420,,2920,,1691262079,550903224,"""world""",,,0.2657565772533417,-1.872715950012207,1.23088800907135
1691262079560968030,,2921,,1691262079,560873744,"""world""",,,0.25873348116874695,-1.8738493919372559,1.2318034172058105
1691262079571006518,,2922,,1691262079,570896888,"""world""",,,0.2518942058086395,-1.8752140998840332,1.2327216863632202
1691262079580949782,,2923,,1691262079,580869463,"""world""",,,0.24544073641300201,-1.8753987550735474,1.2345563173294067
1691262079610980652,,2924,,1691262079,610869025,"""world""",,,0.2244785726070404,-1.879715085029602,1.2360435724258423
1691262079620944723,,2925,,1691262079,620870582,"""world""",,,0.21774084866046906,-1.8806215524673462,1.2366405725479126
1691262079630959982,,2926,,1691262079,630873867,"""world""",,,0.2109968364238739,-1.8818517923355103,1.2373932600021362
1691262079640955389,,2927,,1691262079,640871295,"""world""",,,0.2042631357908249,-1.8825225830078125,1.2379878759384155
1691262079650995744,,2928,,1691262079,650890661,"""world""",,,0.19739720225334167,-1.8836866617202759,1.238652229309082
1691262079660970607,,2929,,1691262079,660875545,"""world""",,,0.19087597727775574,-1.8843003511428833,1.2390650510787964
1691262079670950306,,2930,,1691262079,670869993,"""world""",,,0.18413612246513367,-1.8854128122329712,1.2396718263626099
1691262079680947688,,2931,,1691262079,680870224,"""world""",,,0.17773231863975525,-1.8856836557388306,1.240074634552002
1691262079690960206,,2932,,1691262079,690880556,"""world""",,,0.17154020071029663,-1.8871829509735107,1.2406328916549683
1691262079700958196,,2933,,1691262079,700872348,"""world""",,,0.16481401026248932,-1.8869819641113281,1.2409565448760986
1691262079711025328,,2934,,1691262079,710914284,"""world""",,,0.15847894549369812,-1.887582778930664,1.2413691282272339
1691262079720974406,,2935,,1691262079,720874903,"""world""",,,0.15208549797534943,-1.888064980506897,1.2415772676467896
1691262079731016473,,2936,,1691262079,730919061,"""world""",,,0.1457846462726593,-1.8883041143417358,1.2420510053634644
1691262079741016411,,2937,,1691262079,740938275,"""world""",,,0.1395362764596939,-1.8885825872421265,1.2423139810562134
1691262079761016651,,2938,,1691262079,760925750,"""world""",,,0.1274108737707138,-1.8884291648864746,1.242673635482788
1691262079770946956,,2939,,1691262079,770871708,"""world""",,,0.12125562876462936,-1.8885585069656372,1.2429107427597046
1691262080010950523,,2940,,1691262080,10863682,"""world""",,,0.04714535176753998,-1.8744516372680664,1.242557168006897
1691262080010958633,,2941,,1691262080,10878694,"""world""",,,0.03129049763083458,-1.867080569267273,1.2422212362289429
1691262080010996180,,2942,,1691262080,10894527,"""world""",,,0.026052141562104225,-1.8640836477279663,1.242078423500061
1691262080011004525,,2945,,1691262080,10908904,"""world""",,,5.754262747359462e-05,-1.8468185663223267,1.2420371770858765
1691262080021040206,,2946,,1691262080,20928800,"""world""",,,-0.014665587805211544,-1.8330841064453125,1.2415763139724731
1691262080051028392,,2947,,1691262080,50923325,"""world""",,,-0.029719272628426552,-1.817085862159729,1.2414439916610718
1691262080060959905,,2948,,1691262080,60877930,"""world""",,,-0.034722547978162766,-1.8115720748901367,1.2414137125015259
1691262080080939002,,2949,,1691262080,80868793,"""world""",,,-0.044141847640275955,-1.7990604639053345,1.2412134408950806
1691262080090954205,,2950,,1691262080,90878292,"""world""",,,-0.049069296568632126,-1.7926472425460815,1.2411950826644897
1691262080110951342,,2951,,1691262080,110863565,"""world""",,,-0.058735016733407974,-1.7786003351211548,1.2411092519760132
1691262080170943279,,2952,,1691262080,170871547,"""world""",,,-0.08717872202396393,-1.7302488088607788,1.241395354270935
1691262080180963093,,2953,,1691262080,180872012,"""world""",,,-0.09199338406324387,-1.72141695022583,1.2415541410446167
1691262080200967214,,2954,,1691262080,200869454,"""world""",,,-0.10129976272583008,-1.7027171850204468,1.2417678833007812
1691262080230982426,,2955,,1691262080,230873965,"""world""",,,-0.11504865437746048,-1.6723734140396118,1.2426422834396362
1691262080261012904,,2956,,1691262080,260905518,"""world""",,,-0.12893898785114288,-1.6398855447769165,1.2436975240707397
1691262080280961897,,2957,,1691262080,280874144,"""world""",,,-0.13804106414318085,-1.6170090436935425,1.2446216344833374
1691262080291003220,,2958,,1691262080,290876979,"""world""",,,-0.14257580041885376,-1.6050596237182617,1.245076298713684
1691262080320955316,,2959,,1691262080,320872329,"""world""",,,-0.15612559020519257,-1.5681887865066528,1.2466727495193481
1691262080331065475,,2960,,1691262080,330935727,"""world""",,,-0.16082122921943665,-1.555824637413025,1.2472714185714722
1691262080351004757,,2961,,1691262080,350878574,"""world""",,,-0.1700640320777893,-1.5293813943862915,1.2485309839248657
1691262080360967914,,2962,,1691262080,360873301,"""world""",,,-0.17397429049015045,-1.5161875486373901,1.248962163925171
1691262080390974343,,2963,,1691262080,390872750,"""world""",,,-0.1871999204158783,-1.4749847650527954,1.2508248090744019
1691262080401041588,,2964,,1691262080,400922650,"""world""",,,-0.19158479571342468,-1.4607499837875366,1.2515016794204712
1691262080410981361,,2965,,1691262080,410871935,"""world""",,,-0.19608937203884125,-1.4465786218643188,1.2521878480911255
1691262080420958077,,2966,,1691262080,420870635,"""world""",,,-0.20047633349895477,-1.4321264028549194,1.2529481649398804
1691262080460977863,,2967,,1691262080,460875714,"""world""",,,-0.21762363612651825,-1.3726197481155396,1.255989670753479
1691262080480955391,,2968,,1691262080,480865878,"""world""",,,-0.22616955637931824,-1.3419281244277954,1.2578409910202026
1691262080760963917,,2969,,1691262080,760878942,"""world""",,,-0.3362095355987549,-0.9019628763198853,1.2891688346862793
1691262080770957305,,2970,,1691262080,770880971,"""world""",,,-0.3373523950576782,-0.8885809183120728,1.2907602787017822
1691262080780984055,,2971,,1691262080,780899612,"""world""",,,-0.3418503701686859,-0.8745848536491394,1.292138695716858
1691262080801009852,,2972,,1691262080,800905573,"""world""",,,-0.3488699197769165,-0.845850944519043,1.295006513595581
1691262080810936489,,2973,,1691262080,810867853,"""world""",,,-0.3522232174873352,-0.8309352993965149,1.2963640689849854
1691262080830957503,,2974,,1691262080,830876463,"""world""",,,-0.35875552892684937,-0.8034042119979858,1.2993160486221313
1691262080840940459,,2975,,1691262080,840870580,"""world""",,,-0.36149993538856506,-0.7901966571807861,1.3009501695632935
1691262080850951513,,2976,,1691262080,850859819,"""world""",,,-0.36485373973846436,-0.7763729095458984,1.3023606538772583
1691262080860978818,,2977,,1691262080,860899768,"""world""",,,-0.36746975779533386,-0.7636197805404663,1.3038463592529297
1691262080870956341,,2978,,1691262080,870879584,"""world""",,,-0.3708484470844269,-0.7509624361991882,1.3055952787399292
1691262080880976951,,2979,,1691262080,880903556,"""world""",,,-0.3738371431827545,-0.7377564907073975,1.3069267272949219
1691262080890972626,,2980,,1691262080,890900263,"""world""",,,-0.37572914361953735,-0.7246997356414795,1.3084056377410889
1691262080900972997,,2981,,1691262080,900901960,"""world""",,,-0.37953048944473267,-0.7128407955169678,1.3102174997329712
1691262080910970573,,2982,,1691262080,910914285,"""world""",,,-0.3824841380119324,-0.7005184888839722,1.311818242073059
1691262080921001965,,2983,,1691262080,920898561,"""world""",,,-0.38540107011795044,-0.6889886260032654,1.3135087490081787
1691262080930952592,,2984,,1691262080,930878321,"""world""",,,-0.3880782127380371,-0.6776095628738403,1.3152562379837036
1691262080940944968,,2985,,1691262080,940865718,"""world""",,,-0.3907836973667145,-0.6657359004020691,1.317014217376709
1691262080951017982,,2986,,1691262080,950894614,"""world""",,,-0.3935261070728302,-0.6546932458877563,1.3187779188156128
1691262080960987549,,2987,,1691262080,960899238,"""world""",,,-0.39619824290275574,-0.6438072919845581,1.3207958936691284
1691262080970995777,,2988,,1691262080,970902967,"""world""",,,-0.3984615206718445,-0.6336137652397156,1.3226009607315063
1691262080981048792,,2989,,1691262080,980892521,"""world""",,,-0.4010619521141052,-0.6234468221664429,1.3244092464447021
1691262080991013361,,2990,,1691262080,990911167,"""world""",,,-0.4033980667591095,-0.6133566498756409,1.326235055923462
1691262081001024818,,2991,,1691262081,875806,"""world""",,,-0.4056701958179474,-0.6034901738166809,1.3282032012939453
1691262081010934455,,2992,,1691262081,10858218,"""world""",,,-0.4082123339176178,-0.5940492749214172,1.3301045894622803
1691262081021006019,,2993,,1691262081,20874301,"""world""",,,-0.41053295135498047,-0.5841996669769287,1.332058310508728
1691262081031027253,,2994,,1691262081,30885451,"""world""",,,-0.41265103220939636,-0.5752545595169067,1.3342008590698242
1691262081040989891,,2995,,1691262081,40891023,"""world""",,,-0.41498690843582153,-0.5662201046943665,1.3361945152282715
1691262081051003595,,2996,,1691262081,50877228,"""world""",,,-0.41713613271713257,-0.5577204823493958,1.3379544019699097
1691262081060948818,,2997,,1691262081,60865544,"""world""",,,-0.41951000690460205,-0.5487523674964905,1.3399871587753296
1691262081070934941,,2998,,1691262081,70856552,"""world""",,,-0.42095527052879333,-0.5414019227027893,1.3423030376434326
1691262081080979018,,2999,,1691262081,80884575,"""world""",,,-0.42326903343200684,-0.5330487489700317,1.3442915678024292
1691262081090993240,,3000,,1691262081,90878361,"""world""",,,-0.42476895451545715,-0.5262975692749023,1.347559928894043
1691262081120980413,,3001,,1691262081,120888493,"""world""",,,-0.4303809702396393,-0.5043274760246277,1.352946162223816
1691262081130981986,,3002,,1691262081,130888531,"""world""",,,-0.4324909448623657,-0.49661341309547424,1.3552943468093872
1691262081140999944,,3003,,1691262081,140892322,"""world""",,,-0.4339304268360138,-0.4904782772064209,1.3574001789093018
1691262081150979575,,3004,,1691262081,150870953,"""world""",,,-0.43522536754608154,-0.484797865152359,1.359678864479065
1691262081170964493,,3005,,1691262081,170870223,"""world""",,,-0.43883076310157776,-0.47207969427108765,1.3641754388809204
1691262081190989771,,3006,,1691262081,190878609,"""world""",,,-0.44119882583618164,-0.46138861775398254,1.3687130212783813
1691262081201012659,,3007,,1691262081,200888392,"""world""",,,-0.4418686628341675,-0.455759733915329,1.3707565069198608
1691262081211026171,,3008,,1691262081,210873203,"""world""",,,-0.4447875916957855,-0.4497252404689789,1.3733875751495361
1691262081300996915,,3009,,1691262081,300879911,"""world""",,,-0.45463430881500244,-0.408791720867157,1.3946832418441772
1691262081731030867,,3010,,1691262081,730901838,"""world""",,,-0.4798840284347534,-0.32779455184936523,1.472559928894043
1691262081731036304,,3011,,1691262081,730917313,"""world""",,,-0.4804002046585083,-0.3250049352645874,1.4745925664901733
1691262081731039651,,3012,,1691262081,730937670,"""world""",,,-0.4806791841983795,-0.3222723603248596,1.476618766784668
1691262081731058795,,3018,,1691262081,730974882,"""world""",,,-0.48553240299224854,-0.3012543022632599,1.4914212226867676
1691262081740978371,,3019,,1691262081,740901298,"""world""",,,-0.4862551987171173,-0.2978939414024353,1.493470549583435
1691262081750974113,,3020,,1691262081,750873244,"""world""",,,-0.48690348863601685,-0.29415977001190186,1.4953912496566772
1691262081760975591,,3021,,1691262081,760889554,"""world""",,,-0.48758789896965027,-0.2902418375015259,1.4975028038024902
1691262081771017051,,3022,,1691262081,770907120,"""world""",,,-0.48825371265411377,-0.2864810526371002,1.499600887298584
1691262081780978451,,3023,,1691262081,780883621,"""world""",,,-0.48907220363616943,-0.28237879276275635,1.5014609098434448
1691262081790947724,,3024,,1691262081,790876217,"""world""",,,-0.49000218510627747,-0.2781409025192261,1.5034561157226562
1691262081801002253,,3025,,1691262081,800898060,"""world""",,,-0.4906187057495117,-0.27365005016326904,1.505440592765808
1691262081810991655,,3026,,1691262081,810891457,"""world""",,,-0.4915255308151245,-0.2691293954849243,1.5073423385620117
1691262081820975047,,3027,,1691262081,820892526,"""world""",,,-0.49236512184143066,-0.26437467336654663,1.5094763040542603
1691262081830952461,,3028,,1691262081,830876792,"""world""",,,-0.4931684732437134,-0.25951525568962097,1.5113500356674194
1691262081841014335,,3029,,1691262081,840949785,"""world""",,,-0.49405378103256226,-0.25450900197029114,1.5133217573165894
1691262081850997877,,3030,,1691262081,850925515,"""world""",,,-0.49497678875923157,-0.24925746023654938,1.5154156684875488
1691262081860957535,,3031,,1691262081,860880828,"""world""",,,-0.49581730365753174,-0.24374952912330627,1.5172251462936401
1691262081870944744,,3032,,1691262081,870873270,"""world""",,,-0.4969116449356079,-0.23810206353664398,1.5192025899887085
1691262081880959134,,3033,,1691262081,880875785,"""world""",,,-0.4978533983230591,-0.23234997689723969,1.5211862325668335
1691262081890954004,,3034,,1691262081,890877831,"""world""",,,-0.4987519383430481,-0.22634805738925934,1.5229421854019165
1691262081900951714,,3035,,1691262081,900876127,"""world""",,,-0.49983087182044983,-0.2202605903148651,1.525077223777771
1691262081910950042,,3036,,1691262081,910868542,"""world""",,,-0.5006878972053528,-0.21391068398952484,1.5269874334335327
1691262081920974534,,3037,,1691262081,920888279,"""world""",,,-0.5018216967582703,-0.20738933980464935,1.5287809371948242
1691262081930987130,,3038,,1691262081,930886873,"""world""",,,-0.5028557181358337,-0.20073352754116058,1.5308665037155151
1691262081940948862,,3039,,1691262081,940871982,"""world""",,,-0.5040347576141357,-0.19379928708076477,1.5326629877090454
1691262081950951875,,3040,,1691262081,950869326,"""world""",,,-0.5050506591796875,-0.18688419461250305,1.534506916999817
1691262081960974632,,3041,,1691262081,960878719,"""world""",,,-0.5062588453292847,-0.17958389222621918,1.536548137664795
1691262081970963846,,3042,,1691262081,970868805,"""world""",,,-0.5073741674423218,-0.1721794158220291,1.5382195711135864
1691262081981052287,,3043,,1691262081,980911693,"""world""",,,-0.5085664987564087,-0.1646217554807663,1.5401655435562134
1691262081990986461,,3044,,1691262081,990880621,"""world""",,,-0.509794294834137,-0.15693549811840057,1.5420780181884766
1691262082000971264,,3045,,1691262082,872193,"""world""",,,-0.5110617280006409,-0.14913630485534668,1.5438865423202515
1691262082010967522,,3046,,1691262082,10877581,"""world""",,,-0.5123097896575928,-0.14111636579036713,1.545763611793518
1691262082020953655,,3047,,1691262082,20879775,"""world""",,,-0.5135636329650879,-0.13305754959583282,1.5476354360580444
1691262082030983913,,3048,,1691262082,30888747,"""world""",,,-0.5145761966705322,-0.12467972189188004,1.5495691299438477
1691262082041028716,,3049,,1691262082,40955708,"""world""",,,-0.516063392162323,-0.1162584125995636,1.551417350769043
1691262082050962241,,3050,,1691262082,50892832,"""world""",,,-0.5171878337860107,-0.10771631449460983,1.5533407926559448
1691262082060971008,,3051,,1691262082,60891205,"""world""",,,-0.518585205078125,-0.09918799251317978,1.5551666021347046
1691262082070964980,,3052,,1691262082,70897158,"""world""",,,-0.519830584526062,-0.09031960368156433,1.5572484731674194
1691262082080950235,,3053,,1691262082,80875646,"""world""",,,-0.5210826992988586,-0.08149600028991699,1.5589946508407593
1691262082090934987,,3054,,1691262082,90872648,"""world""",,,-0.5223702192306519,-0.0724596157670021,1.560949444770813
1691262082100968564,,3055,,1691262082,100882375,"""world""",,,-0.5236910581588745,-0.06323140859603882,1.5628700256347656
1691262082111046212,,3056,,1691262082,110903388,"""world""",,,-0.5251671671867371,-0.05436481162905693,1.565007209777832
1691262082130972706,,3057,,1691262082,130879932,"""world""",,,-0.5279033184051514,-0.03593813255429268,1.5688024759292603
1691262082150974194,,3058,,1691262082,150901821,"""world""",,,-0.5304170250892639,-0.01696183905005455,1.5728964805603027
1691262082160973080,,3059,,1691262082,160885647,"""world""",,,-0.5313543677330017,-0.007378294598311186,1.5746525526046753
1691262082181029417,,3060,,1691262082,180884647,"""world""",,,-0.5345538258552551,0.011347061023116112,1.5788294076919556
1691262082200993908,,3061,,1691262082,200884369,"""world""",,,-0.5361503958702087,0.0313936211168766,1.582454800605774
1691262082210958513,,3062,,1691262082,210887651,"""world""",,,-0.5375646352767944,0.04075991362333298,1.584553599357605
1691262082220986807,,3063,,1691262082,220870841,"""world""",,,-0.5389952063560486,0.05040999501943588,1.586409330368042
1691262082760984648,,3064,,1691262082,760883699,"""world""",,,-0.5828921794891357,0.4302825927734375,1.7024434804916382
1691262082780950727,,3065,,1691262082,780871932,"""world""",,,-0.5813799500465393,0.43719053268432617,1.7081917524337769
1691262082790975598,,3066,,1691262082,790868725,"""world""",,,-0.5804559588432312,0.44123297929763794,1.711382508277893
1691262082800944373,,3067,,1691262082,800870959,"""world""",,,-0.5792562365531921,0.44387874007225037,1.7140525579452515
1691262082820949804,,3068,,1691262082,820871981,"""world""",,,-0.576734185218811,0.45035994052886963,1.7198985815048218
1691262082830953069,,3069,,1691262082,830871514,"""world""",,,-0.57480788230896,0.4536083936691284,1.7231440544128418
1691262082840987214,,3070,,1691262082,840918639,"""world""",,,-0.5731378197669983,0.45676952600479126,1.7259327173233032
1691262082850966213,,3071,,1691262082,850902950,"""world""",,,-0.5718376040458679,0.4600319564342499,1.7289320230484009
1691262082861029824,,3072,,1691262082,860900564,"""world""",,,-0.5692439079284668,0.4624447226524353,1.7325056791305542
1691262082870937862,,3073,,1691262082,870871544,"""world""",,,-0.5675821900367737,0.4656562805175781,1.7347667217254639
1691262082880935396,,3074,,1691262082,880871348,"""world""",,,-0.565199613571167,0.4678482711315155,1.7371753454208374
1691262082900979398,,3075,,1691262082,900877929,"""world""",,,-0.5597068071365356,0.47338780760765076,1.7432475090026855
1691262082920959593,,3076,,1691262082,920871516,"""world""",,,-0.5548880696296692,0.47743096947669983,1.7478430271148682
1691262084510964955,,3077,,1691262084,510880431,"""world""",,,0.5756893157958984,0.6663400530815125,1.8414050340652466
1691262084510971444,,3078,,1691262084,510896022,"""world""",,,0.5854018330574036,0.6668362021446228,1.8436304330825806
1691262084530993621,,3079,,1691262084,530887396,"""world""",,,0.6020254492759705,0.6668800711631775,1.848098874092102
1691262084700970642,,3080,,1691262084,700881759,"""world""",,,0.7070274353027344,0.6734156608581543,1.8792445659637451
1691262091580950857,,3081,,1691262091,580879089,"""world""",,,0.7511747479438782,-2.401979684829712,1.550559639930725
1691262091580956703,,3082,,1691262091,580893295,"""world""",,,0.6813679337501526,-2.4083316326141357,1.5516626834869385
1691262091580995606,,3083,,1691262091,580911650,"""world""",,,0.6685755252838135,-2.4106764793395996,1.5522875785827637
1691262091581001926,,3085,,1691262091,580920447,"""world""",,,0.6420422792434692,-2.4117186069488525,1.5521272420883179
1691262091610947594,,3086,,1691262091,610870966,"""world""",,,0.6045554280281067,-2.4153831005096436,1.5527074337005615
1691262091660943961,,3087,,1691262091,660872128,"""world""",,,0.5463167428970337,-2.419506549835205,1.553364634513855
1691262091780993022,,3088,,1691262091,780885582,"""world""",,,0.4477178454399109,-2.4244394302368164,1.5540728569030762
1691262091870972746,,3089,,1691262091,870882296,"""world""",,,0.3616028428077698,-2.4160406589508057,1.5531901121139526
1691262092190955153,,3090,,1691262092,190868517,"""world""",,,0.2113959789276123,-2.2888243198394775,1.5499598979949951
1691262092190961912,,3091,,1691262092,190881995,"""world""",,,0.20737366378307343,-2.2802610397338867,1.5511393547058105
1691262092190994797,,3092,,1691262092,190898640,"""world""",,,0.1903807520866394,-2.2439208030700684,1.551334023475647
1691262092191000094,,3093,,1691262092,190904919,"""world""",,,0.18643532693386078,-2.2343790531158447,1.5517408847808838
1691262092220975302,,3094,,1691262092,220903572,"""world""",,,0.17496052384376526,-2.2026240825653076,1.5539441108703613
1691262092260970088,,3095,,1691262092,260884293,"""world""",,,0.16059145331382751,-2.1589772701263428,1.5565401315689087
1691262092350949333,,3096,,1691262092,350866437,"""world""",,,0.12896238267421722,-2.045581579208374,1.5618197917938232
1691262092391007795,,3097,,1691262092,390867163,"""world""",,,0.1165691614151001,-1.9910894632339478,1.564583659172058
1691262092430986312,,3098,,1691262092,430876047,"""world""",,,0.10446947813034058,-1.935530662536621,1.5673353672027588
1691262092470982539,,3099,,1691262092,470885327,"""world""",,,0.09334364533424377,-1.878679871559143,1.5699299573898315
1691262092550955712,,3100,,1691262092,550872378,"""world""",,,0.07200351357460022,-1.763555645942688,1.5745481252670288
1691262092700946907,,3101,,1691262092,700874376,"""world""",,,0.04185056313872337,-1.5833441019058228,1.5808407068252563
1691262092730993875,,3102,,1691262092,730897049,"""world""",,,0.031496912240982056,-1.5194710493087769,1.5830556154251099
1691262092760968766,,3103,,1691262092,760874187,"""world""",,,0.02564171329140663,-1.4823249578475952,1.5845887660980225
1691262092780940726,,3104,,1691262092,780871188,"""world""",,,0.021768314763903618,-1.4583786725997925,1.5856045484542847
1691262093110976356,,3105,,1691262093,110883489,"""world""",,,-0.015263812616467476,-1.2354469299316406,1.5998320579528809
1691262093630956865,,3106,,1691262093,630881083,"""world""",,,-0.06477126479148865,-0.9548332095146179,1.6445108652114868
1691262093630996133,,3107,,1691262093,630909940,"""world""",,,-0.06678362935781479,-0.9350234866142273,1.646813988685608
1691262093631004754,,3108,,1691262093,630919333,"""world""",,,-0.0673794150352478,-0.9294137954711914,1.6474217176437378
1691262093640941266,,3109,,1691262093,640870211,"""world""",,,-0.06783042848110199,-0.9237481951713562,1.6478782892227173
1691262093650939196,,3110,,1691262093,650865495,"""world""",,,-0.06820888817310333,-0.9177460074424744,1.648505687713623
1691262093660968275,,3111,,1691262093,660883604,"""world""",,,-0.06855102628469467,-0.9116962552070618,1.6491087675094604
1691262093670950983,,3112,,1691262093,670870461,"""world""",,,-0.06907143443822861,-0.9054674506187439,1.6498475074768066
1691262093680937887,,3113,,1691262093,680868107,"""world""",,,-0.0695984736084938,-0.8989980816841125,1.6502853631973267
1691262093690931423,,3114,,1691262093,690862281,"""world""",,,-0.06999551504850388,-0.8923510909080505,1.6509805917739868
1691262093700945904,,3115,,1691262093,700876134,"""world""",,,-0.07033544033765793,-0.8854449391365051,1.651699423789978
1691262093710939736,,3116,,1691262093,710871368,"""world""",,,-0.07071348279714584,-0.8783483505249023,1.6524739265441895
1691262093720936937,,3117,,1691262093,720866071,"""world""",,,-0.0710289403796196,-0.8707444071769714,1.6536020040512085
1691262093730957412,,3118,,1691262093,730877082,"""world""",,,-0.0714113786816597,-0.8630023002624512,1.6540311574935913
1691262093740979955,,3119,,1691262093,740902994,"""world""",,,-0.07258812338113785,-0.8534448146820068,1.6557108163833618
1691262093750964813,,3120,,1691262093,750869183,"""world""",,,-0.07233809679746628,-0.8462809920310974,1.655592679977417
1691262093760961506,,3121,,1691262093,760879439,"""world""",,,-0.07261780649423599,-0.8374168872833252,1.656582236289978
1691262093770984619,,3122,,1691262093,770902324,"""world""",,,-0.07257746160030365,-0.8281009793281555,1.655910611152649
1691262093780966210,,3123,,1691262093,780891426,"""world""",,,-0.07313442975282669,-0.8186558485031128,1.6585371494293213
1691262093800994991,,3124,,1691262093,800880994,"""world""",,,-0.07403839379549026,-0.798663318157196,1.660265326499939
1691262093810957542,,3125,,1691262093,810881484,"""world""",,,-0.07419764250516891,-0.7879708409309387,1.6612212657928467
1691262093830947036,,3126,,1691262093,830874153,"""world""",,,-0.07510209083557129,-0.7659012079238892,1.6632879972457886
1691262093840961578,,3127,,1691262093,840881045,"""world""",,,-0.07548799365758896,-0.7541428208351135,1.6643686294555664
1691262093850970497,,3128,,1691262093,850868678,"""world""",,,-0.07565714418888092,-0.7418498992919922,1.6655352115631104
1691262093870946133,,3129,,1691262093,870871834,"""world""",,,-0.07624926418066025,-0.7165076732635498,1.6676820516586304
1691262093880990795,,3130,,1691262093,880913726,"""world""",,,-0.076571986079216,-0.703180193901062,1.6688505411148071
1691262093900960437,,3131,,1691262093,900881715,"""world""",,,-0.07720981538295746,-0.6754477620124817,1.6710233688354492
1691262093910990740,,3132,,1691262093,910876266,"""world""",,,-0.07755912095308304,-0.6610932946205139,1.6724510192871094
1691262093920935588,,3133,,1691262093,920867857,"""world""",,,-0.07780110836029053,-0.6462387442588806,1.6732350587844849
1691262093930946374,,3134,,1691262093,930870651,"""world""",,,-0.07789988815784454,-0.6308497190475464,1.6746830940246582
1691262093940942639,,3135,,1691262093,940874833,"""world""",,,-0.07824941724538803,-0.6152413487434387,1.6759170293807983
1691262093950943376,,3136,,1691262093,950872301,"""world""",,,-0.07834970951080322,-0.5991817116737366,1.6772565841674805
1691262093971002467,,3137,,1691262093,970876759,"""world""",,,-0.07874706387519836,-0.565970242023468,1.679673433303833
1691262093980948235,,3138,,1691262093,980871652,"""world""",,,-0.0792742446064949,-0.5488706231117249,1.6809381246566772
1691262094000961433,,3139,,1691262094,874191,"""world""",,,-0.0793837234377861,-0.5135769248008728,1.6818561553955078
1691262094020946258,,3140,,1691262094,20872936,"""world""",,,-0.07961869984865189,-0.47606804966926575,1.6860650777816772
1691262094030943237,,3141,,1691262094,30874074,"""world""",,,-0.08016254007816315,-0.45707887411117554,1.6871315240859985
1691262094040978967,,3142,,1691262094,40892973,"""world""",,,-0.08006902039051056,-0.4373735785484314,1.6886769533157349
1691262094050939409,,3143,,1691262094,50867465,"""world""",,,-0.08005406707525253,-0.41788002848625183,1.6884154081344604
1691262094060971313,,3144,,1691262094,60876409,"""world""",,,-0.08000960201025009,-0.3968445658683777,1.6917170286178589
1691262094070953714,,3145,,1691262094,70876632,"""world""",,,-0.08062534034252167,-0.376695454120636,1.6926249265670776
1691262094080968907,,3146,,1691262094,80882347,"""world""",,,-0.08067343384027481,-0.3555377721786499,1.6940912008285522
1691262094090927586,,3147,,1691262094,90862908,"""world""",,,-0.08073248714208603,-0.33419984579086304,1.6952260732650757
1691262094111021626,,3148,,1691262094,110918754,"""world""",,,-0.08091851323843002,-0.2903897166252136,1.6984878778457642
1691262094120987210,,3149,,1691262094,120892823,"""world""",,,-0.08090169727802277,-0.2678384780883789,1.7000261545181274
1691262094130957117,,3150,,1691262094,130880568,"""world""",,,-0.0811055451631546,-0.24505290389060974,1.70146906375885
1691262094150970533,,3151,,1691262094,150896257,"""world""",,,-0.08113313466310501,-0.19822295010089874,1.7046867609024048
1691262094160956606,,3152,,1691262094,160875440,"""world""",,,-0.08118308335542679,-0.17446686327457428,1.7062844038009644
1691262094170973600,,3153,,1691262094,170874143,"""world""",,,-0.08131834864616394,-0.15018890798091888,1.707823395729065
1691262094180941134,,3154,,1691262094,180871248,"""world""",,,-0.08139925450086594,-0.12564310431480408,1.709154486656189
1691262094190935693,,3155,,1691262094,190862580,"""world""",,,-0.08135773986577988,-0.10072052478790283,1.711160659790039
1691262094200987375,,3156,,1691262094,200875630,"""world""",,,-0.0815480425953865,-0.07549666613340378,1.7128925323486328
1691262094210964030,,3157,,1691262094,210881247,"""world""",,,-0.08162209391593933,-0.04979041591286659,1.714509129524231
1691262094220951757,,3158,,1691262094,220854556,"""world""",,,-0.08170748502016068,-0.024381140246987343,1.7163443565368652
1691262094231024461,,3159,,1691262094,230912138,"""world""",,,-0.08200442790985107,0.0017161351861432195,1.7178597450256348
1691262094261013712,,3160,,1691262094,260897627,"""world""",,,-0.08188056945800781,0.0820646584033966,1.723917007446289
1691262094270965909,,3161,,1691262094,270868173,"""world""",,,-0.08166230469942093,0.1095714345574379,1.7260336875915527
1691262094280954358,,3162,,1691262094,280873876,"""world""",,,-0.08181044459342957,0.13714610040187836,1.7279658317565918
1691262094300975699,,3163,,1691262094,300897112,"""world""",,,-0.08170182257890701,0.1928545981645584,1.7322617769241333
1691262094311001995,,3164,,1691262094,310889657,"""world""",,,-0.08153820037841797,0.22110523283481598,1.7344366312026978
1691262094331024773,,3165,,1691262094,330920951,"""world""",,,-0.08140663057565689,0.2780269980430603,1.7388420104980469
1691262094340979202,,3166,,1691262094,340893364,"""world""",,,-0.08131702989339828,0.3069371283054352,1.741307258605957
1691262094350932010,,3167,,1691262094,350863044,"""world""",,,-0.08117204159498215,0.3356357216835022,1.7435435056686401
1691262094361011248,,3168,,1691262094,360901268,"""world""",,,-0.08114955574274063,0.3649615943431854,1.7458728551864624
1691262094370965692,,3169,,1691262094,370885392,"""world""",,,-0.08116985857486725,0.3939577341079712,1.748216152191162
1691262094381011547,,3170,,1691262094,380886890,"""world""",,,-0.08087704330682755,0.4234236180782318,1.7506705522537231
1691262094390970531,,3171,,1691262094,390877559,"""world""",,,-0.08079598098993301,0.45280691981315613,1.7531012296676636
1691262094401010558,,3172,,1691262094,400913486,"""world""",,,-0.08060488849878311,0.482314795255661,1.7555480003356934
1691262094410991242,,3173,,1691262094,410907048,"""world""",,,-0.08046021312475204,0.5117608904838562,1.7579740285873413
1691262094421018478,,3174,,1691262094,420887627,"""world""",,,-0.0804097056388855,0.5412759184837341,1.7603362798690796
1691262094430983167,,3175,,1691262094,430878200,"""world""",,,-0.08031687140464783,0.5708054304122925,1.762818694114685
1691262094440984152,,3176,,1691262094,440900044,"""world""",,,-0.07994646579027176,0.599952757358551,1.7652993202209473
1691262094450929952,,3177,,1691262094,450865559,"""world""",,,-0.07965061813592911,0.6298380494117737,1.7675800323486328
1691262094462600149,,3178,,1691262094,461015912,"""world""",,,-0.08011489361524582,0.6587724089622498,1.7703481912612915
1691262094471095401,,3179,,1691262094,470900897,"""world""",,,-0.07980887591838837,0.6878926753997803,1.7726534605026245
1691262099050946041,,3180,,1691262099,50871234,"""world""",,,-1.7165966033935547,2.154080390930176,1.6309423446655273
1691262099260997044,,3181,,1691262099,260915261,"""world""",,,-1.7971278429031372,2.143847942352295,1.5999534130096436
1691262099261006933,,3182,,1691262099,260929383,"""world""",,,-1.8237371444702148,2.140213966369629,1.5873984098434448
1691262099261011861,,3183,,1691262099,260951717,"""world""",,,-1.8540723323822021,2.1362268924713135,1.5707361698150635
1691262099281023300,,3184,,1691262099,280902211,"""world""",,,-1.8743739128112793,2.1342170238494873,1.5609534978866577
1691262099300995494,,3185,,1691262099,300871783,"""world""",,,-1.881040096282959,2.13283634185791,1.5535444021224976
1691262099310958340,,3186,,1691262099,310870389,"""world""",,,-1.887340784072876,2.132066488265991,1.5502609014511108
1691262099330985967,,3187,,1691262099,330884241,"""world""",,,-1.895340085029602,2.1308255195617676,1.5425901412963867
1691262099340942113,,3188,,1691262099,340873916,"""world""",,,-1.9006321430206299,2.1299540996551514,1.5390032529830933
1691262099400955524,,3189,,1691262099,400877474,"""world""",,,-1.9283329248428345,2.1277754306793213,1.5162022113800049
1691262099410962104,,3190,,1691262099,410868336,"""world""",,,-1.9355311393737793,2.1238853931427,1.5124431848526
1691262099420945452,,3191,,1691262099,420871129,"""world""",,,-1.9396780729293823,2.12312650680542,1.5085172653198242
1691262099430954619,,3192,,1691262099,430871507,"""world""",,,-1.9434317350387573,2.1223833560943604,1.5046701431274414
1691262099440968201,,3193,,1691262099,440879473,"""world""",,,-1.947129249572754,2.1218502521514893,1.5008277893066406
1691262099481001140,,3194,,1691262099,480885173,"""world""",,,-1.9611097574234009,2.118809700012207,1.4852961301803589
1691262099510978732,,3195,,1691262099,510880616,"""world""",,,-1.9708080291748047,2.116610527038574,1.4734913110733032
1691262099520942795,,3196,,1691262099,520868302,"""world""",,,-1.9738041162490845,2.115981101989746,1.4695771932601929
1691262099540979353,,3197,,1691262099,540893054,"""world""",,,-1.9796937704086304,2.114417791366577,1.4618180990219116
1691262099590996717,,3198,,1691262099,590899935,"""world""",,,-1.993655800819397,2.110764741897583,1.4420818090438843
1691262099640950672,,3199,,1691262099,640877196,"""world""",,,-2.0070455074310303,2.1070308685302734,1.4221776723861694
1691262099770961327,,3200,,1691262099,770876158,"""world""",,,-2.0347793102264404,2.0986406803131104,1.3798608779907227
1691262099770970066,,3201,,1691262099,770903229,"""world""",,,-2.0402047634124756,2.0969035625457764,1.3727120161056519
1691262099790973072,,3202,,1691262099,790865987,"""world""",,,-2.0459563732147217,2.0954360961914062,1.365465521812439
1691262099810967913,,3203,,1691262099,810872122,"""world""",,,-2.0516245365142822,2.0937340259552,1.3587526082992554
1691262099840939628,,3204,,1691262099,840869624,"""world""",,,-2.0609729290008545,2.091158628463745,1.349147915840149
1691262099860956529,,3205,,1691262099,860872767,"""world""",,,-2.0675461292266846,2.089297294616699,1.3435420989990234
1691262099890933101,,3206,,1691262099,890867980,"""world""",,,-2.0782670974731445,2.0862605571746826,1.3362222909927368
1691262099920941590,,3207,,1691262099,920872740,"""world""",,,-2.0896899700164795,2.0830137729644775,1.330176830291748
1691262099930996399,,3208,,1691262099,930891329,"""world""",,,-2.093954086303711,2.0817925930023193,1.3282712697982788
1691262099950937926,,3209,,1691262099,950869923,"""world""",,,-2.1023941040039062,2.079800844192505,1.3248746395111084
1691262099970955255,,3210,,1691262099,970878465,"""world""",,,-2.1113855838775635,2.0773098468780518,1.322222113609314
1691262099990954222,,3211,,1691262099,990878662,"""world""",,,-2.1207642555236816,2.0747082233428955,1.3197740316390991
1691262100010994102,,3212,,1691262100,10886266,"""world""",,,-2.1307146549224854,2.07193660736084,1.317745327949524
1691262100030986593,,3213,,1691262100,30880580,"""world""",,,-2.140807867050171,2.069098711013794,1.3159695863723755
1691262100050954692,,3214,,1691262100,50871630,"""world""",,,-2.1517961025238037,2.0661442279815674,1.314407467842102
1691262100070946680,,3215,,1691262100,70871265,"""world""",,,-2.1629855632781982,2.063098669052124,1.31296968460083
1691262100090952277,,3216,,1691262100,90875217,"""world""",,,-2.1749460697174072,2.0598134994506836,1.311686635017395
1691262100110999812,,3217,,1691262100,110883231,"""world""",,,-2.187143564224243,2.056429147720337,1.3105939626693726
1691262100130956378,,3218,,1691262100,130877605,"""world""",,,-2.199611186981201,2.0527455806732178,1.3097854852676392
1691262100150985325,,3219,,1691262100,150893460,"""world""",,,-2.212855100631714,2.049103021621704,1.3089332580566406
1691262100170952826,,3220,,1691262100,170873442,"""world""",,,-2.2263236045837402,2.045233726501465,1.3082833290100098
1691262100190947600,,3221,,1691262100,190870981,"""world""",,,-2.2406117916107178,2.041229009628296,1.3073681592941284
1691262100210999163,,3222,,1691262100,210880594,"""world""",,,-2.254896879196167,2.0369203090667725,1.3069130182266235
1691262100250965065,,3223,,1691262100,250890672,"""world""",,,-2.284973382949829,2.0281689167022705,1.3060202598571777
1691262100260955160,,3224,,1691262100,260883733,"""world""",,,-2.292816400527954,2.0258424282073975,1.3058263063430786
1691262100270947470,,3225,,1691262100,270871404,"""world""",,,-2.3006036281585693,2.023408889770508,1.3058037757873535
1691262100280961899,,3226,,1691262100,280874262,"""world""",,,-2.308584690093994,2.020933151245117,1.3055592775344849
1691262100290930265,,3227,,1691262100,290860626,"""world""",,,-2.316577672958374,2.0187909603118896,1.305378794670105
1691262100300970838,,3228,,1691262100,300869977,"""world""",,,-2.324460983276367,2.016162157058716,1.3054107427597046
1691262100311011519,,3229,,1691262100,310891493,"""world""",,,-2.332704544067383,2.012997627258301,1.3056252002716064
1691262100320945460,,3230,,1691262100,320871357,"""world""",,,-2.340881109237671,2.0111730098724365,1.3050216436386108
1691262100330975671,,3231,,1691262100,330886815,"""world""",,,-2.3490688800811768,2.008603096008301,1.3049572706222534
1691262100341156005,,3232,,1691262100,340912510,"""world""",,,-2.3575804233551025,2.0049386024475098,1.3054215908050537
1691262100360936693,,3233,,1691262100,360863660,"""world""",,,-2.3743324279785156,2.0005505084991455,1.3045984506607056
1691262100370938573,,3234,,1691262100,370869326,"""world""",,,-2.3828508853912354,1.997767448425293,1.3045560121536255
1691262100381153314,,3235,,1691262100,380957418,"""world""",,,-2.3916568756103516,1.995060920715332,1.3043228387832642
1691262100390948295,,3236,,1691262100,390871961,"""world""",,,-2.400310516357422,1.992226243019104,1.3041924238204956
1691262100400977431,,3237,,1691262100,400885996,"""world""",,,-2.408853769302368,1.9893921613693237,1.3042157888412476
1691262100411000890,,3238,,1691262100,410894557,"""world""",,,-2.4179654121398926,1.9866968393325806,1.3036986589431763
1691262100420946283,,3239,,1691262100,420868767,"""world""",,,-2.426785469055176,1.9837924242019653,1.3037346601486206
1691262100430944821,,3240,,1691262100,430869378,"""world""",,,-2.435549736022949,1.9809308052062988,1.3037590980529785
1691262100440959049,,3241,,1691262100,440878305,"""world""",,,-2.444335699081421,1.9779701232910156,1.3037056922912598
1691262100451014031,,3242,,1691262100,450905528,"""world""",,,-2.453605890274048,1.9750388860702515,1.3034261465072632
1691262100460961943,,3243,,1691262100,460860286,"""world""",,,-2.4623823165893555,1.9723979234695435,1.3034372329711914
1691262100470958161,,3244,,1691262100,470880927,"""world""",,,-2.471633195877075,1.9694862365722656,1.3032339811325073
1691262100480983564,,3245,,1691262100,480904345,"""world""",,,-2.4807677268981934,1.966409683227539,1.3032540082931519
1691262100490970738,,3246,,1691262100,490899372,"""world""",,,-2.489638566970825,1.9635733366012573,1.3031367063522339
1691262100501084782,,3247,,1691262100,500940070,"""world""",,,-2.4988391399383545,1.9606348276138306,1.3030223846435547
1691262100510967851,,3248,,1691262100,510886245,"""world""",,,-2.508200168609619,1.9575661420822144,1.3027962446212769
1691262100520963205,,3249,,1691262100,520865643,"""world""",,,-2.5174765586853027,1.954569935798645,1.3025763034820557
1691262100530946319,,3250,,1691262100,530870445,"""world""",,,-2.5267558097839355,1.9517699480056763,1.3023715019226074
1691262100540988325,,3251,,1691262100,540875619,"""world""",,,-2.5360445976257324,1.9489299058914185,1.3022249937057495
1691262100551009207,,3252,,1691262100,550896773,"""world""",,,-2.545248508453369,1.9459043741226196,1.3020979166030884
1691262100560936767,,3253,,1691262100,560858825,"""world""",,,-2.5547940731048584,1.9423110485076904,1.302342176437378
1691262100570960188,,3254,,1691262100,570871873,"""world""",,,-2.5640690326690674,1.9400067329406738,1.3015961647033691
1691262100580939261,,3255,,1691262100,580870211,"""world""",,,-2.5734405517578125,1.9370965957641602,1.3013901710510254
1691262100590934144,,3256,,1691262100,590865928,"""world""",,,-2.582430124282837,1.9341011047363281,1.3014428615570068
1691262100600933900,,3257,,1691262100,600867951,"""world""",,,-2.5917787551879883,1.9310646057128906,1.3011879920959473
1691262100610972805,,3258,,1691262100,610872187,"""world""",,,-2.6008806228637695,1.9280906915664673,1.3011449575424194
1691262100620957151,,3259,,1691262100,620867176,"""world""",,,-2.6101291179656982,1.9253029823303223,1.301073670387268
1691262100630956138,,3260,,1691262100,630874205,"""world""",,,-2.6191742420196533,1.9223380088806152,1.3012334108352661
1691262100640941649,,3261,,1691262100,640869675,"""world""",,,-2.6280384063720703,1.9196524620056152,1.3013213872909546
1691262100650938697,,3262,,1691262100,650867614,"""world""",,,-2.636878728866577,1.916805386543274,1.3011623620986938
1691262100680976515,,3263,,1691262100,680884362,"""world""",,,-2.663348436355591,1.9077329635620117,1.301619529724121
1691262100700973161,,3264,,1691262100,700880883,"""world""",,,-2.6805317401885986,1.90299654006958,1.3009929656982422
1691262100710949360,,3265,,1691262100,710874480,"""world""",,,-2.688932418823242,1.9006541967391968,1.3008580207824707
1691262100720938924,,3266,,1691262100,720868957,"""world""",,,-2.6972808837890625,1.898167610168457,1.300714373588562
1691262100730950301,,3267,,1691262100,730873080,"""world""",,,-2.7059097290039062,1.8955259323120117,1.300376534461975
1691262100740997868,,3268,,1691262100,740876499,"""world""",,,-2.714437246322632,1.8929705619812012,1.3000328540802002
1691262100750953856,,3269,,1691262100,750880980,"""world""",,,-2.722761631011963,1.8896818161010742,1.3001714944839478
1691262100760981644,,3270,,1691262100,760868179,"""world""",,,-2.7308197021484375,1.888177514076233,1.2993141412734985
1691262100770947494,,3271,,1691262100,770869721,"""world""",,,-2.7389423847198486,1.885813593864441,1.298747181892395
1691262100780971838,,3272,,1691262100,780880437,"""world""",,,-2.7469046115875244,1.8832894563674927,1.2985132932662964
1691262100790955994,,3273,,1691262100,790876351,"""world""",,,-2.7550041675567627,1.8811544179916382,1.2977689504623413
1691262100800967927,,3274,,1691262100,800873643,"""world""",,,-2.762796640396118,1.8789783716201782,1.297110676765442
1691262100810988312,,3275,,1691262100,810878129,"""world""",,,-2.7706897258758545,1.8767257928848267,1.2964147329330444
1691262100820955675,,3276,,1691262100,820883764,"""world""",,,-2.7783145904541016,1.8744651079177856,1.2956993579864502
1691262100830949428,,3277,,1691262100,830876689,"""world""",,,-2.7856178283691406,1.872639775276184,1.2949470281600952
1691262100840932310,,3278,,1691262100,840830698,"""world""",,,-2.7929439544677734,1.8680195808410645,1.2944766283035278
1691262100850944811,,3279,,1691262100,850871635,"""world""",,,-2.8007354736328125,1.8681694269180298,1.2931339740753174
1691262100860977688,,3280,,1691262100,860869081,"""world""",,,-2.8077774047851562,1.8666099309921265,1.292305588722229
1691262100870938139,,3281,,1691262100,870869265,"""world""",,,-2.8150758743286133,1.8632593154907227,1.2916876077651978
1691262100880951972,,3282,,1691262100,880873534,"""world""",,,-2.821769952774048,1.8627166748046875,1.2902847528457642
1691262100900966446,,3283,,1691262100,900875308,"""world""",,,-2.83532452583313,1.8592678308486938,1.2881040573120117
1691262100910960771,,3284,,1691262100,910874608,"""world""",,,-2.8418190479278564,1.8576637506484985,1.2870731353759766
1691262100920950973,,3285,,1691262100,920877360,"""world""",,,-2.848104476928711,1.8561244010925293,1.285951018333435
1691262100930949736,,3286,,1691262100,930873530,"""world""",,,-2.8542604446411133,1.854517936706543,1.2848743200302124
1691262100940985381,,3287,,1691262100,940879756,"""world""",,,-2.8604366779327393,1.8530434370040894,1.2836366891860962
1691262100950947370,,3288,,1691262100,950876670,"""world""",,,-2.866340398788452,1.8497865200042725,1.2827973365783691
1691262100960960101,,3289,,1691262100,960865617,"""world""",,,-2.8722095489501953,1.8500185012817383,1.2811840772628784
1691262100970945146,,3290,,1691262100,970875191,"""world""",,,-2.8779232501983643,1.8488997220993042,1.2798194885253906
1691262100980966344,,3291,,1691262100,980873530,"""world""",,,-2.883669376373291,1.846352458000183,1.2789320945739746
1691262100990945668,,3292,,1691262100,990867955,"""world""",,,-2.888784170150757,1.844679355621338,1.2776212692260742
1691262101000940809,,3293,,1691262101,874889,"""world""",,,-2.894196033477783,1.8440284729003906,1.2764854431152344
1691262101010958941,,3294,,1691262101,10878803,"""world""",,,-2.898911714553833,1.844168782234192,1.2747761011123657
1691262101020945409,,3295,,1691262101,20871490,"""world""",,,-2.904156446456909,1.8416975736618042,1.2736999988555908
1691262101030943389,,3296,,1691262101,30868630,"""world""",,,-2.9091432094573975,1.8416978120803833,1.2719818353652954
1691262101050950099,,3297,,1691262101,50870927,"""world""",,,-2.9179024696350098,1.8398250341415405,1.2697908878326416
1691262101060915187,,3298,,1691262101,60853637,"""world""",,,-2.9227311611175537,1.8379755020141602,1.2681890726089478
1691262101070959076,,3299,,1691262101,70871314,"""world""",,,-2.927199363708496,1.837195873260498,1.2669353485107422
1691262101081003472,,3300,,1691262101,80886806,"""world""",,,-2.9315149784088135,1.836364507675171,1.2653257846832275
1691262101090967924,,3301,,1691262101,90866108,"""world""",,,-2.9359190464019775,1.8358471393585205,1.263863205909729
1691262101101019083,,3302,,1691262101,100870296,"""world""",,,-2.9401731491088867,1.8349889516830444,1.2621347904205322
1691262101111004545,,3303,,1691262101,110899182,"""world""",,,-2.9441487789154053,1.8344087600708008,1.260448694229126
1691262101120939126,,3304,,1691262101,120865104,"""world""",,,-2.9483509063720703,1.8341782093048096,1.258884310722351
1691262101141028152,,3305,,1691262101,140897085,"""world""",,,-2.9566028118133545,1.8332244157791138,1.255135416984558
1691262101150946924,,3306,,1691262101,150868907,"""world""",,,-2.9608371257781982,1.8326572179794312,1.253198504447937
1691262101170962373,,3307,,1691262101,170867363,"""world""",,,-2.968975067138672,1.8316726684570312,1.2491734027862549
1691262101180948710,,3308,,1691262101,180876264,"""world""",,,-2.9730074405670166,1.831406593322754,1.2470122575759888
1691262101190965589,,3309,,1691262101,190867267,"""world""",,,-2.977109432220459,1.8305797576904297,1.245054006576538
1691262101200957483,,3310,,1691262101,200871696,"""world""",,,-2.9813482761383057,1.830388069152832,1.242659091949463
1691262101210979210,,3311,,1691262101,210884862,"""world""",,,-2.9855918884277344,1.8299416303634644,1.240735411643982
1691262101220941645,,3312,,1691262101,220867766,"""world""",,,-2.9897830486297607,1.8295315504074097,1.238339900970459
1691262101230967977,,3313,,1691262101,230868534,"""world""",,,-2.994335889816284,1.8294085264205933,1.2358641624450684
1691262101241007324,,3314,,1691262101,240893680,"""world""",,,-2.9989664554595947,1.8288707733154297,1.2334157228469849
1691262101250951326,,3315,,1691262101,250879437,"""world""",,,-3.00348162651062,1.8291139602661133,1.2310000658035278
1691262101260927857,,3316,,1691262101,260861006,"""world""",,,-3.007962465286255,1.828323245048523,1.2284764051437378
1691262101270969551,,3317,,1691262101,270877771,"""world""",,,-3.012767791748047,1.828141212463379,1.2260202169418335
1691262101280986418,,3318,,1691262101,280888772,"""world""",,,-3.0174732208251953,1.8276710510253906,1.223415493965149
1691262101290932234,,3319,,1691262101,290865688,"""world""",,,-3.0226247310638428,1.826975703239441,1.2212262153625488
1691262101300973873,,3320,,1691262101,300882283,"""world""",,,-3.0272786617279053,1.8267821073532104,1.2184717655181885
1691262101311023257,,3321,,1691262101,310901457,"""world""",,,-3.032228469848633,1.8264305591583252,1.2166402339935303
1691262101320942212,,3322,,1691262101,320873834,"""world""",,,-3.0385091304779053,1.8269672393798828,1.2140318155288696
1691262101330972171,,3323,,1691262101,330872521,"""world""",,,-3.0437510013580322,1.8255995512008667,1.2125656604766846
1691262101341006215,,3324,,1691262101,340907175,"""world""",,,-3.04960298538208,1.8261735439300537,1.2101801633834839
1691262101350959948,,3325,,1691262101,350884815,"""world""",,,-3.0553102493286133,1.8257659673690796,1.208070993423462
1691262101360923181,,3326,,1691262101,360857925,"""world""",,,-3.0618338584899902,1.8259210586547852,1.2062151432037354
1691262101370961571,,3327,,1691262101,370896696,"""world""",,,-3.0685935020446777,1.825369119644165,1.205141305923462
1691262101380971352,,3328,,1691262101,380889375,"""world""",,,-3.0759057998657227,1.8252005577087402,1.2035554647445679
1691262101390944047,,3329,,1691262101,390876175,"""world""",,,-3.0831668376922607,1.8251615762710571,1.20237398147583
1691262101400984555,,3330,,1691262101,400876177,"""world""",,,-3.0897512435913086,1.8243378400802612,1.2013657093048096
1691262101410996821,,3331,,1691262101,410882023,"""world""",,,-3.097315788269043,1.8242087364196777,1.2003374099731445
1691262101420970899,,3332,,1691262101,420886973,"""world""",,,-3.1054468154907227,1.82378351688385,1.1992524862289429
1691262101430979307,,3333,,1691262101,430907376,"""world""",,,-3.114856243133545,1.8230960369110107,1.198966145515442
1691262101441003644,,3334,,1691262101,440915363,"""world""",,,-3.123291015625,1.8231841325759888,1.1975175142288208
1691262101450940693,,3335,,1691262101,450867980,"""world""",,,-3.1330671310424805,1.8231592178344727,1.1965768337249756
1691262101460945449,,3336,,1691262101,460868444,"""world""",,,-3.1427395343780518,1.8222191333770752,1.1956905126571655
1691262101470976840,,3337,,1691262101,470869594,"""world""",,,-3.1523988246917725,1.8218709230422974,1.1951028108596802
1691262101480953010,,3338,,1691262101,480869004,"""world""",,,-3.1628153324127197,1.8228659629821777,1.1938138008117676
1691262101490974154,,3339,,1691262101,490864758,"""world""",,,-3.1739492416381836,1.8223899602890015,1.1932820081710815
1691262101500986861,,3340,,1691262101,500891633,"""world""",,,-3.1851682662963867,1.8226383924484253,1.1922355890274048
1691262101511090858,,3341,,1691262101,510930381,"""world""",,,-3.195561170578003,1.8210499286651611,1.192785382270813
1691262101520964211,,3342,,1691262101,520865517,"""world""",,,-3.207951545715332,1.8209692239761353,1.1926919221878052
1691262101530977306,,3343,,1691262101,530870039,"""world""",,,-3.2195186614990234,1.8195443153381348,1.1924017667770386
1691262101540993054,,3344,,1691262101,540878767,"""world""",,,-3.2334370613098145,1.8202670812606812,1.1919670104980469
1691262101550949390,,3345,,1691262101,550870177,"""world""",,,-3.246058464050293,1.8193835020065308,1.1918883323669434
1691262101560954579,,3346,,1691262101,560879034,"""world""",,,-3.260598659515381,1.8197587728500366,1.191657304763794
1691262101570976437,,3347,,1691262101,570868848,"""world""",,,-3.27522873878479,1.8192859888076782,1.1918271780014038
1691262101580941344,,3348,,1691262101,580873107,"""world""",,,-3.28878116607666,1.8182125091552734,1.1918232440948486
1691262101590947145,,3349,,1691262101,590870669,"""world""",,,-3.3033735752105713,1.8173307180404663,1.1920382976531982
1691262101600948037,,3350,,1691262101,600869773,"""world""",,,-3.3188397884368896,1.817182183265686,1.1919125318527222
1691262101610969874,,3351,,1691262101,610884200,"""world""",,,-3.3354859352111816,1.8175069093704224,1.1917212009429932
1691262101620953491,,3352,,1691262101,620874681,"""world""",,,-3.351738691329956,1.8159306049346924,1.192476511001587
1691262101630977327,,3353,,1691262101,630869998,"""world""",,,-3.3683981895446777,1.8161600828170776,1.1923495531082153
1691262101640946549,,3354,,1691262101,640875022,"""world""",,,-3.3845529556274414,1.8148123025894165,1.192934513092041
1691262101650931099,,3355,,1691262101,650869881,"""world""",,,-3.4026167392730713,1.8146367073059082,1.1930155754089355
1691262101660938551,,3356,,1691262101,660874428,"""world""",,,-3.420776128768921,1.8140639066696167,1.1934019327163696
1691262101670936956,,3357,,1691262101,670868299,"""world""",,,-3.4395034313201904,1.8140344619750977,1.1932704448699951
1691262101680944906,,3358,,1691262101,680871494,"""world""",,,-3.4580063819885254,1.8135738372802734,1.193324327468872
1691262101690950098,,3359,,1691262101,690874592,"""world""",,,-3.4766652584075928,1.812406301498413,1.1939407587051392
1691262101700956048,,3360,,1691262101,700882056,"""world""",,,-3.4960737228393555,1.8113369941711426,1.1941372156143188
1691262101710940516,,3361,,1691262101,710870725,"""world""",,,-3.516681671142578,1.8111029863357544,1.1942838430404663
1691262101720942858,,3362,,1691262101,720871338,"""world""",,,-3.536346912384033,1.8101232051849365,1.1947193145751953
1691262101730938555,,3363,,1691262101,730870070,"""world""",,,-3.5575428009033203,1.8096174001693726,1.1948176622390747
1691262101740947257,,3364,,1691262101,740873755,"""world""",,,-3.5786521434783936,1.8090689182281494,1.1947766542434692
1691262101750988549,,3365,,1691262101,750902325,"""world""",,,-3.6001861095428467,1.8084495067596436,1.1950565576553345
1691262101760918778,,3366,,1691262101,760856250,"""world""",,,-3.6219584941864014,1.8076801300048828,1.1953189373016357
1691262101770943262,,3367,,1691262101,770869559,"""world""",,,-3.643968105316162,1.807264804840088,1.195580005645752
1691262101781000854,,3368,,1691262101,780888989,"""world""",,,-3.667666435241699,1.806654930114746,1.1955294609069824
1691262101790943900,,3369,,1691262101,790871852,"""world""",,,-3.689700126647949,1.8053890466690063,1.1958154439926147
1691262101800971432,,3370,,1691262101,800870652,"""world""",,,-3.7134666442871094,1.8051377534866333,1.1956791877746582
1691262101810948854,,3371,,1691262101,810868056,"""world""",,,-3.738086700439453,1.8042832612991333,1.195975422859192
1691262101820937098,,3372,,1691262101,820868832,"""world""",,,-3.7619099617004395,1.8040152788162231,1.1960501670837402
1691262101830951981,,3373,,1691262101,830884573,"""world""",,,-3.7861740589141846,1.803070068359375,1.1964412927627563
1691262101840942703,,3374,,1691262101,840873620,"""world""",,,-3.811389923095703,1.8023627996444702,1.19707453250885
1691262101850972101,,3375,,1691262101,850877501,"""world""",,,-3.8358712196350098,1.8016160726547241,1.197551965713501
1691262101860940454,,3376,,1691262101,860867965,"""world""",,,-3.8611507415771484,1.8011187314987183,1.198363184928894
1691262101870932972,,3377,,1691262101,870867070,"""world""",,,-3.886214017868042,1.8001426458358765,1.1996389627456665
1691262101880990187,,3378,,1691262101,880895222,"""world""",,,-3.9119532108306885,1.7991300821304321,1.200896143913269
1691262101890933789,,3379,,1691262101,890864957,"""world""",,,-3.937579393386841,1.7981582880020142,1.2022407054901123
