rosbagTimestamp,header,seq,stamp,secs,nsecs,frame_id,pose,position,x,y,z
1690464464887765401,,13084,,1690464464,887680213,"""world""",,,3.3611795902252197,13.165461540222168,0.042940542101860046
1690464464897720369,,13085,,1690464464,897664221,"""world""",,,3.361156463623047,13.165484428405762,0.0429157018661499
1690464464907781302,,13086,,1690464464,907695496,"""world""",,,3.361311435699463,13.165542602539062,0.04295875132083893
1690464464917727040,,13087,,1690464464,917633757,"""world""",,,3.3611669540405273,13.1654634475708,0.04296547919511795
1690464464927768888,,13088,,1690464464,927689072,"""world""",,,3.3612074851989746,13.165508270263672,0.04295295104384422
1690464464937706553,,13089,,1690464464,937626490,"""world""",,,3.361262798309326,13.165496826171875,0.04298844560980797
1690464464947722634,,13090,,1690464464,947671674,"""world""",,,3.3611834049224854,13.165477752685547,0.042942844331264496
1690464464957730990,,13091,,1690464464,957666783,"""world""",,,3.3611319065093994,13.165474891662598,0.042919304221868515
1690464464967715114,,13092,,1690464464,967672486,"""world""",,,3.3612053394317627,13.165499687194824,0.04297289997339249
1690464464977686813,,13093,,1690464464,977638443,"""world""",,,3.361175537109375,13.16545581817627,0.04294153302907944
1690464464987748226,,13094,,1690464464,987663850,"""world""",,,3.361135482788086,13.165481567382812,0.042912401258945465
1690464464997753832,,13095,,1690464464,997666737,"""world""",,,3.3613080978393555,13.1655855178833,0.0429646372795105
1690464465007725553,,13096,,1690464465,7665448,"""world""",,,3.3611786365509033,13.165472984313965,0.04294440895318985
1690464465017719343,,13097,,1690464465,17660958,"""world""",,,3.3611178398132324,13.165459632873535,0.04290489852428436
1690464465027787115,,13098,,1690464465,27710893,"""world""",,,3.3612232208251953,13.16547679901123,0.042951371520757675
1690464465037690844,,13099,,1690464465,37636864,"""world""",,,3.361257791519165,13.165556907653809,0.042957961559295654
1690464465047689613,,13100,,1690464465,47639578,"""world""",,,3.3612189292907715,13.165481567382812,0.04292675107717514
1690464465057727936,,13101,,1690464465,57672561,"""world""",,,3.3611979484558105,13.165480613708496,0.04295734688639641
1690464465067751125,,13102,,1690464465,67682682,"""world""",,,3.3612685203552246,13.165558815002441,0.04295125976204872
1690464465077690882,,13103,,1690464465,77629999,"""world""",,,3.361161470413208,13.165461540222168,0.042928725481033325
1690464465087725633,,13104,,1690464465,87633849,"""world""",,,3.3612921237945557,13.165557861328125,0.0429367870092392
1690464465097713403,,13105,,1690464465,97632883,"""world""",,,3.361279010772705,13.165546417236328,0.04292399808764458
1690464465107683211,,13106,,1690464465,107632942,"""world""",,,3.3612120151519775,13.16552734375,0.04300810024142265
1690464465117689475,,13107,,1690464465,117634384,"""world""",,,3.361192226409912,13.16547679901123,0.042942874133586884
1690464465127729846,,13108,,1690464465,127683196,"""world""",,,3.3612422943115234,13.165495872497559,0.0429842583835125
1690464465137685591,,13109,,1690464465,137631926,"""world""",,,3.361154079437256,13.165512084960938,0.04296983778476715
1690464465147707014,,13110,,1690464465,147647748,"""world""",,,3.361281394958496,13.165565490722656,0.04292912408709526
1690464465157728609,,13111,,1690464465,157665577,"""world""",,,3.361233711242676,13.165484428405762,0.042978428304195404
1690464465167726951,,13112,,1690464465,167684907,"""world""",,,3.361152172088623,13.165522575378418,0.04300127178430557
1690464465177679316,,13113,,1690464465,177628866,"""world""",,,3.361278533935547,13.165560722351074,0.042925313115119934
1690464465187764799,,13114,,1690464465,187633040,"""world""",,,3.361236095428467,13.16547679901123,0.042959731072187424
1690464465197745653,,13115,,1690464465,197631531,"""world""",,,3.361149787902832,13.165513038635254,0.04298821836709976
1690464465207681879,,13116,,1690464465,207633358,"""world""",,,3.361269950866699,13.165573120117188,0.042916759848594666
1690464465217660979,,13117,,1690464465,217609025,"""world""",,,3.361186981201172,13.16544246673584,0.04291455075144768
1690464465227670475,,13118,,1690464465,227623377,"""world""",,,3.361172914505005,13.165501594543457,0.042978789657354355
1690464465237679078,,13119,,1690464465,237631592,"""world""",,,3.361161470413208,13.165485382080078,0.04291650652885437
1690464465247715586,,13120,,1690464465,247655476,"""world""",,,3.361306667327881,13.165520668029785,0.042917873710393906
1690464465257799837,,13121,,1690464465,257668320,"""world""",,,3.3611719608306885,13.16549301147461,0.042959198355674744
1690464465267794749,,13122,,1690464465,267716417,"""world""",,,3.3611671924591064,13.165499687194824,0.042921632528305054
1690464465277747524,,13123,,1690464465,277662221,"""world""",,,3.3613033294677734,13.165562629699707,0.042958956211805344
1690464465287727469,,13124,,1690464465,287634961,"""world""",,,3.361172914505005,13.165492057800293,0.04295561462640762
1690464465297835460,,13125,,1690464465,297670257,"""world""",,,3.3611626625061035,13.165504455566406,0.04293454810976982
1690464465307727447,,13126,,1690464465,307667948,"""world""",,,3.361294984817505,13.16557788848877,0.04296090826392174
1690464465317738676,,13127,,1690464465,317669771,"""world""",,,3.3612608909606934,13.165562629699707,0.0429479256272316
1690464465327677822,,13128,,1690464465,327629521,"""world""",,,3.3612091541290283,13.165515899658203,0.04296022281050682
1690464465337748483,,13129,,1690464465,337664972,"""world""",,,3.3612186908721924,13.165499687194824,0.04299759864807129
1690464465347815794,,13130,,1690464465,347676019,"""world""",,,3.3611748218536377,13.165492057800293,0.042968809604644775
1690464465357722133,,13131,,1690464465,357628670,"""world""",,,3.361210346221924,13.165501594543457,0.042939551174640656
1690464465367727232,,13132,,1690464465,367679676,"""world""",,,3.3612215518951416,13.165513038635254,0.04300325736403465
1690464465377686552,,13133,,1690464465,377628708,"""world""",,,3.3612570762634277,13.165580749511719,0.042938824743032455
1690464465387682922,,13134,,1690464465,387633827,"""world""",,,3.3611807823181152,13.165486335754395,0.04290001839399338
1690464465397685177,,13135,,1690464465,397634257,"""world""",,,3.3612194061279297,13.16550350189209,0.04299655184149742
1690464465407677882,,13136,,1690464465,407632119,"""world""",,,3.361229181289673,13.165504455566406,0.04299270361661911
1690464465417726503,,13137,,1690464465,417643156,"""world""",,,3.361171007156372,13.165482521057129,0.04291153699159622
1690464465427691046,,13138,,1690464465,427646550,"""world""",,,3.3612899780273438,13.165505409240723,0.04301932081580162
1690464465437676520,,13139,,1690464465,437626047,"""world""",,,3.361149787902832,13.165488243103027,0.04295355826616287
1690464465447750436,,13140,,1690464465,447678017,"""world""",,,3.361259937286377,13.165553092956543,0.042910244315862656
1690464465457812419,,13141,,1690464465,457712680,"""world""",,,3.3613121509552,13.165557861328125,0.04298068583011627
1690464465467727998,,13142,,1690464465,467653168,"""world""",,,3.361164093017578,13.165499687194824,0.04294558987021446
1690464465477741455,,13143,,1690464465,477670564,"""world""",,,3.361156702041626,13.165493965148926,0.04291417449712753
1690464465487722286,,13144,,1690464465,487664754,"""world""",,,3.3612937927246094,13.165621757507324,0.04299783334136009
1690464465497772976,,13145,,1690464465,497665738,"""world""",,,3.361196517944336,13.165486335754395,0.04296061396598816
1690464465507728854,,13146,,1690464465,507640702,"""world""",,,3.361143112182617,13.165484428405762,0.04295165091753006
1690464465517695702,,13147,,1690464465,517637571,"""world""",,,3.3611671924591064,13.165462493896484,0.042907025665044785
1690464465527732993,,13148,,1690464465,527682316,"""world""",,,3.3613247871398926,13.165565490722656,0.04299800097942352
1690464465537707027,,13149,,1690464465,537626429,"""world""",,,3.3612618446350098,13.165610313415527,0.04300055652856827
1690464465547828839,,13150,,1690464465,547685787,"""world""",,,3.361191987991333,13.16550064086914,0.042959924787282944
1690464465557734285,,13151,,1690464465,557639503,"""world""",,,3.361236572265625,13.165489196777344,0.042990006506443024
1690464465567743448,,13152,,1690464465,567663445,"""world""",,,3.361166477203369,13.165501594543457,0.04297628253698349
1690464465577701366,,13153,,1690464465,577636838,"""world""",,,3.3612053394317627,13.16551685333252,0.04297616705298424
1690464465587733307,,13154,,1690464465,587677769,"""world""",,,3.3611674308776855,13.165514945983887,0.042951550334692
1690464465597695422,,13155,,1690464465,597634971,"""world""",,,3.361191749572754,13.165519714355469,0.04297264665365219
1690464465607695810,,13156,,1690464465,607635183,"""world""",,,3.361245632171631,13.165560722351074,0.0429694764316082
1690464465617724549,,13157,,1690464465,617665070,"""world""",,,3.3612356185913086,13.16557788848877,0.042940568178892136
1690464465627670341,,13158,,1690464465,627622158,"""world""",,,3.361154556274414,13.16549301147461,0.042939137667417526
1690464465637713386,,13159,,1690464465,637661169,"""world""",,,3.3611459732055664,13.165499687194824,0.04297095164656639
1690464465647784281,,13160,,1690464465,647696400,"""world""",,,3.361193895339966,13.165493965148926,0.04302893579006195
1690464465657694458,,13161,,1690464465,657636141,"""world""",,,3.3611092567443848,13.165485382080078,0.04300159960985184
1690464465667768380,,13162,,1690464465,667711985,"""world""",,,3.36114239692688,13.165461540222168,0.043034717440605164
1690464465677728378,,13163,,1690464465,677664678,"""world""",,,3.361128330230713,13.165462493896484,0.043063219636678696
1690464465687720545,,13164,,1690464465,687635607,"""world""",,,3.3611702919006348,13.165362358093262,0.04301096126437187
1690464465697727202,,13165,,1690464465,697634433,"""world""",,,3.3611035346984863,13.165369987487793,0.04303828626871109
1690464465707695651,,13166,,1690464465,707634668,"""world""",,,3.3612005710601807,13.165435791015625,0.04306511580944061
1690464465717781159,,13167,,1690464465,717667731,"""world""",,,3.361088275909424,13.165308952331543,0.043108850717544556
1690464465727766303,,13168,,1690464465,727710701,"""world""",,,3.3610661029815674,13.165308952331543,0.04312679171562195
1690464465737681722,,13169,,1690464465,737629047,"""world""",,,3.361050844192505,13.16535472869873,0.043137021362781525
1690464465747765153,,13170,,1690464465,747669859,"""world""",,,3.3610987663269043,13.16530704498291,0.04310877248644829
1690464465757718878,,13171,,1690464465,757634502,"""world""",,,3.3611278533935547,13.165375709533691,0.04317706078290939
1690464465767793515,,13172,,1690464465,767713453,"""world""",,,3.36112117767334,13.165314674377441,0.043106287717819214
1690464465777701112,,13173,,1690464465,777641561,"""world""",,,3.36114239692688,13.165303230285645,0.04309657961130142
1690464465787742605,,13174,,1690464465,787687329,"""world""",,,3.3611536026000977,13.165359497070312,0.04322453588247299
1690464465797686734,,13175,,1690464465,797632668,"""world""",,,3.361086130142212,13.165257453918457,0.04320351034402847
1690464465807712995,,13176,,1690464465,807631056,"""world""",,,3.3611221313476562,13.165295600891113,0.0433213971555233
1690464465817725738,,13177,,1690464465,817668437,"""world""",,,3.3610422611236572,13.165266990661621,0.04331411421298981
1690464465827764133,,13178,,1690464465,827713993,"""world""",,,3.3611130714416504,13.165255546569824,0.04342193156480789
1690464465837682532,,13179,,1690464465,837630511,"""world""",,,3.36112642288208,13.165225982666016,0.04356544464826584
1690464465847731922,,13180,,1690464465,847663239,"""world""",,,3.361175775527954,13.16519832611084,0.04374655708670616
1690464465857785117,,13181,,1690464465,857663143,"""world""",,,3.3612470626831055,13.165092468261719,0.043985627591609955
1690464465867754470,,13182,,1690464465,867667575,"""world""",,,3.3612606525421143,13.165070533752441,0.0443931445479393
1690464465877757885,,13183,,1690464465,877645364,"""world""",,,3.361215591430664,13.165034294128418,0.04495431110262871
1690464465887804981,,13184,,1690464465,887716861,"""world""",,,3.361198663711548,13.164986610412598,0.045797135680913925
1690464465897748259,,13185,,1690464465,897663561,"""world""",,,3.3611233234405518,13.165011405944824,0.04685909301042557
1690464465907720601,,13186,,1690464465,907660846,"""world""",,,3.361088752746582,13.165080070495605,0.048242270946502686
1690464465917708544,,13187,,1690464465,917636459,"""world""",,,3.3610823154449463,13.165181159973145,0.04983174800872803
1690464465927675611,,13188,,1690464465,927621737,"""world""",,,3.361143112182617,13.165173530578613,0.05165489390492439
1690464465937764405,,13189,,1690464465,937659424,"""world""",,,3.361225128173828,13.165249824523926,0.0538412407040596
1690464465947748071,,13190,,1690464465,947660683,"""world""",,,3.3612444400787354,13.165413856506348,0.05629768967628479
1690464465957715320,,13191,,1690464465,957627934,"""world""",,,3.3613533973693848,13.165505409240723,0.059177007526159286
1690464465967667010,,13192,,1690464465,967618294,"""world""",,,3.361333131790161,13.165743827819824,0.062310971319675446
1690464465977694818,,13193,,1690464465,977631414,"""world""",,,3.361415386199951,13.165828704833984,0.06562599539756775
1690464465987692330,,13194,,1690464465,987632239,"""world""",,,3.3613672256469727,13.166191101074219,0.0695481225848198
1690464465997694466,,13195,,1690464465,997636166,"""world""",,,3.361358642578125,13.166363716125488,0.07358264178037643
1690464466007688335,,13196,,1690464466,7631622,"""world""",,,3.3613905906677246,13.166586875915527,0.078012615442276
1690464466017689756,,13197,,1690464466,17633729,"""world""",,,3.361433982849121,13.166781425476074,0.08285363018512726
1690464466027670845,,13198,,1690464466,27620206,"""world""",,,3.3614161014556885,13.16693115234375,0.08790859580039978
1690464466037689739,,13199,,1690464466,37628971,"""world""",,,3.3614182472229004,13.167106628417969,0.09322495758533478
1690464466047760114,,13200,,1690464466,47683710,"""world""",,,3.361438035964966,13.16728687286377,0.09880265593528748
1690464466057724368,,13201,,1690464466,57669158,"""world""",,,3.3615641593933105,13.16756820678711,0.10497581213712692
1690464466067694366,,13202,,1690464466,67648168,"""world""",,,3.3615803718566895,13.167774200439453,0.11118505895137787
1690464466077688363,,13203,,1690464466,77632733,"""world""",,,3.361710786819458,13.167994499206543,0.11766105890274048
1690464466087686475,,13204,,1690464466,87630387,"""world""",,,3.361820697784424,13.168316841125488,0.12440123409032822
1690464466097697936,,13205,,1690464466,97636888,"""world""",,,3.3619472980499268,13.168540954589844,0.13130880892276764
1690464466107689763,,13206,,1690464466,107630410,"""world""",,,3.3620710372924805,13.168773651123047,0.13831710815429688
1690464466117692943,,13207,,1690464466,117634929,"""world""",,,3.362150192260742,13.169083595275879,0.14556992053985596
1690464466127713568,,13208,,1690464466,127662233,"""world""",,,3.3622918128967285,13.169569969177246,0.15291579067707062
1690464466137677164,,13209,,1690464466,137625913,"""world""",,,3.362379312515259,13.170089721679688,0.16050733625888824
1690464466147740452,,13210,,1690464466,147674397,"""world""",,,3.3625574111938477,13.1703519821167,0.16799473762512207
1690464466157737627,,13211,,1690464466,157672522,"""world""",,,3.3624701499938965,13.170738220214844,0.1755944937467575
1690464466167765689,,13212,,1690464466,167712075,"""world""",,,3.3625388145446777,13.171165466308594,0.18300262093544006
1690464466177695974,,13213,,1690464466,177636198,"""world""",,,3.3626394271850586,13.17166519165039,0.1906416416168213
1690464466187725093,,13214,,1690464466,187635750,"""world""",,,3.362600803375244,13.172004699707031,0.19814583659172058
1690464466197689982,,13215,,1690464466,197635876,"""world""",,,3.36265230178833,13.172225952148438,0.20560775697231293
1690464466207695438,,13216,,1690464466,207633330,"""world""",,,3.362722635269165,13.172511100769043,0.21293328702449799
1690464466217689800,,13217,,1690464466,217634939,"""world""",,,3.362859010696411,13.172820091247559,0.22014456987380981
1690464466227677350,,13218,,1690464466,227622327,"""world""",,,3.3627829551696777,13.173099517822266,0.22739277780056
1690464466237680118,,13219,,1690464466,237626106,"""world""",,,3.362882614135742,13.1735258102417,0.23472681641578674
1690464466247750617,,13220,,1690464466,247668975,"""world""",,,3.3628203868865967,13.173782348632812,0.24173082411289215
1690464466257759242,,13221,,1690464466,257701266,"""world""",,,3.362910747528076,13.174209594726562,0.24880021810531616
1690464466267759209,,13222,,1690464466,267710674,"""world""",,,3.3628971576690674,13.17459774017334,0.25569725036621094
1690464466277696002,,13223,,1690464466,277635106,"""world""",,,3.362884044647217,13.175036430358887,0.26257774233818054
1690464466287694544,,13224,,1690464466,287634946,"""world""",,,3.362823486328125,13.17551040649414,0.26931798458099365
1690464466297712114,,13225,,1690464466,297645713,"""world""",,,3.3627824783325195,13.175945281982422,0.27599141001701355
1690464466307697119,,13226,,1690464466,307637954,"""world""",,,3.3628132343292236,13.176365852355957,0.28245291113853455
1690464466317703330,,13227,,1690464466,317639875,"""world""",,,3.362922191619873,13.176749229431152,0.2887222468852997
1690464466327647895,,13228,,1690464466,327591080,"""world""",,,3.3628838062286377,13.177020072937012,0.29485082626342773
1690464466337693691,,13229,,1690464466,337631851,"""world""",,,3.3629753589630127,13.177319526672363,0.30089494585990906
1690464466347706960,,13230,,1690464466,347643100,"""world""",,,3.3628036975860596,13.177563667297363,0.30674970149993896
1690464466357700808,,13231,,1690464466,357637972,"""world""",,,3.362863540649414,13.178061485290527,0.31251734495162964
1690464466367765864,,13232,,1690464466,367682528,"""world""",,,3.362804889678955,13.178393363952637,0.3181685209274292
1690464466377682996,,13233,,1690464466,377629879,"""world""",,,3.3627872467041016,13.17880916595459,0.3237311542034149
1690464466387756664,,13234,,1690464466,387669162,"""world""",,,3.362701892852783,13.179276466369629,0.32918447256088257
1690464466397728228,,13235,,1690464466,397668916,"""world""",,,3.362687349319458,13.179638862609863,0.3345898389816284
1690464466407724685,,13236,,1690464466,407665747,"""world""",,,3.362621784210205,13.180034637451172,0.3398708999156952
1690464466417731224,,13237,,1690464466,417666911,"""world""",,,3.3625731468200684,13.180432319641113,0.34500861167907715
1690464466427679092,,13238,,1690464466,427626974,"""world""",,,3.362513542175293,13.180912017822266,0.34997034072875977
1690464466437684228,,13239,,1690464466,437630416,"""world""",,,3.362555503845215,13.181121826171875,0.3548659384250641
1690464466447738136,,13240,,1690464466,447641217,"""world""",,,3.3624935150146484,13.181384086608887,0.35963746905326843
1690464466457697940,,13241,,1690464466,457639190,"""world""",,,3.362438201904297,13.181617736816406,0.36449161171913147
1690464466467731307,,13242,,1690464466,467670161,"""world""",,,3.3624870777130127,13.181988716125488,0.36922040581703186
1690464466477697606,,13243,,1690464466,477638035,"""world""",,,3.36240291595459,13.18224811553955,0.37379005551338196
1690464466487691711,,13244,,1690464466,487636182,"""world""",,,3.3624043464660645,13.18244457244873,0.37835606932640076
1690464466497691488,,13245,,1690464466,497635017,"""world""",,,3.3624680042266846,13.182816505432129,0.38294246792793274
1690464466507691421,,13246,,1690464466,507632204,"""world""",,,3.362306594848633,13.183089256286621,0.3874986469745636
1690464466517708914,,13247,,1690464466,517637450,"""world""",,,3.362246513366699,13.183379173278809,0.3920345604419708
1690464466527736993,,13248,,1690464466,527681364,"""world""",,,3.362218141555786,13.183578491210938,0.39643940329551697
1690464466537700930,,13249,,1690464466,537630204,"""world""",,,3.362262725830078,13.183765411376953,0.4007680416107178
1690464466547741904,,13250,,1690464466,547638886,"""world""",,,3.36226749420166,13.18394947052002,0.4050525426864624
1690464466557694120,,13251,,1690464466,557634804,"""world""",,,3.3622312545776367,13.184004783630371,0.40923452377319336
1690464466567694305,,13252,,1690464466,567619089,"""world""",,,3.362138271331787,13.184242248535156,0.41354432702064514
1690464466577725752,,13253,,1690464466,577630995,"""world""",,,3.362109661102295,13.184353828430176,0.4175783097743988
1690464466587750357,,13254,,1690464466,587678912,"""world""",,,3.3620362281799316,13.184464454650879,0.42177894711494446
1690464466597690118,,13255,,1690464466,597633258,"""world""",,,3.3621933460235596,13.184597969055176,0.4258529245853424
1690464466607690571,,13256,,1690464466,607635238,"""world""",,,3.3621246814727783,13.184677124023438,0.42979153990745544
1690464466617705794,,13257,,1690464466,617633413,"""world""",,,3.362064838409424,13.184733390808105,0.4338659942150116
1690464466627763585,,13258,,1690464466,627680168,"""world""",,,3.362152099609375,13.184597969055176,0.4376039505004883
1690464466637680124,,13259,,1690464466,637627042,"""world""",,,3.3621485233306885,13.18455982208252,0.441346138715744
1690464466647707291,,13260,,1690464466,647640410,"""world""",,,3.3622639179229736,13.184309959411621,0.44512924551963806
1690464466657689164,,13261,,1690464466,657634669,"""world""",,,3.3623046875,13.18403148651123,0.44869673252105713
1690464466667730964,,13262,,1690464466,667678980,"""world""",,,3.3623783588409424,13.183696746826172,0.4521414041519165
1690464466677687040,,13263,,1690464466,677631621,"""world""",,,3.3624792098999023,13.183368682861328,0.4557086229324341
1690464466687770837,,13264,,1690464466,687683218,"""world""",,,3.3625526428222656,13.182965278625488,0.45927295088768005
1690464466697688531,,13265,,1690464466,697632824,"""world""",,,3.362574815750122,13.182568550109863,0.4627755880355835
1690464466707721382,,13266,,1690464466,707638358,"""world""",,,3.3627099990844727,13.182143211364746,0.4662522077560425
1690464466717699677,,13267,,1690464466,717637761,"""world""",,,3.3627395629882812,13.181679725646973,0.46975407004356384
1690464466727730029,,13268,,1690464466,727677587,"""world""",,,3.362894058227539,13.181015014648438,0.4730849862098694
1690464466737690648,,13269,,1690464466,737626660,"""world""",,,3.3628792762756348,13.180363655090332,0.4765195846557617
1690464466747727987,,13270,,1690464466,747653457,"""world""",,,3.3630497455596924,13.179622650146484,0.47971707582473755
1690464466757715037,,13271,,1690464466,757644190,"""world""",,,3.363081216812134,13.178955078125,0.4831079840660095
1690464466767768368,,13272,,1690464466,767685253,"""world""",,,3.3632328510284424,13.177963256835938,0.4862675368785858
1690464466777693339,,13273,,1690464466,777635372,"""world""",,,3.3634846210479736,13.177046775817871,0.489498496055603
1690464466787741669,,13274,,1690464466,787678941,"""world""",,,3.363630533218384,13.175862312316895,0.49259230494499207
1690464466797693291,,13275,,1690464466,797633481,"""world""",,,3.363800048828125,13.174751281738281,0.49578577280044556
1690464466807681607,,13276,,1690464466,807631230,"""world""",,,3.3639392852783203,13.173510551452637,0.4989473223686218
1690464466817730881,,13277,,1690464466,817668120,"""world""",,,3.3641343116760254,13.172301292419434,0.502130389213562
1690464466827759752,,13278,,1690464466,827711068,"""world""",,,3.364315986633301,13.171002388000488,0.5051761865615845
1690464466837686437,,13279,,1690464466,837629667,"""world""",,,3.364656448364258,13.16949462890625,0.5082926750183105
1690464466847752789,,13280,,1690464466,847647594,"""world""",,,3.364866256713867,13.167838096618652,0.5113925337791443
1690464466857725289,,13281,,1690464466,857666514,"""world""",,,3.3649706840515137,13.166102409362793,0.5143954753875732
1690464466867724303,,13282,,1690464466,867677776,"""world""",,,3.365159273147583,13.164363861083984,0.5175344347953796
1690464466877694293,,13283,,1690464466,877634766,"""world""",,,3.365450382232666,13.1624116897583,0.5205343961715698
1690464466887696913,,13284,,1690464466,887636738,"""world""",,,3.3657047748565674,13.16038990020752,0.5235151648521423
1690464466897718310,,13285,,1690464466,897639684,"""world""",,,3.365931987762451,13.158413887023926,0.5266458988189697
1690464466907709582,,13286,,1690464466,907632681,"""world""",,,3.3661491870880127,13.156224250793457,0.5295979380607605
1690464466917742603,,13287,,1690464466,917638101,"""world""",,,3.36637544631958,13.153854370117188,0.5325393676757812
1690464466927676017,,13288,,1690464466,927622000,"""world""",,,3.366595506668091,13.15140151977539,0.5356197357177734
1690464466937673633,,13289,,1690464466,937628117,"""world""",,,3.366837739944458,13.149035453796387,0.5386171340942383
1690464466947723791,,13290,,1690464466,947646537,"""world""",,,3.3672962188720703,13.146450996398926,0.5416126251220703
1690464466957689207,,13291,,1690464466,957636064,"""world""",,,3.367441415786743,13.143534660339355,0.5446183085441589
1690464466967664818,,13292,,1690464466,967618670,"""world""",,,3.3676304817199707,13.140616416931152,0.5475484132766724
1690464466977697125,,13293,,1690464466,977632728,"""world""",,,3.3680906295776367,13.137572288513184,0.55051589012146
1690464466987706903,,13294,,1690464466,987636965,"""world""",,,3.368299722671509,13.134573936462402,0.5534879565238953
1690464466997752073,,13295,,1690464466,997687927,"""world""",,,3.368502140045166,13.131239891052246,0.5564273595809937
1690464467007705382,,13296,,1690464467,7632641,"""world""",,,3.368936061859131,13.12796401977539,0.5593698620796204
1690464467017738027,,13297,,1690464467,17634873,"""world""",,,3.3691110610961914,13.124436378479004,0.562443196773529
1690464467027678636,,13298,,1690464467,27623311,"""world""",,,3.3694591522216797,13.120841979980469,0.5654076337814331
1690464467037738426,,13299,,1690464467,37633362,"""world""",,,3.369833469390869,13.1173095703125,0.5683320760726929
1690464467047741037,,13300,,1690464467,47652204,"""world""",,,3.370126247406006,13.113415718078613,0.5713996887207031
1690464467057747586,,13301,,1690464467,57685941,"""world""",,,3.3703575134277344,13.109597206115723,0.5743746161460876
1690464467067703324,,13302,,1690464467,67660113,"""world""",,,3.3707544803619385,13.105628967285156,0.5773321986198425
1690464467077721368,,13303,,1690464467,77663534,"""world""",,,3.371037006378174,13.101524353027344,0.5803090333938599
1690464467087758162,,13304,,1690464467,87667715,"""world""",,,3.371462106704712,13.097175598144531,0.5831648111343384
1690464467097694513,,13305,,1690464467,97639331,"""world""",,,3.371598482131958,13.092819213867188,0.5861415863037109
1690464467107756766,,13306,,1690464467,107661268,"""world""",,,3.3720428943634033,13.088353157043457,0.5889634490013123
1690464467117753611,,13307,,1690464467,117664835,"""world""",,,3.372413158416748,13.083857536315918,0.5918629169464111
1690464467127670479,,13308,,1690464467,127623278,"""world""",,,3.372666358947754,13.079181671142578,0.5947293043136597
1690464467137685627,,13309,,1690464467,137631643,"""world""",,,3.373072624206543,13.074462890625,0.5975924730300903
1690464467147696503,,13310,,1690464467,147637889,"""world""",,,3.373425006866455,13.069644927978516,0.600499153137207
1690464467157750346,,13311,,1690464467,157689681,"""world""",,,3.373800277709961,13.064667701721191,0.6033492088317871
1690464467167666320,,13312,,1690464467,167619581,"""world""",,,3.3741393089294434,13.059638977050781,0.6061959862709045
1690464467177685273,,13313,,1690464467,177632568,"""world""",,,3.374591112136841,13.054648399353027,0.608940601348877
1690464467187728303,,13314,,1690464467,187639620,"""world""",,,3.3748648166656494,13.049342155456543,0.6117964386940002
1690464467197721579,,13315,,1690464467,197634432,"""world""",,,3.37522029876709,13.044174194335938,0.6144872903823853
1690464467207699465,,13316,,1690464467,207633712,"""world""",,,3.3755292892456055,13.038725852966309,0.6173402070999146
1690464467217694854,,13317,,1690464467,217634291,"""world""",,,3.3758316040039062,13.03315258026123,0.6200336813926697
1690464467227675241,,13318,,1690464467,227624692,"""world""",,,3.3762290477752686,13.027652740478516,0.6227433681488037
1690464467237688872,,13319,,1690464467,237635735,"""world""",,,3.376666307449341,13.0220308303833,0.6253589391708374
1690464467247720221,,13320,,1690464467,247636862,"""world""",,,3.3769750595092773,13.016247749328613,0.6280550360679626
1690464467257742787,,13321,,1690464467,257687414,"""world""",,,3.377413749694824,13.01056957244873,0.6307126879692078
1690464467267706268,,13322,,1690464467,267660310,"""world""",,,3.377769947052002,13.00462818145752,0.6332846283912659
1690464467277686460,,13323,,1690464467,277631958,"""world""",,,3.3782386779785156,12.9987154006958,0.6357966065406799
1690464467287692019,,13324,,1690464467,287633858,"""world""",,,3.3786392211914062,12.99276351928711,0.6382761001586914
1690464467297707964,,13325,,1690464467,297637154,"""world""",,,3.3789424896240234,12.986584663391113,0.6407374739646912
1690464467307695068,,13326,,1690464467,307636454,"""world""",,,3.379335880279541,12.980461120605469,0.6431891322135925
1690464467317700516,,13327,,1690464467,317638095,"""world""",,,3.3797788619995117,12.974377632141113,0.6454195976257324
1690464467327643392,,13328,,1690464467,327589216,"""world""",,,3.3800389766693115,12.968012809753418,0.6477128267288208
1690464467337690372,,13329,,1690464467,337634131,"""world""",,,3.3804447650909424,12.96182918548584,0.6498081684112549
1690464467347709964,,13330,,1690464467,347635607,"""world""",,,3.380782127380371,12.955429077148438,0.6518048048019409
1690464467357736592,,13331,,1690464467,357682206,"""world""",,,3.381160259246826,12.949030876159668,0.6536353826522827
1690464467367682493,,13332,,1690464467,367628113,"""world""",,,3.381479263305664,12.942526817321777,0.6554355025291443
1690464467377697569,,13333,,1690464467,377635279,"""world""",,,3.3819286823272705,12.936017036437988,0.657258152961731
1690464467387695313,,13334,,1690464467,387634525,"""world""",,,3.3823227882385254,12.929539680480957,0.6588994860649109
1690464467397744476,,13335,,1690464467,397642094,"""world""",,,3.382725954055786,12.922865867614746,0.6604015231132507
1690464467407725348,,13336,,1690464467,407632207,"""world""",,,3.383179187774658,12.916260719299316,0.661962628364563
1690464467417721349,,13337,,1690464467,417633505,"""world""",,,3.383523941040039,12.909480094909668,0.6634277701377869
1690464467427680044,,13338,,1690464467,427626091,"""world""",,,3.3838484287261963,12.90272045135498,0.6648963093757629
1690464467437687193,,13339,,1690464467,437627535,"""world""",,,3.3843178749084473,12.895984649658203,0.6661491990089417
1690464467447753443,,13340,,1690464467,447658146,"""world""",,,3.3846282958984375,12.88903522491455,0.6675078868865967
1690464467457696284,,13341,,1690464467,457636337,"""world""",,,3.384967803955078,12.882159233093262,0.6688141822814941
1690464467467734267,,13342,,1690464467,467681388,"""world""",,,3.3853979110717773,12.875432014465332,0.6701013445854187
1690464467477707034,,13343,,1690464467,477639268,"""world""",,,3.385654926300049,12.86841106414795,0.6713460087776184
1690464467487694677,,13344,,1690464467,487635658,"""world""",,,3.3860883712768555,12.861427307128906,0.6726076006889343
1690464467497689069,,13345,,1690464467,497633941,"""world""",,,3.386348247528076,12.854293823242188,0.6737761497497559
1690464467507747607,,13346,,1690464467,507639382,"""world""",,,3.386747360229492,12.847305297851562,0.6750006079673767
1690464467517730084,,13347,,1690464467,517641679,"""world""",,,3.387126922607422,12.84017276763916,0.6762061715126038
1690464467527758126,,13348,,1690464467,527676228,"""world""",,,3.3875350952148438,12.83311939239502,0.6773231625556946
1690464467537690571,,13349,,1690464467,537628445,"""world""",,,3.387995719909668,12.825945854187012,0.6785013675689697
1690464467547719201,,13350,,1690464467,547644634,"""world""",,,3.38835072517395,12.818795204162598,0.6797088980674744
1690464467557770753,,13351,,1690464467,557644991,"""world""",,,3.388688564300537,12.811580657958984,0.680884838104248
1690464467567739410,,13352,,1690464467,567621360,"""world""",,,3.3890175819396973,12.80432415008545,0.6820669770240784
1690464467577689732,,13353,,1690464467,577632209,"""world""",,,3.389458656311035,12.797000885009766,0.6832591891288757
1690464467587805727,,13354,,1690464467,587681420,"""world""",,,3.3897151947021484,12.789650917053223,0.6844536662101746
1690464467597725178,,13355,,1690464467,597636068,"""world""",,,3.3900556564331055,12.782299995422363,0.6857249140739441
1690464467607744902,,13356,,1690464467,607635956,"""world""",,,3.3904659748077393,12.775054931640625,0.6870347857475281
1690464467617732274,,13357,,1690464467,617640712,"""world""",,,3.3908443450927734,12.767684936523438,0.6883459091186523
1690464467627763811,,13358,,1690464467,627681911,"""world""",,,3.391134262084961,12.760261535644531,0.6896243095397949
1690464467637730859,,13359,,1690464467,637629990,"""world""",,,3.3915836811065674,12.752967834472656,0.6910818219184875
1690464467647702160,,13360,,1690464467,647638981,"""world""",,,3.3918869495391846,12.745594024658203,0.6924648284912109
1690464467657693998,,13361,,1690464467,657634195,"""world""",,,3.392169952392578,12.738121032714844,0.6938839554786682
1690464467667672625,,13362,,1690464467,667619895,"""world""",,,3.392500877380371,12.730759620666504,0.695347785949707
1690464467677695387,,13363,,1690464467,677635433,"""world""",,,3.3928298950195312,12.723402976989746,0.6968032717704773
1690464467687753968,,13364,,1690464467,687690903,"""world""",,,3.393113136291504,12.715855598449707,0.6981763243675232
1690464467697695484,,13365,,1690464467,697635218,"""world""",,,3.393439769744873,12.7084379196167,0.6996848583221436
1690464467707690979,,13366,,1690464467,707632529,"""world""",,,3.393651247024536,12.700980186462402,0.7011672854423523
1690464467717712346,,13367,,1690464467,717639336,"""world""",,,3.3941636085510254,12.693646430969238,0.702617347240448
1690464467727685925,,13368,,1690464467,727630660,"""world""",,,3.394477367401123,12.68616008758545,0.7041449546813965
1690464467737689822,,13369,,1690464467,737632456,"""world""",,,3.394814968109131,12.678631782531738,0.7056043744087219
1690464467747702416,,13370,,1690464467,747640899,"""world""",,,3.395113229751587,12.67114543914795,0.7071835398674011
1690464467757690878,,13371,,1690464467,757634358,"""world""",,,3.3953640460968018,12.663657188415527,0.7087586522102356
1690464467767705372,,13372,,1690464467,767621914,"""world""",,,3.395636796951294,12.656193733215332,0.7103321552276611
1690464467777700521,,13373,,1690464467,777631428,"""world""",,,3.395900011062622,12.64867877960205,0.71205073595047
1690464467787781570,,13374,,1690464467,787686248,"""world""",,,3.3961870670318604,12.641242027282715,0.7136526703834534
1690464467797772117,,13375,,1690464467,797673787,"""world""",,,3.3964149951934814,12.633793830871582,0.7153423428535461
1690464467807704009,,13376,,1690464467,807631473,"""world""",,,3.3966264724731445,12.626324653625488,0.717001736164093
1690464467817729393,,13377,,1690464467,817635604,"""world""",,,3.396929979324341,12.618882179260254,0.7186878323554993
1690464467827743177,,13378,,1690464467,827662567,"""world""",,,3.3971779346466064,12.6114501953125,0.7204264998435974
1690464467837707276,,13379,,1690464467,837628913,"""world""",,,3.3974735736846924,12.603983879089355,0.7221409678459167
1690464467847714234,,13380,,1690464467,847639689,"""world""",,,3.397705554962158,12.596603393554688,0.7239113450050354
1690464467857720548,,13381,,1690464467,857632863,"""world""",,,3.397897720336914,12.589164733886719,0.7258391380310059
1690464467867662516,,13382,,1690464467,867615756,"""world""",,,3.398164749145508,12.581832885742188,0.727724015712738
1690464467877717001,,13383,,1690464467,877661777,"""world""",,,3.3983871936798096,12.574501037597656,0.7295941710472107
1690464467887727664,,13384,,1690464467,887635090,"""world""",,,3.3986034393310547,12.5672025680542,0.7316094040870667
1690464467897747465,,13385,,1690464467,897690284,"""world""",,,3.3988029956817627,12.559867858886719,0.7336481213569641
1690464467907705205,,13386,,1690464467,907631900,"""world""",,,3.3990232944488525,12.552593231201172,0.7358296513557434
1690464467917731205,,13387,,1690464467,917637054,"""world""",,,3.3992550373077393,12.545345306396484,0.7379471659660339
1690464467927706315,,13388,,1690464467,927623133,"""world""",,,3.3994410037994385,12.5380859375,0.7402176856994629
1690464467937711316,,13389,,1690464467,937636457,"""world""",,,3.3996644020080566,12.530914306640625,0.7424570918083191
1690464467947710649,,13390,,1690464467,947641433,"""world""",,,3.3999273777008057,12.523777961730957,0.7447343468666077
1690464467957726198,,13391,,1690464467,957636549,"""world""",,,3.40008544921875,12.516650199890137,0.747168242931366
1690464467967680021,,13392,,1690464467,967626901,"""world""",,,3.4002718925476074,12.509543418884277,0.7496364712715149
1690464467977694333,,13393,,1690464467,977636664,"""world""",,,3.4004156589508057,12.502366065979004,0.752143383026123
1690464467987693319,,13394,,1690464467,987636027,"""world""",,,3.40063214302063,12.49526309967041,0.7546352744102478
1690464467997716920,,13395,,1690464467,997636292,"""world""",,,3.4008145332336426,12.488272666931152,0.7572411894798279
1690464468007725933,,13396,,1690464468,7631605,"""world""",,,3.400972366333008,12.48119831085205,0.75985187292099
1690464468017724190,,13397,,1690464468,17637245,"""world""",,,3.401193618774414,12.474263191223145,0.7625671029090881
1690464468027681159,,13398,,1690464468,27628544,"""world""",,,3.401320695877075,12.467278480529785,0.7652637362480164
1690464468037697352,,13399,,1690464468,37634504,"""world""",,,3.4014809131622314,12.460370063781738,0.7680943012237549
1690464468047698400,,13400,,1690464468,47637924,"""world""",,,3.4017181396484375,12.453520774841309,0.7708937525749207
1690464468057702893,,13401,,1690464468,57644671,"""world""",,,3.4017672538757324,12.446715354919434,0.7738299369812012
1690464468067672831,,13402,,1690464468,67620694,"""world""",,,3.401972770690918,12.439936637878418,0.776751697063446
1690464468077690954,,13403,,1690464468,77636090,"""world""",,,3.4020864963531494,12.433177947998047,0.7797090411186218
1690464468087723766,,13404,,1690464468,87633037,"""world""",,,3.402289867401123,12.426447868347168,0.7827260494232178
1690464468097689688,,13405,,1690464468,97634657,"""world""",,,3.4024696350097656,12.419761657714844,0.7856971621513367
1690464468107701349,,13406,,1690464468,107630866,"""world""",,,3.4027111530303955,12.413169860839844,0.7887334227561951
1690464468117709481,,13407,,1690464468,117635957,"""world""",,,3.402761697769165,12.406529426574707,0.791836678981781
1690464468127676388,,13408,,1690464468,127624801,"""world""",,,3.402933359146118,12.399959564208984,0.7949404716491699
1690464468137689719,,13409,,1690464468,137629411,"""world""",,,3.403181552886963,12.39354419708252,0.7981104850769043
1690464468147698654,,13410,,1690464468,147639924,"""world""",,,3.403338670730591,12.387062072753906,0.8011754155158997
1690464468157703538,,13411,,1690464468,157636932,"""world""",,,3.4034790992736816,12.380499839782715,0.8043057322502136
1690464468167733934,,13412,,1690464468,167686702,"""world""",,,3.4037790298461914,12.374180793762207,0.8074862360954285
1690464468177685612,,13413,,1690464468,177632793,"""world""",,,3.4039299488067627,12.367810249328613,0.8106618523597717
1690464468187712079,,13414,,1690464468,187644224,"""world""",,,3.4041361808776855,12.361441612243652,0.8137813210487366
1690464468197699758,,13415,,1690464468,197641025,"""world""",,,3.4043383598327637,12.355158805847168,0.8169876933097839
1690464468207733819,,13416,,1690464468,207663950,"""world""",,,3.4044551849365234,12.348953247070312,0.8201767802238464
1690464468217730852,,13417,,1690464468,217669622,"""world""",,,3.40461802482605,12.342671394348145,0.823409378528595
1690464468227719654,,13418,,1690464468,227660800,"""world""",,,3.404877185821533,12.336649894714355,0.8265976309776306
1690464468237708953,,13419,,1690464468,237653593,"""world""",,,3.4050965309143066,12.330490112304688,0.8298084139823914
1690464468247730354,,13420,,1690464468,247671433,"""world""",,,3.4052000045776367,12.324493408203125,0.8331295847892761
1690464468257729404,,13421,,1690464468,257664886,"""world""",,,3.4053916931152344,12.318504333496094,0.8363245129585266
1690464468267733665,,13422,,1690464468,267686752,"""world""",,,3.405665397644043,12.31253433227539,0.8396362662315369
1690464468277688275,,13423,,1690464468,277634120,"""world""",,,3.4059252738952637,12.306653022766113,0.842843234539032
1690464468287693606,,13424,,1690464468,287637065,"""world""",,,3.4060869216918945,12.300612449645996,0.8460413813591003
1690464468297709820,,13425,,1690464468,297644678,"""world""",,,3.4062161445617676,12.29488754272461,0.8493377566337585
1690464468307707891,,13426,,1690464468,307638973,"""world""",,,3.406534194946289,12.288997650146484,0.8525680899620056
1690464468317713835,,13427,,1690464468,317640706,"""world""",,,3.4066858291625977,12.283226013183594,0.8557776808738708
1690464468327689582,,13428,,1690464468,327629753,"""world""",,,3.406874656677246,12.2774076461792,0.8590170741081238
1690464468337676951,,13429,,1690464468,337625778,"""world""",,,3.4070942401885986,12.271750450134277,0.8623468279838562
1690464468347698035,,13430,,1690464468,347638541,"""world""",,,3.4073240756988525,12.26600170135498,0.8655614256858826
1690464468357719760,,13431,,1690464468,357634437,"""world""",,,3.4075169563293457,12.260281562805176,0.8687872886657715
1690464468367743741,,13432,,1690464468,367670166,"""world""",,,3.407681703567505,12.254730224609375,0.8721538186073303
1690464468377683214,,13433,,1690464468,377629024,"""world""",,,3.4079418182373047,12.249137878417969,0.8753552436828613
1690464468387686734,,13434,,1690464468,387632050,"""world""",,,3.4081592559814453,12.243496894836426,0.878626823425293
1690464468397694224,,13435,,1690464468,397635125,"""world""",,,3.408343553543091,12.238076210021973,0.8819384574890137
1690464468407686964,,13436,,1690464468,407628753,"""world""",,,3.4085235595703125,12.23266887664795,0.885272204875946
1690464468417697354,,13437,,1690464468,417631389,"""world""",,,3.408677577972412,12.227150917053223,0.8885247111320496
1690464468427717771,,13438,,1690464468,427668987,"""world""",,,3.408937931060791,12.221659660339355,0.8918027281761169
1690464468437673122,,13439,,1690464468,437621296,"""world""",,,3.4090657234191895,12.216429710388184,0.8951749801635742
1690464468447703648,,13440,,1690464468,447641976,"""world""",,,3.409217119216919,12.211054801940918,0.8983613848686218
1690464468457695562,,13441,,1690464468,457635018,"""world""",,,3.4093925952911377,12.205662727355957,0.9016566872596741
1690464468467727888,,13442,,1690464468,467678382,"""world""",,,3.4095547199249268,12.20040512084961,0.9049636721611023
1690464468477709934,,13443,,1690464468,477644027,"""world""",,,3.4096949100494385,12.195076942443848,0.9082468152046204
1690464468487697347,,13444,,1690464468,487638098,"""world""",,,3.4099435806274414,12.18996524810791,0.9114508628845215
1690464468497702694,,13445,,1690464468,497640685,"""world""",,,3.410050630569458,12.184738159179688,0.9147278070449829
1690464468507690478,,13446,,1690464468,507630171,"""world""",,,3.410191774368286,12.179546356201172,0.9180118441581726
1690464468517703382,,13447,,1690464468,517637898,"""world""",,,3.4104669094085693,12.174530029296875,0.9212654829025269
1690464468527678665,,13448,,1690464468,527625129,"""world""",,,3.410597085952759,12.169390678405762,0.9245155453681946
1690464468537672729,,13449,,1690464468,537621897,"""world""",,,3.4107003211975098,12.164366722106934,0.927727460861206
1690464468547729583,,13450,,1690464468,547651905,"""world""",,,3.410792589187622,12.15931224822998,0.9308620095252991
1690464468557700504,,13451,,1690464468,557636228,"""world""",,,3.411000967025757,12.154276847839355,0.93401038646698
1690464468567739310,,13452,,1690464468,567682197,"""world""",,,3.411134958267212,12.149300575256348,0.937113344669342
1690464468577661475,,13453,,1690464468,577601456,"""world""",,,3.411160707473755,12.144233703613281,0.9401940703392029
1690464468587694473,,13454,,1690464468,587635789,"""world""",,,3.411406993865967,12.139264106750488,0.943246066570282
1690464468597708976,,13455,,1690464468,597648273,"""world""",,,3.411515474319458,12.134380340576172,0.9463141560554504
1690464468607722214,,13456,,1690464468,607632296,"""world""",,,3.41156005859375,12.129368782043457,0.9492791295051575
1690464468617692994,,13457,,1690464468,617636682,"""world""",,,3.4118568897247314,12.124503135681152,0.9522777199745178
1690464468627734408,,13458,,1690464468,627682064,"""world""",,,3.411963939666748,12.119641304016113,0.9553101658821106
1690464468637669711,,13459,,1690464468,637622745,"""world""",,,3.4121131896972656,12.114737510681152,0.9582111239433289
1690464468647705240,,13460,,1690464468,647646632,"""world""",,,3.4120895862579346,12.109944343566895,0.9612178802490234
1690464468657748425,,13461,,1690464468,657687425,"""world""",,,3.4122402667999268,12.105140686035156,0.9642053842544556
1690464468667699635,,13462,,1690464468,667620514,"""world""",,,3.412443161010742,12.100300788879395,0.9671031832695007
1690464468677722475,,13463,,1690464468,677665829,"""world""",,,3.4124748706817627,12.095471382141113,0.9699203372001648
1690464468687752012,,13464,,1690464468,687663624,"""world""",,,3.41253399848938,12.090699195861816,0.9729278683662415
1690464468697692817,,13465,,1690464468,697635515,"""world""",,,3.4126250743865967,12.085952758789062,0.9758979678153992
1690464468707775326,,13466,,1690464468,707664934,"""world""",,,3.4127883911132812,12.081212043762207,0.9787076115608215
1690464468717695724,,13467,,1690464468,717636725,"""world""",,,3.4128599166870117,12.0765962600708,0.981626033782959
1690464468727679342,,13468,,1690464468,727628094,"""world""",,,3.412993907928467,12.071864128112793,0.9845696091651917
1690464468737663975,,13469,,1690464468,737619805,"""world""",,,3.413073778152466,12.067072868347168,0.9874135851860046
1690464468747701487,,13470,,1690464468,747639111,"""world""",,,3.4130451679229736,12.062390327453613,0.990379273891449
1690464468757750636,,13471,,1690464468,757692621,"""world""",,,3.413188934326172,12.057853698730469,0.9932032227516174
1690464468767727313,,13472,,1690464468,767681492,"""world""",,,3.4132468700408936,12.053143501281738,0.9961201548576355
1690464468777690156,,13473,,1690464468,777634166,"""world""",,,3.413364887237549,12.048495292663574,0.9990671277046204
1690464468787688316,,13474,,1690464468,787632551,"""world""",,,3.4133784770965576,12.04386043548584,1.0019145011901855
1690464468797690060,,13475,,1690464468,797635952,"""world""",,,3.413428544998169,12.039286613464355,1.0048562288284302
1690464468807716845,,13476,,1690464468,807632196,"""world""",,,3.41351318359375,12.034623146057129,1.0077800750732422
1690464468817701423,,13477,,1690464468,817642728,"""world""",,,3.4135828018188477,12.029946327209473,1.0106143951416016
1690464468827726837,,13478,,1690464468,827674029,"""world""",,,3.413675308227539,12.025544166564941,1.0136128664016724
1690464468837669685,,13479,,1690464468,837621888,"""world""",,,3.413663148880005,12.020869255065918,1.016579031944275
1690464468847701676,,13480,,1690464468,847638548,"""world""",,,3.413754940032959,12.016201972961426,1.0194939374923706
1690464468857744245,,13481,,1690464468,857685903,"""world""",,,3.413778305053711,12.011706352233887,1.0224288702011108
1690464468867722567,,13482,,1690464468,867676446,"""world""",,,3.4137632846832275,12.007244110107422,1.025394082069397
1690464468877696792,,13483,,1690464468,877636639,"""world""",,,3.4137749671936035,12.002670288085938,1.0283905267715454
1690464468887689300,,13484,,1690464468,887633106,"""world""",,,3.413836717605591,11.997986793518066,1.0313019752502441
1690464468897684953,,13485,,1690464468,897633525,"""world""",,,3.4138076305389404,11.993596076965332,1.0343208312988281
1690464468907687562,,13486,,1690464468,907633258,"""world""",,,3.4138243198394775,11.989120483398438,1.0374443531036377
1690464468917694895,,13487,,1690464468,917635865,"""world""",,,3.4138901233673096,11.9845609664917,1.0403765439987183
1690464468927711837,,13488,,1690464468,927660874,"""world""",,,3.413886308670044,11.979988098144531,1.043424129486084
1690464468937730930,,13489,,1690464468,937653196,"""world""",,,3.413902521133423,11.975677490234375,1.046545147895813
1690464468947735373,,13490,,1690464468,947639811,"""world""",,,3.4139347076416016,11.971153259277344,1.0495080947875977
1690464468957707571,,13491,,1690464468,957641010,"""world""",,,3.4140524864196777,11.966748237609863,1.0525532960891724
1690464468967733794,,13492,,1690464468,967620773,"""world""",,,3.414060354232788,11.962185859680176,1.055660367012024
1690464468977726022,,13493,,1690464468,977636236,"""world""",,,3.4140286445617676,11.957748413085938,1.0588089227676392
1690464468987750629,,13494,,1690464468,987650169,"""world""",,,3.4140710830688477,11.95335865020752,1.0618585348129272
1690464468997698904,,13495,,1690464468,997639560,"""world""",,,3.4141857624053955,11.948975563049316,1.0649895668029785
1690464469007734210,,13496,,1690464469,7641809,"""world""",,,3.4141523838043213,11.944404602050781,1.0680739879608154
1690464469017708294,,13497,,1690464469,17643083,"""world""",,,3.41420578956604,11.93994140625,1.071195125579834
1690464469027695515,,13498,,1690464469,27637072,"""world""",,,3.4142422676086426,11.935600280761719,1.0744590759277344
1690464469037677985,,13499,,1690464469,37626638,"""world""",,,3.4142117500305176,11.931160926818848,1.0775562524795532
1690464469047695864,,13500,,1690464469,47639166,"""world""",,,3.4142191410064697,11.92670726776123,1.0808409452438354
1690464469057762788,,13501,,1690464469,57703819,"""world""",,,3.41424822807312,11.922320365905762,1.0840216875076294
1690464469067763737,,13502,,1690464469,67680368,"""world""",,,3.414273500442505,11.917914390563965,1.08722984790802
1690464469077704609,,13503,,1690464469,77640013,"""world""",,,3.414301872253418,11.913424491882324,1.0904831886291504
1690464469087722705,,13504,,1690464469,87634765,"""world""",,,3.414288282394409,11.909022331237793,1.093765139579773
1690464469097691066,,13505,,1690464469,97634458,"""world""",,,3.414346218109131,11.904576301574707,1.0970892906188965
1690464469107697870,,13506,,1690464469,107638935,"""world""",,,3.4143238067626953,11.900147438049316,1.100358486175537
1690464469117699062,,13507,,1690464469,117639348,"""world""",,,3.414292573928833,11.895726203918457,1.103651523590088
1690464469127677903,,13508,,1690464469,127626639,"""world""",,,3.4144186973571777,11.891329765319824,1.1069905757904053
1690464469137663285,,13509,,1690464469,137618656,"""world""",,,3.414337635040283,11.886860847473145,1.110300064086914
1690464469147776963,,13510,,1690464469,147646478,"""world""",,,3.41439151763916,11.882453918457031,1.1136411428451538
1690464469157774066,,13511,,1690464469,157717163,"""world""",,,3.4144346714019775,11.878028869628906,1.1169434785842896
1690464469167702884,,13512,,1690464469,167652025,"""world""",,,3.4143059253692627,11.873592376708984,1.1203646659851074
1690464469177695187,,13513,,1690464469,177639835,"""world""",,,3.4142894744873047,11.869206428527832,1.1237508058547974
1690464469187694642,,13514,,1690464469,187636200,"""world""",,,3.4143097400665283,11.864788055419922,1.1270776987075806
1690464469197692459,,13515,,1690464469,197635975,"""world""",,,3.414304256439209,11.86040210723877,1.1305646896362305
1690464469207711787,,13516,,1690464469,207635721,"""world""",,,3.414320468902588,11.85598087310791,1.133812665939331
1690464469217698906,,13517,,1690464469,217636038,"""world""",,,3.414290428161621,11.851517677307129,1.1371909379959106
1690464469227686644,,13518,,1690464469,227631181,"""world""",,,3.414280414581299,11.84713077545166,1.140543818473816
1690464469237673724,,13519,,1690464469,237623441,"""world""",,,3.414250612258911,11.842761993408203,1.143916130065918
1690464469247722572,,13520,,1690464469,247654700,"""world""",,,3.4142839908599854,11.838279724121094,1.147188663482666
1690464469257714796,,13521,,1690464469,257658350,"""world""",,,3.414203643798828,11.833893775939941,1.1504945755004883
1690464469267764185,,13522,,1690464469,267716414,"""world""",,,3.414198875427246,11.82949447631836,1.153812050819397
1690464469277701033,,13523,,1690464469,277638430,"""world""",,,3.4141993522644043,11.825104713439941,1.1570687294006348
1690464469287723474,,13524,,1690464469,287665796,"""world""",,,3.4140827655792236,11.820612907409668,1.1602634191513062
1690464469297696431,,13525,,1690464469,297636658,"""world""",,,3.414114236831665,11.816239356994629,1.163467288017273
1690464469307709228,,13526,,1690464469,307638456,"""world""",,,3.4140496253967285,11.811779022216797,1.166748285293579
1690464469317726493,,13527,,1690464469,317643800,"""world""",,,3.413881540298462,11.807331085205078,1.169877529144287
1690464469327696510,,13528,,1690464469,327639535,"""world""",,,3.4138381481170654,11.802834510803223,1.1730037927627563
1690464469337685291,,13529,,1690464469,337625516,"""world""",,,3.4138050079345703,11.798450469970703,1.176141619682312
1690464469347717275,,13530,,1690464469,347645013,"""world""",,,3.4137182235717773,11.793980598449707,1.1791743040084839
1690464469357724268,,13531,,1690464469,357667752,"""world""",,,3.4136900901794434,11.789454460144043,1.1822434663772583
1690464469367769166,,13532,,1690464469,367716781,"""world""",,,3.4136102199554443,11.785057067871094,1.1853728294372559
1690464469377688939,,13533,,1690464469,377637155,"""world""",,,3.4135403633117676,11.780616760253906,1.1884006261825562
1690464469387720511,,13534,,1690464469,387664514,"""world""",,,3.413525342941284,11.776080131530762,1.1914244890213013
1690464469397718353,,13535,,1690464469,397665117,"""world""",,,3.413457155227661,11.771590232849121,1.1944254636764526
1690464469407703564,,13536,,1690464469,407643712,"""world""",,,3.413330316543579,11.767105102539062,1.197364091873169
1690464469417742028,,13537,,1690464469,417668256,"""world""",,,3.4132184982299805,11.7626314163208,1.2003439664840698
1690464469427705446,,13538,,1690464469,427654183,"""world""",,,3.4132232666015625,11.75809383392334,1.203373908996582
1690464469437722806,,13539,,1690464469,437636702,"""world""",,,3.4131264686584473,11.753643989562988,1.2062997817993164
1690464469447741726,,13540,,1690464469,447652372,"""world""",,,3.4130046367645264,11.749106407165527,1.2093092203140259
1690464469457730253,,13541,,1690464469,457668145,"""world""",,,3.4128408432006836,11.744595527648926,1.2123594284057617
1690464469467727750,,13542,,1690464469,467682059,"""world""",,,3.4127626419067383,11.740031242370605,1.215269923210144
1690464469477696647,,13543,,1690464469,477637546,"""world""",,,3.412654399871826,11.735623359680176,1.2183139324188232
1690464469487763218,,13544,,1690464469,487676588,"""world""",,,3.412471055984497,11.731101989746094,1.2213647365570068
1690464469497735926,,13545,,1690464469,497672234,"""world""",,,3.412358283996582,11.72653865814209,1.2244057655334473
1690464469507724413,,13546,,1690464469,507648114,"""world""",,,3.412243127822876,11.722000122070312,1.227422833442688
1690464469517719719,,13547,,1690464469,517640840,"""world""",,,3.4120798110961914,11.71750259399414,1.2304115295410156
1690464469527742066,,13548,,1690464469,527688694,"""world""",,,3.41194748878479,11.712875366210938,1.2334576845169067
1690464469537742932,,13549,,1690464469,537689028,"""world""",,,3.4117674827575684,11.708358764648438,1.236350655555725
1690464469547703656,,13550,,1690464469,547643309,"""world""",,,3.4115843772888184,11.703800201416016,1.2392975091934204
1690464469557703989,,13551,,1690464469,557646539,"""world""",,,3.4113383293151855,11.699118614196777,1.2423640489578247
1690464469567665248,,13552,,1690464469,567618306,"""world""",,,3.4111781120300293,11.694600105285645,1.2453035116195679
1690464469577691966,,13553,,1690464469,577633673,"""world""",,,3.410881280899048,11.69012451171875,1.2483336925506592
1690464469587699382,,13554,,1690464469,587633084,"""world""",,,3.4106929302215576,11.68535327911377,1.2511487007141113
1690464469597692099,,13555,,1690464469,597634438,"""world""",,,3.4104886054992676,11.680778503417969,1.2540963888168335
1690464469607719821,,13556,,1690464469,607657523,"""world""",,,3.4102556705474854,11.676246643066406,1.2570301294326782
1690464469617700292,,13557,,1690464469,617638672,"""world""",,,3.409952402114868,11.671687126159668,1.2599835395812988
1690464469627747036,,13558,,1690464469,627692829,"""world""",,,3.4098143577575684,11.666979789733887,1.2627854347229004
1690464469637673964,,13559,,1690464469,637627221,"""world""",,,3.4096155166625977,11.662364959716797,1.265597939491272
1690464469647723851,,13560,,1690464469,647649795,"""world""",,,3.4091956615448,11.657702445983887,1.268498420715332
1690464469657706235,,13561,,1690464469,657645257,"""world""",,,3.408889055252075,11.653094291687012,1.2712658643722534
1690464469667674037,,13562,,1690464469,667622374,"""world""",,,3.4085962772369385,11.648555755615234,1.2740962505340576
1690464469677683931,,13563,,1690464469,677630343,"""world""",,,3.4083056449890137,11.643787384033203,1.276930332183838
1690464469687704595,,13564,,1690464469,687639336,"""world""",,,3.4080123901367188,11.639166831970215,1.279655933380127
1690464469697689963,,13565,,1690464469,697632431,"""world""",,,3.407719850540161,11.63458251953125,1.2823294401168823
1690464469707694811,,13566,,1690464469,707633132,"""world""",,,3.4073543548583984,11.629918098449707,1.2851595878601074
1690464469717689789,,13567,,1690464469,717631589,"""world""",,,3.407130479812622,11.625279426574707,1.2879294157028198
1690464469727731046,,13568,,1690464469,727679305,"""world""",,,3.40677809715271,11.620646476745605,1.2907497882843018
1690464469737662062,,13569,,1690464469,737617036,"""world""",,,3.4064207077026367,11.616045951843262,1.2935227155685425
1690464469747724062,,13570,,1690464469,747646293,"""world""",,,3.406071662902832,11.611519813537598,1.2962632179260254
1690464469757755336,,13571,,1690464469,757695639,"""world""",,,3.4057910442352295,11.606898307800293,1.299035668373108
1690464469767711375,,13572,,1690464469,767626327,"""world""",,,3.405534505844116,11.602294921875,1.3018033504486084
1690464469777728137,,13573,,1690464469,777635050,"""world""",,,3.4051592350006104,11.597835540771484,1.304531455039978
1690464469787725318,,13574,,1690464469,787643473,"""world""",,,3.4048686027526855,11.593185424804688,1.307119369506836
1690464469797734029,,13575,,1690464469,797636741,"""world""",,,3.4045310020446777,11.588606834411621,1.3097846508026123
1690464469807710963,,13576,,1690464469,807634369,"""world""",,,3.4041807651519775,11.584000587463379,1.312379240989685
1690464469817747399,,13577,,1690464469,817639507,"""world""",,,3.4039199352264404,11.579498291015625,1.3148870468139648
1690464469827767234,,13578,,1690464469,827682273,"""world""",,,3.4036152362823486,11.574891090393066,1.3173072338104248
1690464469837698753,,13579,,1690464469,837620775,"""world""",,,3.4033050537109375,11.570430755615234,1.3197137117385864
1690464469847780126,,13580,,1690464469,847697194,"""world""",,,3.402979612350464,11.565764427185059,1.3220778703689575
