rosbagTimestamp,header,seq,stamp,secs,nsecs,frame_id,pose,position,x,y,z
1690464118447693409,,0,,1690464118,447630723,"""world""",,,3.3682451248168945,13.157050132751465,0.04299554228782654
1690464118457762875,,1,,1690464118,457664557,"""world""",,,3.368349552154541,13.157051086425781,0.04295913875102997
1690464118467767715,,2,,1690464118,467645286,"""world""",,,3.3682260513305664,13.157034873962402,0.043022122234106064
1690464118477766923,,3,,1690464118,477658181,"""world""",,,3.368293046951294,13.157096862792969,0.04299602657556534
1690464118487755624,,4,,1690464118,487661418,"""world""",,,3.368314743041992,13.157031059265137,0.042977046221494675
1690464118497739639,,5,,1690464118,497642475,"""world""",,,3.368293046951294,13.157059669494629,0.04301803931593895
1690464118507756492,,6,,1690464118,507666897,"""world""",,,3.368335008621216,13.15715503692627,0.04303654283285141
1690464118517763768,,7,,1690464118,517660567,"""world""",,,3.36834454536438,13.157088279724121,0.043017059564590454
1690464118527698485,,8,,1690464118,527637055,"""world""",,,3.3681640625,13.157015800476074,0.04302908480167389
1690464118537688743,,9,,1690464118,537632906,"""world""",,,3.368345022201538,13.157092094421387,0.04297472536563873
1690464118547728655,,10,,1690464118,547664455,"""world""",,,3.3683462142944336,13.157092094421387,0.04300370439887047
1690464118557714966,,11,,1690464118,557637254,"""world""",,,3.3682780265808105,13.157085418701172,0.04299784451723099
1690464118567699384,,12,,1690464118,567635256,"""world""",,,3.3683435916900635,13.1571044921875,0.04297294467687607
1690464118577660620,,13,,1690464118,577616903,"""world""",,,3.3683290481567383,13.157052040100098,0.04297078773379326
1690464118587673168,,14,,1690464118,587624328,"""world""",,,3.368248224258423,13.157036781311035,0.042969174683094025
1690464118597765994,,15,,1690464118,597675507,"""world""",,,3.3683102130889893,13.157103538513184,0.043031226843595505
1690464118607692159,,16,,1690464118,607635481,"""world""",,,3.3683464527130127,13.157086372375488,0.04300948604941368
1690464118617700009,,17,,1690464118,617630820,"""world""",,,3.368291139602661,13.157093048095703,0.042987748980522156
1690464118627729953,,18,,1690464118,627641731,"""world""",,,3.368320941925049,13.1571044921875,0.04301397129893303
1690464118637684662,,19,,1690464118,637629524,"""world""",,,3.368239402770996,13.157027244567871,0.043026961386203766
1690464118647736178,,20,,1690464118,647640902,"""world""",,,3.3681907653808594,13.156973838806152,0.04297181963920593
1690464118657712951,,21,,1690464118,657638780,"""world""",,,3.368335723876953,13.157113075256348,0.04302317649126053
1690464118667757279,,22,,1690464118,667696073,"""world""",,,3.368328094482422,13.157086372375488,0.04300657659769058
1690464118677668349,,23,,1690464118,677620967,"""world""",,,3.3682146072387695,13.157063484191895,0.04299110174179077
1690464118687683752,,24,,1690464118,687625634,"""world""",,,3.36824631690979,13.1570463180542,0.04302629455924034
1690464118697715567,,25,,1690464118,697645724,"""world""",,,3.368314743041992,13.1570463180542,0.042958155274391174
1690464118707692155,,26,,1690464118,707631910,"""world""",,,3.3682260513305664,13.156997680664062,0.043009646236896515
1690464118717698766,,27,,1690464118,717632275,"""world""",,,3.3682422637939453,13.157000541687012,0.042967092245817184
1690464118727700254,,28,,1690464118,727637626,"""world""",,,3.36832857131958,13.157066345214844,0.042969103902578354
1690464118737684684,,29,,1690464118,737627639,"""world""",,,3.3682122230529785,13.156998634338379,0.04300899803638458
1690464118747736269,,30,,1690464118,747672470,"""world""",,,3.3682899475097656,13.157008171081543,0.04299071058630943
1690464118757713817,,31,,1690464118,757642526,"""world""",,,3.3682408332824707,13.15701675415039,0.04301325976848602
1690464118767751635,,32,,1690464118,767687690,"""world""",,,3.368291139602661,13.157025337219238,0.04295419156551361
1690464118777670914,,33,,1690464118,777621128,"""world""",,,3.368292808532715,13.157050132751465,0.042956724762916565
1690464118787678397,,34,,1690464118,787628883,"""world""",,,3.3682444095611572,13.156981468200684,0.042974814772605896
1690464118797734784,,35,,1690464118,797658068,"""world""",,,3.3682355880737305,13.157008171081543,0.043010927736759186
1690464118807686551,,36,,1690464118,807632433,"""world""",,,3.3683102130889893,13.157058715820312,0.04296251758933067
1690464118817699987,,37,,1690464118,817631178,"""world""",,,3.368328094482422,13.157092094421387,0.04301748797297478
1690464118827727179,,38,,1690464118,827650797,"""world""",,,3.3683218955993652,13.157061576843262,0.04296615347266197
1690464118837691075,,39,,1690464118,837633383,"""world""",,,3.368244171142578,13.156991004943848,0.042954400181770325
1690464118847708293,,40,,1690464118,847647122,"""world""",,,3.368312120437622,13.157021522521973,0.04303516447544098
1690464118857699439,,41,,1690464118,857637412,"""world""",,,3.368316650390625,13.157099723815918,0.04302097111940384
1690464118867796557,,42,,1690464118,867690638,"""world""",,,3.368304491043091,13.157057762145996,0.042953379452228546
1690464118877719221,,43,,1690464118,877638371,"""world""",,,3.3683009147644043,13.157036781311035,0.04296413064002991
1690464118887712231,,44,,1690464118,887629080,"""world""",,,3.368286371231079,13.157055854797363,0.04298553988337517
1690464118897793837,,45,,1690464118,897686733,"""world""",,,3.3683362007141113,13.15708065032959,0.04300328716635704
1690464118907701113,,46,,1690464118,907633608,"""world""",,,3.3683464527130127,13.157058715820312,0.042970068752765656
1690464118917779004,,47,,1690464118,917637315,"""world""",,,3.368229866027832,13.156997680664062,0.04298559948801994
1690464118927726002,,48,,1690464118,927642895,"""world""",,,3.3683197498321533,13.157058715820312,0.04295840114355087
1690464118937712066,,49,,1690464118,937626269,"""world""",,,3.368326187133789,13.157073974609375,0.043017543852329254
1690464118947727759,,50,,1690464118,947654018,"""world""",,,3.3683242797851562,13.157115936279297,0.043025579303503036
1690464118957693809,,51,,1690464118,957631820,"""world""",,,3.36834454536438,13.157071113586426,0.04294835776090622
1690464118967697004,,52,,1690464118,967634413,"""world""",,,3.3683013916015625,13.157069206237793,0.04301300272345543
1690464118977742185,,53,,1690464118,977618142,"""world""",,,3.3682548999786377,13.157011985778809,0.04302068054676056
1690464118987723274,,54,,1690464118,987626049,"""world""",,,3.368316888809204,13.157086372375488,0.04295731708407402
1690464118997719606,,55,,1690464118,997652138,"""world""",,,3.3683178424835205,13.156981468200684,0.04297121986746788
1690464119007787099,,56,,1690464119,7686082,"""world""",,,3.368320941925049,13.157096862792969,0.043015144765377045
1690464119017808492,,57,,1690464119,17667304,"""world""",,,3.3683319091796875,13.157169342041016,0.04303336888551712
1690464119027699046,,58,,1690464119,27638351,"""world""",,,3.3683247566223145,13.157078742980957,0.043035224080085754
1690464119037696591,,59,,1690464119,37635495,"""world""",,,3.3682861328125,13.157089233398438,0.043010398745536804
1690464119047743110,,60,,1690464119,47649939,"""world""",,,3.368272066116333,13.157010078430176,0.04297036677598953
1690464119057788473,,61,,1690464119,57664081,"""world""",,,3.368256092071533,13.157017707824707,0.0430152490735054
1690464119067800311,,62,,1690464119,67733940,"""world""",,,3.3683395385742188,13.157076835632324,0.04303469508886337
1690464119077760663,,63,,1690464119,77695431,"""world""",,,3.3683104515075684,13.15715503692627,0.043058183044195175
1690464119087714599,,64,,1690464119,87658086,"""world""",,,3.368293046951294,13.157058715820312,0.043070338666439056
1690464119097739878,,65,,1690464119,97650017,"""world""",,,3.36830735206604,13.15705394744873,0.04300658777356148
1690464119107815083,,66,,1690464119,107742100,"""world""",,,3.3683197498321533,13.157112121582031,0.043030813336372375
1690464119117702719,,67,,1690464119,117631579,"""world""",,,3.368317127227783,13.157124519348145,0.0430508516728878
1690464119127735434,,68,,1690464119,127652036,"""world""",,,3.3683323860168457,13.157103538513184,0.043020136654376984
1690464119137689999,,69,,1690464119,137632498,"""world""",,,3.3683319091796875,13.157126426696777,0.043074026703834534
1690464119147761747,,70,,1690464119,147672544,"""world""",,,3.36830472946167,13.157063484191895,0.04305551201105118
1690464119157698109,,71,,1690464119,157635252,"""world""",,,3.368191957473755,13.15705394744873,0.04310424253344536
1690464119167774591,,72,,1690464119,167677049,"""world""",,,3.3682024478912354,13.156987190246582,0.043042607605457306
1690464119177704901,,73,,1690464119,177620196,"""world""",,,3.368196487426758,13.156986236572266,0.043096330016851425
1690464119187714524,,74,,1690464119,187628051,"""world""",,,3.368194818496704,13.156920433044434,0.043066855520009995
1690464119197727931,,75,,1690464119,197657282,"""world""",,,3.368227481842041,13.156994819641113,0.043096549808979034
1690464119207824836,,76,,1690464119,207732231,"""world""",,,3.368234634399414,13.15693187713623,0.0430620014667511
1690464119217727203,,77,,1690464119,217670703,"""world""",,,3.368114471435547,13.156878471374512,0.043049778789281845
1690464119227730539,,78,,1690464119,227633946,"""world""",,,3.3681633472442627,13.156956672668457,0.04315566644072533
1690464119237693176,,79,,1690464119,237634343,"""world""",,,3.368170976638794,13.156867980957031,0.04309132322669029
1690464119247737870,,80,,1690464119,247662630,"""world""",,,3.368164539337158,13.156879425048828,0.04316394031047821
1690464119257731772,,81,,1690464119,257671745,"""world""",,,3.368143081665039,13.156842231750488,0.04316447675228119
1690464119267751424,,82,,1690464119,267673360,"""world""",,,3.3680613040924072,13.15692138671875,0.043210774660110474
1690464119277698460,,83,,1690464119,277638930,"""world""",,,3.368143081665039,13.156834602355957,0.04312858730554581
1690464119287699596,,84,,1690464119,287635658,"""world""",,,3.368198871612549,13.156834602355957,0.04317787289619446
1690464119297723623,,85,,1690464119,297655352,"""world""",,,3.3681883811950684,13.156899452209473,0.043220408260822296
1690464119307756347,,86,,1690464119,307689649,"""world""",,,3.368180274963379,13.156828880310059,0.04318835958838463
1690464119317716358,,87,,1690464119,317638389,"""world""",,,3.3681652545928955,13.156794548034668,0.04331633448600769
1690464119327775658,,88,,1690464119,327647086,"""world""",,,3.3682100772857666,13.156903266906738,0.04338569566607475
1690464119337739011,,89,,1690464119,337638774,"""world""",,,3.368223190307617,13.15691089630127,0.04332607612013817
1690464119347724784,,90,,1690464119,347650192,"""world""",,,3.368292808532715,13.156874656677246,0.043319396674633026
1690464119357697216,,91,,1690464119,357633015,"""world""",,,3.3683319091796875,13.156890869140625,0.04335585981607437
1690464119367830731,,92,,1690464119,367667936,"""world""",,,3.368379592895508,13.1569242477417,0.043475087732076645
1690464119377736488,,93,,1690464119,377627127,"""world""",,,3.3683981895446777,13.156967163085938,0.043672241270542145
1690464119387684864,,94,,1690464119,387628306,"""world""",,,3.368384838104248,13.156968116760254,0.0439491868019104
1690464119397734685,,95,,1690464119,397667530,"""world""",,,3.368405342102051,13.156952857971191,0.044224098324775696
1690464119407791006,,96,,1690464119,407690827,"""world""",,,3.3685126304626465,13.156977653503418,0.04469548165798187
1690464119417707618,,97,,1690464119,417627339,"""world""",,,3.368529796600342,13.156959533691406,0.04527902230620384
1690464119427720440,,98,,1690464119,427644519,"""world""",,,3.3687407970428467,13.157071113586426,0.046014633029699326
1690464119437718639,,99,,1690464119,437660751,"""world""",,,3.3688440322875977,13.157063484191895,0.04707198590040207
1690464119447757191,,100,,1690464119,447685785,"""world""",,,3.3689191341400146,13.157150268554688,0.04833441227674484
1690464119457707278,,101,,1690464119,457638119,"""world""",,,3.3688950538635254,13.157309532165527,0.04991510137915611
1690464119467745219,,102,,1690464119,467636205,"""world""",,,3.368922710418701,13.15749740600586,0.0517670214176178
1690464119477709804,,103,,1690464119,477623924,"""world""",,,3.3690316677093506,13.157577514648438,0.053928643465042114
1690464119487739017,,104,,1690464119,487631747,"""world""",,,3.3691649436950684,13.157742500305176,0.05666612833738327
1690464119497772989,,105,,1690464119,497661135,"""world""",,,3.3691866397857666,13.158027648925781,0.05974934250116348
1690464119507807970,,106,,1690464119,507683207,"""world""",,,3.3693621158599854,13.158180236816406,0.06315995007753372
1690464119517730298,,107,,1690464119,517629963,"""world""",,,3.369494915008545,13.158482551574707,0.06719563156366348
1690464119527690725,,108,,1690464119,527630320,"""world""",,,3.369727849960327,13.15881633758545,0.07138386368751526
1690464119537727767,,109,,1690464119,537672985,"""world""",,,3.3698534965515137,13.159065246582031,0.07596931606531143
1690464119547714107,,110,,1690464119,547652836,"""world""",,,3.369892120361328,13.159274101257324,0.08102503418922424
1690464119557696639,,111,,1690464119,557637864,"""world""",,,3.3700194358825684,13.159454345703125,0.08624166250228882
1690464119567762100,,112,,1690464119,567707385,"""world""",,,3.370176315307617,13.159819602966309,0.09177455306053162
1690464119577772846,,113,,1690464119,577658216,"""world""",,,3.3703253269195557,13.159976959228516,0.09754490852355957
1690464119587683969,,114,,1690464119,587631830,"""world""",,,3.370488405227661,13.160385131835938,0.10356079041957855
1690464119597763988,,115,,1690464119,597671779,"""world""",,,3.3707706928253174,13.160660743713379,0.10968957096338272
1690464119607719877,,116,,1690464119,607629151,"""world""",,,3.371037721633911,13.16097640991211,0.11609229445457458
1690464119617695105,,117,,1690464119,617628650,"""world""",,,3.371384859085083,13.161530494689941,0.12277554720640182
1690464119627699636,,118,,1690464119,627637433,"""world""",,,3.371574640274048,13.161919593811035,0.12939347326755524
1690464119637693308,,119,,1690464119,637631516,"""world""",,,3.3718292713165283,13.162276268005371,0.1361667662858963
1690464119647710958,,120,,1690464119,647644078,"""world""",,,3.372067451477051,13.162696838378906,0.14305627346038818
1690464119657693207,,121,,1690464119,657632903,"""world""",,,3.3722243309020996,13.163078308105469,0.14975784718990326
1690464119667749843,,122,,1690464119,667686986,"""world""",,,3.372377634048462,13.163341522216797,0.15663407742977142
1690464119677741079,,123,,1690464119,677650269,"""world""",,,3.3726134300231934,13.163628578186035,0.16334228217601776
1690464119687762222,,124,,1690464119,687697747,"""world""",,,3.3727850914001465,13.163874626159668,0.17006812989711761
1690464119697745499,,125,,1690464119,697662456,"""world""",,,3.3730356693267822,13.164264678955078,0.176870658993721
1690464119707703486,,126,,1690464119,707638113,"""world""",,,3.3731980323791504,13.164759635925293,0.18360218405723572
1690464119717701959,,127,,1690464119,717630838,"""world""",,,3.373352289199829,13.165127754211426,0.1903391182422638
1690464119727700236,,128,,1690464119,727633239,"""world""",,,3.3736135959625244,13.165629386901855,0.19695667922496796
1690464119737694494,,129,,1690464119,737631412,"""world""",,,3.373835802078247,13.16614818572998,0.203416645526886
1690464119747716692,,130,,1690464119,747642087,"""world""",,,3.3739776611328125,13.166594505310059,0.20976875722408295
1690464119757702335,,131,,1690464119,757635157,"""world""",,,3.3739705085754395,13.166977882385254,0.21611431241035461
1690464119767824767,,132,,1690464119,767689082,"""world""",,,3.3741965293884277,13.167327880859375,0.2221151441335678
1690464119777708844,,133,,1690464119,777619239,"""world""",,,3.374340057373047,13.167656898498535,0.22801385819911957
1690464119787695963,,134,,1690464119,787627106,"""world""",,,3.3745250701904297,13.168045043945312,0.23363345861434937
1690464119797707963,,135,,1690464119,797638143,"""world""",,,3.374701499938965,13.16837215423584,0.2392343282699585
1690464119807765537,,136,,1690464119,807632566,"""world""",,,3.3748369216918945,13.168618202209473,0.24471662938594818
1690464119817704010,,137,,1690464119,817634900,"""world""",,,3.3749284744262695,13.168986320495605,0.25008997321128845
1690464119827695618,,138,,1690464119,827630304,"""world""",,,3.3750088214874268,13.169472694396973,0.25532257556915283
1690464119837692998,,139,,1690464119,837632511,"""world""",,,3.375112771987915,13.170042991638184,0.2604723572731018
1690464119847701264,,140,,1690464119,847633052,"""world""",,,3.375103235244751,13.170445442199707,0.2654891610145569
1690464119857694938,,141,,1690464119,857634053,"""world""",,,3.375253200531006,13.17090892791748,0.27027803659439087
1690464119867749724,,142,,1690464119,867687304,"""world""",,,3.3753979206085205,13.17138671875,0.27494579553604126
1690464119877662138,,143,,1690464119,877615305,"""world""",,,3.3755645751953125,13.171573638916016,0.27924710512161255
1690464119887692474,,144,,1690464119,887631054,"""world""",,,3.375821352005005,13.171958923339844,0.28355610370635986
1690464119897712357,,145,,1690464119,897642555,"""world""",,,3.3758983612060547,13.172261238098145,0.28781062364578247
1690464119907734210,,146,,1690464119,907633907,"""world""",,,3.3760452270507812,13.172513008117676,0.2919464707374573
1690464119917685825,,147,,1690464119,917588376,"""world""",,,3.376225709915161,13.172897338867188,0.29617905616760254
1690464119927712154,,148,,1690464119,927639903,"""world""",,,3.376321315765381,13.173304557800293,0.3004274368286133
1690464119937685357,,149,,1690464119,937629330,"""world""",,,3.376314163208008,13.173656463623047,0.3044779300689697
1690464119947712767,,150,,1690464119,947643382,"""world""",,,3.3763718605041504,13.174053192138672,0.308258980512619
1690464119957691797,,151,,1690464119,957633994,"""world""",,,3.376377820968628,13.174456596374512,0.3123636543750763
1690464119967744300,,152,,1690464119,967686835,"""world""",,,3.3764431476593018,13.174778938293457,0.31631648540496826
1690464119977723657,,153,,1690464119,977673769,"""world""",,,3.3764936923980713,13.175079345703125,0.32019752264022827
1690464119987692868,,154,,1690464119,987627701,"""world""",,,3.3764023780822754,13.175448417663574,0.3239806592464447
1690464119997754212,,155,,1690464119,997645206,"""world""",,,3.376455545425415,13.175701141357422,0.327632874250412
1690464120007742849,,156,,1690464120,7677960,"""world""",,,3.376389741897583,13.175986289978027,0.3313998281955719
1690464120017699853,,157,,1690464120,17629512,"""world""",,,3.3763210773468018,13.176338195800781,0.3351994454860687
1690464120027704410,,158,,1690464120,27631337,"""world""",,,3.376451015472412,13.1767578125,0.33895984292030334
1690464120037685875,,159,,1690464120,37629642,"""world""",,,3.376343250274658,13.177040100097656,0.34265026450157166
1690464120047688077,,160,,1690464120,47630397,"""world""",,,3.376410961151123,13.177464485168457,0.34645307064056396
1690464120057685694,,161,,1690464120,57632647,"""world""",,,3.376356601715088,13.17764949798584,0.35009583830833435
1690464120067708240,,162,,1690464120,67636676,"""world""",,,3.3763952255249023,13.177879333496094,0.3537629544734955
1690464120077662946,,163,,1690464120,77618288,"""world""",,,3.376286745071411,13.178109169006348,0.3572865128517151
1690464120087686815,,164,,1690464120,87626129,"""world""",,,3.3762638568878174,13.17821979522705,0.36077579855918884
1690464120097711698,,165,,1690464120,97645848,"""world""",,,3.376220226287842,13.178428649902344,0.3643666207790375
1690464120107686541,,166,,1690464120,107630402,"""world""",,,3.3762173652648926,13.17851734161377,0.3678872883319855
1690464120117697334,,167,,1690464120,117627725,"""world""",,,3.3761146068573,13.178672790527344,0.37133413553237915
1690464120127706558,,168,,1690464120,127630827,"""world""",,,3.3760969638824463,13.178793907165527,0.37482619285583496
1690464120137685213,,169,,1690464120,137629269,"""world""",,,3.3759682178497314,13.178997039794922,0.3782789409160614
1690464120147693637,,170,,1690464120,147630382,"""world""",,,3.375823974609375,13.179163932800293,0.38176193833351135
1690464120157702266,,171,,1690464120,157636116,"""world""",,,3.3757877349853516,13.17931079864502,0.38512149453163147
1690464120167745743,,172,,1690464120,167684764,"""world""",,,3.375782012939453,13.179472923278809,0.3884958028793335
1690464120177667833,,173,,1690464120,177617105,"""world""",,,3.3757057189941406,13.179522514343262,0.39180895686149597
1690464120187680623,,174,,1690464120,187624555,"""world""",,,3.3756766319274902,13.179491996765137,0.3950483500957489
1690464120197725438,,175,,1690464120,197636653,"""world""",,,3.375626802444458,13.17951488494873,0.3982202708721161
1690464120207690908,,176,,1690464120,207637324,"""world""",,,3.375476837158203,13.179560661315918,0.40129104256629944
1690464120217692724,,177,,1690464120,217629374,"""world""",,,3.3754563331604004,13.179539680480957,0.40453431010246277
1690464120227725001,,178,,1690464120,227633475,"""world""",,,3.3752899169921875,13.179508209228516,0.4075343608856201
1690464120237688753,,179,,1690464120,237634740,"""world""",,,3.375332832336426,13.179621696472168,0.41061556339263916
1690464120247707395,,180,,1690464120,247640301,"""world""",,,3.3752434253692627,13.179695129394531,0.41365745663642883
1690464120257692356,,181,,1690464120,257634547,"""world""",,,3.375304937362671,13.179919242858887,0.4166293144226074
1690464120267732210,,182,,1690464120,267665437,"""world""",,,3.3752150535583496,13.180011749267578,0.41963037848472595
1690464120277770452,,183,,1690464120,277679022,"""world""",,,3.3751308917999268,13.1800537109375,0.4224607050418854
1690464120287742804,,184,,1690464120,287644320,"""world""",,,3.3750929832458496,13.180213928222656,0.42526134848594666
1690464120297834493,,185,,1690464120,297662275,"""world""",,,3.3749794960021973,13.180203437805176,0.42800450325012207
1690464120307846908,,186,,1690464120,307711112,"""world""",,,3.3749115467071533,13.18017864227295,0.4304893910884857
1690464120317761482,,187,,1690464120,317633418,"""world""",,,3.374730348587036,13.1802396774292,0.43319663405418396
1690464120327770758,,188,,1690464120,327635056,"""world""",,,3.374629259109497,13.18017578125,0.43548741936683655
1690464120337769402,,189,,1690464120,337634126,"""world""",,,3.3744945526123047,13.18016529083252,0.43812158703804016
1690464120347734985,,190,,1690464120,347661599,"""world""",,,3.3743202686309814,13.180194854736328,0.44043946266174316
1690464120357697658,,191,,1690464120,357632217,"""world""",,,3.374281167984009,13.180123329162598,0.44281888008117676
1690464120367762261,,192,,1690464120,367697149,"""world""",,,3.374156951904297,13.180222511291504,0.4452403485774994
1690464120377666871,,193,,1690464120,377620634,"""world""",,,3.374117136001587,13.180214881896973,0.44747352600097656
1690464120387680770,,194,,1690464120,387625211,"""world""",,,3.3740921020507812,13.180198669433594,0.449855774641037
1690464120397735272,,195,,1690464120,397658031,"""world""",,,3.3740217685699463,13.180254936218262,0.45201635360717773
1690464120407771195,,196,,1690464120,407707142,"""world""",,,3.373959541320801,13.1801118850708,0.45416679978370667
1690464120417711281,,197,,1690464120,417630541,"""world""",,,3.3740010261535645,13.180150032043457,0.45628592371940613
1690464120427709457,,198,,1690464120,427634962,"""world""",,,3.3738625049591064,13.179946899414062,0.458219051361084
1690464120437718818,,199,,1690464120,437631036,"""world""",,,3.373835802078247,13.17992115020752,0.46033111214637756
1690464120447754413,,200,,1690464120,447681604,"""world""",,,3.373866081237793,13.179823875427246,0.4623276889324188
1690464120457719165,,201,,1690464120,457645590,"""world""",,,3.3737497329711914,13.179706573486328,0.4643498957157135
1690464120467772681,,202,,1690464120,467696640,"""world""",,,3.373626947402954,13.17966365814209,0.4663330912590027
1690464120477724559,,203,,1690464120,477666438,"""world""",,,3.373678684234619,13.179600715637207,0.4683878719806671
1690464120487694828,,204,,1690464120,487630304,"""world""",,,3.3737118244171143,13.179547309875488,0.4702998101711273
1690464120497706973,,205,,1690464120,497647543,"""world""",,,3.3736801147460938,13.179461479187012,0.47228920459747314
1690464120507729118,,206,,1690464120,507672891,"""world""",,,3.373683214187622,13.179451942443848,0.4743677079677582
1690464120517702333,,207,,1690464120,517633200,"""world""",,,3.3737735748291016,13.179461479187012,0.4763565957546234
1690464120527709807,,208,,1690464120,527643753,"""world""",,,3.373727798461914,13.179190635681152,0.4782891273498535
1690464120537743661,,209,,1690464120,537642622,"""world""",,,3.373769760131836,13.1791410446167,0.48021188378334045
1690464120547734904,,210,,1690464120,547638897,"""world""",,,3.3736672401428223,13.17889404296875,0.4821990430355072
1690464120557694362,,211,,1690464120,557633577,"""world""",,,3.3736791610717773,13.1786470413208,0.4840656816959381
1690464120567734849,,212,,1690464120,567672103,"""world""",,,3.3736934661865234,13.178443908691406,0.4859727621078491
1690464120577670150,,213,,1690464120,577620815,"""world""",,,3.373599052429199,13.178252220153809,0.48799601197242737
1690464120587682699,,214,,1690464120,587627949,"""world""",,,3.373511552810669,13.1779146194458,0.489883691072464
1690464120597749481,,215,,1690464120,597650109,"""world""",,,3.3734540939331055,13.1775484085083,0.4918607771396637
1690464120607820940,,216,,1690464120,607689456,"""world""",,,3.3733906745910645,13.177218437194824,0.4937826097011566
1690464120617740407,,217,,1690464120,617632029,"""world""",,,3.3734726905822754,13.176884651184082,0.495706170797348
1690464120627694628,,218,,1690464120,627630481,"""world""",,,3.3734912872314453,13.176494598388672,0.4976261854171753
1690464120637730734,,219,,1690464120,637632928,"""world""",,,3.3735861778259277,13.176043510437012,0.49946287274360657
1690464120647699268,,220,,1690464120,647624783,"""world""",,,3.373624801635742,13.175621032714844,0.5013682246208191
1690464120657741924,,221,,1690464120,657644720,"""world""",,,3.3736660480499268,13.175137519836426,0.5031948685646057
1690464120667780811,,222,,1690464120,667678987,"""world""",,,3.3736138343811035,13.174659729003906,0.5050726532936096
1690464120677699508,,223,,1690464120,677621958,"""world""",,,3.373664140701294,13.174092292785645,0.5069549083709717
1690464120687730140,,224,,1690464120,687627590,"""world""",,,3.3736886978149414,13.173541069030762,0.5087067484855652
1690464120697777352,,225,,1690464120,697635794,"""world""",,,3.3737850189208984,13.172932624816895,0.510543704032898
1690464120707721596,,226,,1690464120,707631978,"""world""",,,3.373781442642212,13.172309875488281,0.5123539566993713
1690464120717749944,,227,,1690464120,717638693,"""world""",,,3.3736941814422607,13.171637535095215,0.5142195224761963
1690464120727713566,,228,,1690464120,727648325,"""world""",,,3.3737475872039795,13.170989036560059,0.5159623622894287
1690464120737696447,,229,,1690464120,737633101,"""world""",,,3.373741626739502,13.170186042785645,0.5177501440048218
1690464120747726376,,230,,1690464120,747631481,"""world""",,,3.3739075660705566,13.169522285461426,0.5197171568870544
1690464120757725839,,231,,1690464120,757634708,"""world""",,,3.3738512992858887,13.168612480163574,0.5213739275932312
1690464120767744314,,232,,1690464120,767680144,"""world""",,,3.373933792114258,13.167686462402344,0.5231103301048279
1690464120777663552,,233,,1690464120,777618789,"""world""",,,3.3739676475524902,13.1668062210083,0.5248652100563049
1690464120787751695,,234,,1690464120,787658950,"""world""",,,3.3740265369415283,13.165911674499512,0.5267060399055481
1690464120797721612,,235,,1690464120,797650938,"""world""",,,3.3740506172180176,13.164756774902344,0.5283747315406799
1690464120807721181,,236,,1690464120,807664834,"""world""",,,3.374026298522949,13.16359806060791,0.5301283001899719
1690464120817732110,,237,,1690464120,817627052,"""world""",,,3.374028444290161,13.16250228881836,0.531788170337677
1690464120827695512,,238,,1690464120,827630559,"""world""",,,3.37398362159729,13.161456108093262,0.5337142944335938
1690464120837698396,,239,,1690464120,837634358,"""world""",,,3.3740389347076416,13.160235404968262,0.5354315638542175
1690464120847722314,,240,,1690464120,847656086,"""world""",,,3.374082565307617,13.158860206604004,0.5370237231254578
1690464120857690822,,241,,1690464120,857635417,"""world""",,,3.3741188049316406,13.157475471496582,0.5386974811553955
1690464120867695799,,242,,1690464120,867634309,"""world""",,,3.3741068840026855,13.155972480773926,0.5404636859893799
1690464120877730010,,243,,1690464120,877648866,"""world""",,,3.374094009399414,13.15467357635498,0.5422024726867676
1690464120887733272,,244,,1690464120,887629666,"""world""",,,3.3740921020507812,13.153277397155762,0.5441127419471741
1690464120897733595,,245,,1690464120,897638119,"""world""",,,3.374190330505371,13.151664733886719,0.5456761717796326
1690464120907746274,,246,,1690464120,907676496,"""world""",,,3.3742105960845947,13.150123596191406,0.5473583340644836
1690464120917725330,,247,,1690464120,917633102,"""world""",,,3.3742947578430176,13.14846420288086,0.549072802066803
1690464120927703165,,248,,1690464120,927631374,"""world""",,,3.3741884231567383,13.146780967712402,0.550839364528656
1690464120937716611,,249,,1690464120,937658071,"""world""",,,3.374159097671509,13.145146369934082,0.5525527000427246
1690464120947728571,,250,,1690464120,947649972,"""world""",,,3.3742258548736572,13.14328670501709,0.5541802644729614
1690464120957702392,,251,,1690464120,957635250,"""world""",,,3.3742828369140625,13.141459465026855,0.5556545257568359
1690464120967703221,,252,,1690464120,967636985,"""world""",,,3.3742551803588867,13.139431953430176,0.5572848320007324
1690464120977705723,,253,,1690464120,977620399,"""world""",,,3.37428879737854,13.137532234191895,0.5588800311088562
1690464120987694743,,254,,1690464120,987633143,"""world""",,,3.374321460723877,13.135539054870605,0.5606263279914856
1690464120997714506,,255,,1690464120,997638164,"""world""",,,3.37437105178833,13.13350772857666,0.5621755123138428
1690464121007750296,,256,,1690464121,7692820,"""world""",,,3.3742711544036865,13.131237030029297,0.5637956857681274
1690464121017718119,,257,,1690464121,17631548,"""world""",,,3.374305009841919,13.129122734069824,0.5652141571044922
1690464121027758762,,258,,1690464121,27632951,"""world""",,,3.374326705932617,13.126904487609863,0.5666594505310059
1690464121037713282,,259,,1690464121,37649443,"""world""",,,3.37438702583313,13.12467098236084,0.568350076675415
1690464121047718270,,260,,1690464121,47644740,"""world""",,,3.3743228912353516,13.122379302978516,0.5698828101158142
1690464121057700270,,261,,1690464121,57638950,"""world""",,,3.374269723892212,13.120026588439941,0.5714792609214783
1690464121067735995,,262,,1690464121,67633251,"""world""",,,3.3743200302124023,13.117785453796387,0.5730053782463074
1690464121077738005,,263,,1690464121,77619582,"""world""",,,3.374176502227783,13.115195274353027,0.5745609402656555
1690464121087781423,,264,,1690464121,87638192,"""world""",,,3.374293565750122,13.112574577331543,0.5759510397911072
1690464121097737196,,265,,1690464121,97636022,"""world""",,,3.3743090629577637,13.110089302062988,0.5774036049842834
1690464121107752155,,266,,1690464121,107688418,"""world""",,,3.3741838932037354,13.10737133026123,0.5788739919662476
1690464121117690963,,267,,1690464121,117631333,"""world""",,,3.3743505477905273,13.104827880859375,0.5803534984588623
1690464121127697080,,268,,1690464121,127640523,"""world""",,,3.3744029998779297,13.102015495300293,0.5818212032318115
1690464121137713214,,269,,1690464121,137647477,"""world""",,,3.374194383621216,13.099303245544434,0.5832538604736328
1690464121147698203,,270,,1690464121,147642203,"""world""",,,3.3742904663085938,13.096638679504395,0.5848065614700317
1690464121157702316,,271,,1690464121,157642286,"""world""",,,3.3742477893829346,13.093746185302734,0.5862199664115906
1690464121167698388,,272,,1690464121,167634405,"""world""",,,3.3741610050201416,13.0908784866333,0.5876855254173279
1690464121177665190,,273,,1690464121,177620639,"""world""",,,3.37416672706604,13.087946891784668,0.589169979095459
1690464121187711815,,274,,1690464121,187640752,"""world""",,,3.3741307258605957,13.084944725036621,0.5905749797821045
1690464121197713576,,275,,1690464121,197646912,"""world""",,,3.3742382526397705,13.082019805908203,0.5920101404190063
1690464121207690101,,276,,1690464121,207635305,"""world""",,,3.374181032180786,13.078994750976562,0.5934515595436096
1690464121217681148,,277,,1690464121,217630413,"""world""",,,3.374260425567627,13.075821876525879,0.594918966293335
1690464121227732033,,278,,1690464121,227636974,"""world""",,,3.3742876052856445,13.072752952575684,0.5963138937950134
1690464121237701523,,279,,1690464121,237642496,"""world""",,,3.3741602897644043,13.069530487060547,0.5977790951728821
1690464121247700946,,280,,1690464121,247638940,"""world""",,,3.374293088912964,13.066292762756348,0.5991611480712891
1690464121257694382,,281,,1690464121,257634033,"""world""",,,3.3742220401763916,13.063050270080566,0.6005588173866272
1690464121267709465,,282,,1690464121,267633373,"""world""",,,3.3742830753326416,13.059823036193848,0.6019906401634216
1690464121277697175,,283,,1690464121,277632505,"""world""",,,3.3742270469665527,13.056495666503906,0.6033081412315369
1690464121287719628,,284,,1690464121,287641841,"""world""",,,3.3742752075195312,13.053254127502441,0.6045719981193542
1690464121297782477,,285,,1690464121,297663858,"""world""",,,3.3741800785064697,13.049812316894531,0.6057263612747192
1690464121307785431,,286,,1690464121,307689555,"""world""",,,3.3742527961730957,13.046452522277832,0.6067347526550293
1690464121317680459,,287,,1690464121,317623814,"""world""",,,3.374199867248535,13.043094635009766,0.6077081561088562
1690464121327755292,,288,,1690464121,327647395,"""world""",,,3.3743045330047607,13.039566040039062,0.6084885597229004
1690464121337728674,,289,,1690464121,337631913,"""world""",,,3.3743152618408203,13.03610610961914,0.6092045903205872
1690464121347734342,,290,,1690464121,347656826,"""world""",,,3.3742477893829346,13.032524108886719,0.609906792640686
1690464121357694323,,291,,1690464121,357634654,"""world""",,,3.3744025230407715,13.029048919677734,0.6104479432106018
1690464121367698215,,292,,1690464121,367634375,"""world""",,,3.3742544651031494,13.025433540344238,0.6110585331916809
1690464121377666075,,293,,1690464121,377617842,"""world""",,,3.374368906021118,13.021891593933105,0.6115193367004395
1690464121387688349,,294,,1690464121,387624346,"""world""",,,3.3742518424987793,13.018288612365723,0.6120293736457825
1690464121397693430,,295,,1690464121,397635508,"""world""",,,3.374420404434204,13.014609336853027,0.6123285889625549
1690464121407771137,,296,,1690464121,407715113,"""world""",,,3.3743810653686523,13.010978698730469,0.6127901673316956
1690464121417737577,,297,,1690464121,417650139,"""world""",,,3.374436140060425,13.00732421875,0.6130675673484802
1690464121427700168,,298,,1690464121,427645392,"""world""",,,3.374455690383911,13.003585815429688,0.6133958697319031
1690464121437760798,,299,,1690464121,437699845,"""world""",,,3.374302387237549,12.999881744384766,0.6137202382087708
1690464121447723905,,300,,1690464121,447648198,"""world""",,,3.3745474815368652,12.996174812316895,0.6139470934867859
1690464121457733930,,301,,1690464121,457667273,"""world""",,,3.374596118927002,12.992476463317871,0.6142485737800598
1690464121467736756,,302,,1690464121,467666659,"""world""",,,3.3745739459991455,12.988741874694824,0.6144320368766785
1690464121477712417,,303,,1690464121,477656471,"""world""",,,3.374573230743408,12.98491382598877,0.6146841645240784
1690464121487757610,,304,,1690464121,487662721,"""world""",,,3.3746070861816406,12.981127738952637,0.6149129271507263
1690464121497901601,,305,,1690464121,497695969,"""world""",,,3.374728202819824,12.977272033691406,0.6150827407836914
1690464121507750322,,306,,1690464121,507689906,"""world""",,,3.374713182449341,12.97341537475586,0.6152936220169067
1690464121517673189,,307,,1690464121,517619344,"""world""",,,3.3748538494110107,12.969551086425781,0.6155107021331787
1690464121527698369,,308,,1690464121,527629469,"""world""",,,3.374846935272217,12.965755462646484,0.6156597137451172
1690464121537691274,,309,,1690464121,537631423,"""world""",,,3.3748676776885986,12.961990356445312,0.6160658001899719
1690464121547746229,,310,,1690464121,547639495,"""world""",,,3.375005006790161,12.958080291748047,0.6162874102592468
1690464121557689320,,311,,1690464121,557633129,"""world""",,,3.375040054321289,12.954200744628906,0.6164484620094299
1690464121567701250,,312,,1690464121,567633777,"""world""",,,3.3751769065856934,12.950276374816895,0.6167464256286621
1690464121577666534,,313,,1690464121,577617687,"""world""",,,3.375204563140869,12.946398735046387,0.617058515548706
1690464121587683656,,314,,1690464121,587621384,"""world""",,,3.3754172325134277,12.942479133605957,0.6171747446060181
1690464121597757693,,315,,1690464121,597656039,"""world""",,,3.375410556793213,12.938644409179688,0.6175786852836609
1690464121607786569,,316,,1690464121,607688672,"""world""",,,3.375619411468506,12.934771537780762,0.6177868843078613
1690464121617716689,,317,,1690464121,617621111,"""world""",,,3.375504970550537,12.930684089660645,0.618023693561554
1690464121627687730,,318,,1690464121,627625775,"""world""",,,3.3756802082061768,12.926895141601562,0.6183496713638306
1690464121637718745,,319,,1690464121,637632330,"""world""",,,3.375683546066284,12.922942161560059,0.6185754537582397
1690464121647721491,,320,,1690464121,647632531,"""world""",,,3.3758883476257324,12.919051170349121,0.6188805103302002
1690464121657687457,,321,,1690464121,657632123,"""world""",,,3.3759844303131104,12.915091514587402,0.6192274689674377
1690464121667696833,,322,,1690464121,667633866,"""world""",,,3.376192331314087,12.911200523376465,0.6193888783454895
1690464121677665209,,323,,1690464121,677619053,"""world""",,,3.376204252243042,12.907145500183105,0.6196926236152649
1690464121687677593,,324,,1690464121,687623714,"""world""",,,3.3763315677642822,12.903275489807129,0.6199924945831299
1690464121697742181,,325,,1690464121,697657680,"""world""",,,3.3764758110046387,12.899361610412598,0.6202168464660645
1690464121707723318,,326,,1690464121,707666571,"""world""",,,3.3765435218811035,12.895415306091309,0.6205740571022034
1690464121717678973,,327,,1690464121,717620496,"""world""",,,3.37674617767334,12.891426086425781,0.620759904384613
1690464121727714252,,328,,1690464121,727639718,"""world""",,,3.3767566680908203,12.887530326843262,0.6210612058639526
1690464121737723839,,329,,1690464121,737665565,"""world""",,,3.3769123554229736,12.883578300476074,0.6212874054908752
1690464121747719143,,330,,1690464121,747646557,"""world""",,,3.377060651779175,12.879589080810547,0.6214019656181335
1690464121757691272,,331,,1690464121,757635784,"""world""",,,3.3772189617156982,12.8756685256958,0.621755063533783
1690464121767701628,,332,,1690464121,767634606,"""world""",,,3.3773136138916016,12.871665954589844,0.621940016746521
1690464121777670764,,333,,1690464121,777620042,"""world""",,,3.3774704933166504,12.867728233337402,0.622085452079773
1690464121787742812,,334,,1690464121,787630556,"""world""",,,3.3776111602783203,12.86384105682373,0.6224903464317322
1690464121797702722,,335,,1690464121,797644364,"""world""",,,3.377786159515381,12.859820365905762,0.6225780844688416
1690464121807724621,,336,,1690464121,807632199,"""world""",,,3.377903461456299,12.855918884277344,0.6229231357574463
1690464121817669751,,337,,1690464121,817619159,"""world""",,,3.378081798553467,12.851954460144043,0.6230290532112122
1690464121827685270,,338,,1690464121,827628515,"""world""",,,3.3782706260681152,12.847975730895996,0.6232232451438904
1690464121837699589,,339,,1690464121,837632094,"""world""",,,3.3784267902374268,12.844062805175781,0.6234481930732727
1690464121847716508,,340,,1690464121,847650448,"""world""",,,3.3785316944122314,12.840042114257812,0.623693585395813
1690464121857689402,,341,,1690464121,857629672,"""world""",,,3.378749132156372,12.83617115020752,0.6239607930183411
1690464121867704542,,342,,1690464121,867636911,"""world""",,,3.3788769245147705,12.832080841064453,0.6241130232810974
1690464121877667420,,343,,1690464121,877618643,"""world""",,,3.379016876220703,12.828063011169434,0.6242907047271729
1690464121887734858,,344,,1690464121,887629537,"""world""",,,3.3792405128479004,12.824081420898438,0.62447589635849
1690464121897754186,,345,,1690464121,897674365,"""world""",,,3.3792834281921387,12.820137023925781,0.6247208714485168
1690464121907728801,,346,,1690464121,907633905,"""world""",,,3.379535675048828,12.816123962402344,0.6249539852142334
1690464121917702978,,347,,1690464121,917619864,"""world""",,,3.3796095848083496,12.81217098236084,0.6252158284187317
1690464121927709023,,348,,1690464121,927630102,"""world""",,,3.3799023628234863,12.808090209960938,0.6255121827125549
1690464121937723753,,349,,1690464121,937668154,"""world""",,,3.3799829483032227,12.80411434173584,0.625632107257843
1690464121947688865,,350,,1690464121,947632935,"""world""",,,3.380195140838623,12.80004596710205,0.6259176135063171
1690464121957696978,,351,,1690464121,957635978,"""world""",,,3.380369186401367,12.796027183532715,0.6261689066886902
1690464121967715450,,352,,1690464121,967645533,"""world""",,,3.380462884902954,12.791964530944824,0.6263689398765564
1690464121977664858,,353,,1690464121,977620282,"""world""",,,3.380612850189209,12.787951469421387,0.6266530156135559
1690464121987703032,,354,,1690464121,987634740,"""world""",,,3.380824089050293,12.783772468566895,0.6267715096473694
1690464121997831703,,355,,1690464121,997699557,"""world""",,,3.3808794021606445,12.779706001281738,0.626947820186615
1690464122007813609,,356,,1690464122,7684444,"""world""",,,3.381049394607544,12.775586128234863,0.6272387504577637
1690464122017711294,,357,,1690464122,17622898,"""world""",,,3.3812782764434814,12.77158260345459,0.6274086833000183
1690464122027701982,,358,,1690464122,27635843,"""world""",,,3.381354808807373,12.767313957214355,0.6275718808174133
1690464122037700923,,359,,1690464122,37641462,"""world""",,,3.381561756134033,12.763216972351074,0.6278035044670105
1690464122047692078,,360,,1690464122,47636283,"""world""",,,3.381758213043213,12.758992195129395,0.6278694272041321
1690464122057733335,,361,,1690464122,57640447,"""world""",,,3.381897449493408,12.754971504211426,0.6281498074531555
1690464122067760073,,362,,1690464122,67682092,"""world""",,,3.38204026222229,12.750765800476074,0.6283462643623352
1690464122077664369,,363,,1690464122,77619881,"""world""",,,3.3822665214538574,12.746658325195312,0.6284642219543457
1690464122087727994,,364,,1690464122,87644331,"""world""",,,3.382394790649414,12.742257118225098,0.6286182999610901
1690464122097861336,,365,,1690464122,97696055,"""world""",,,3.382578134536743,12.73809814453125,0.6286554336547852
1690464122107732988,,366,,1690464122,107638019,"""world""",,,3.382711172103882,12.733859062194824,0.6288899183273315
1690464122117732292,,367,,1690464122,117638482,"""world""",,,3.382852077484131,12.729637145996094,0.6290850639343262
1690464122127733324,,368,,1690464122,127635208,"""world""",,,3.382967233657837,12.725384712219238,0.629108190536499
1690464122137745078,,369,,1690464122,137650894,"""world""",,,3.3830952644348145,12.72104549407959,0.6292698979377747
1690464122147735435,,370,,1690464122,147646160,"""world""",,,3.383354902267456,12.716796875,0.6293764114379883
1690464122157696418,,371,,1690464122,157632395,"""world""",,,3.3834190368652344,12.712467193603516,0.6294767260551453
1690464122167759509,,372,,1690464122,167645676,"""world""",,,3.3836331367492676,12.708186149597168,0.6297398805618286
1690464122177697822,,373,,1690464122,177619877,"""world""",,,3.3836746215820312,12.703811645507812,0.6297847628593445
1690464122187780658,,374,,1690464122,187636822,"""world""",,,3.383882522583008,12.699470520019531,0.6299081444740295
1690464122197796238,,375,,1690464122,197674297,"""world""",,,3.3840670585632324,12.69503402709961,0.6301245093345642
1690464122207771880,,376,,1690464122,207637039,"""world""",,,3.3842506408691406,12.690680503845215,0.6302301287651062
1690464122217676998,,377,,1690464122,217618928,"""world""",,,3.3843016624450684,12.686138153076172,0.6304154992103577
1690464122227690948,,378,,1690464122,227629498,"""world""",,,3.384462833404541,12.681800842285156,0.6306110620498657
1690464122237713293,,379,,1690464122,237651976,"""world""",,,3.3847496509552,12.67739486694336,0.6307713985443115
1690464122247703172,,380,,1690464122,247638981,"""world""",,,3.3848464488983154,12.673014640808105,0.6310397386550903
1690464122257693728,,381,,1690464122,257634457,"""world""",,,3.384920358657837,12.668635368347168,0.6312798261642456
1690464122267776937,,382,,1690464122,267703744,"""world""",,,3.3850936889648438,12.664225578308105,0.6315187811851501
1690464122277681405,,383,,1690464122,277625918,"""world""",,,3.3852055072784424,12.659733772277832,0.6317190527915955
1690464122287758203,,384,,1690464122,287655245,"""world""",,,3.3852429389953613,12.655299186706543,0.632061779499054
1690464122297716058,,385,,1690464122,297648544,"""world""",,,3.3855690956115723,12.65080738067627,0.6322692036628723
1690464122307699885,,386,,1690464122,307640624,"""world""",,,3.385568618774414,12.646174430847168,0.6324781775474548
1690464122317694497,,387,,1690464122,317618391,"""world""",,,3.385704755783081,12.641650199890137,0.6327918767929077
1690464122327702302,,388,,1690464122,327640786,"""world""",,,3.385910987854004,12.637173652648926,0.6330609917640686
1690464122337758282,,389,,1690464122,337643884,"""world""",,,3.3859903812408447,12.632777214050293,0.6333943605422974
1690464122347708522,,390,,1690464122,347645779,"""world""",,,3.3861324787139893,12.628226280212402,0.633633553981781
1690464122357694875,,391,,1690464122,357634729,"""world""",,,3.386387825012207,12.623623847961426,0.6339106559753418
1690464122367695818,,392,,1690464122,367634234,"""world""",,,3.3864922523498535,12.619140625,0.6341724395751953
1690464122377665102,,393,,1690464122,377618785,"""world""",,,3.3865609169006348,12.61455249786377,0.6344738006591797
1690464122387715814,,394,,1690464122,387637114,"""world""",,,3.3866190910339355,12.609967231750488,0.6348283886909485
1690464122397748434,,395,,1690464122,397661007,"""world""",,,3.3868653774261475,12.605439186096191,0.6350153684616089
1690464122407716388,,396,,1690464122,407627459,"""world""",,,3.3870415687561035,12.600869178771973,0.6352970600128174
1690464122417747145,,397,,1690464122,417658409,"""world""",,,3.3870773315429688,12.596328735351562,0.635630190372467
1690464122427687969,,398,,1690464122,427630441,"""world""",,,3.3872413635253906,12.591849327087402,0.635952889919281
1690464122437690910,,399,,1690464122,437634124,"""world""",,,3.3873445987701416,12.587306022644043,0.6362261772155762
1690464122447712391,,400,,1690464122,447646269,"""world""",,,3.3874998092651367,12.582717895507812,0.6365302801132202
1690464122457699064,,401,,1690464122,457639835,"""world""",,,3.387681722640991,12.578125953674316,0.6367267966270447
1690464122467727786,,402,,1690464122,467640857,"""world""",,,3.387774705886841,12.57347583770752,0.6368820071220398
1690464122477720105,,403,,1690464122,477660920,"""world""",,,3.38796329498291,12.568920135498047,0.6371684670448303
1690464122487707909,,404,,1690464122,487638819,"""world""",,,3.3880789279937744,12.564496040344238,0.6375001072883606
1690464122497744763,,405,,1690464122,497653437,"""world""",,,3.3882498741149902,12.560012817382812,0.6377376914024353
1690464122507728194,,406,,1690464122,507636643,"""world""",,,3.388380289077759,12.555455207824707,0.6379733681678772
1690464122517696017,,407,,1690464122,517618848,"""world""",,,3.3885698318481445,12.550929069519043,0.6381258368492126
1690464122527699229,,408,,1690464122,527638779,"""world""",,,3.388622283935547,12.546326637268066,0.6383557319641113
1690464122537731434,,409,,1690464122,537637724,"""world""",,,3.388803720474243,12.54183292388916,0.6385146379470825
1690464122547728978,,410,,1690464122,547642110,"""world""",,,3.3889219760894775,12.537386894226074,0.638741135597229
1690464122557724750,,411,,1690464122,557635977,"""world""",,,3.389106273651123,12.53284740447998,0.6389259696006775
1690464122567757860,,412,,1690464122,567646822,"""world""",,,3.3892102241516113,12.528353691101074,0.6390933394432068
1690464122577675702,,413,,1690464122,577622108,"""world""",,,3.3894245624542236,12.523956298828125,0.6393372416496277
1690464122587744847,,414,,1690464122,587633078,"""world""",,,3.389570713043213,12.519477844238281,0.6394334435462952
1690464122597792985,,415,,1690464122,597690610,"""world""",,,3.3897714614868164,12.51506519317627,0.6396117210388184
1690464122607738187,,416,,1690464122,607638110,"""world""",,,3.3899147510528564,12.510597229003906,0.6398279070854187
1690464122617731223,,417,,1690464122,617649590,"""world""",,,3.3900723457336426,12.506192207336426,0.6399579644203186
1690464122627711048,,418,,1690464122,627643681,"""world""",,,3.390146255493164,12.501702308654785,0.6401122808456421
1690464122637738521,,419,,1690464122,637677190,"""world""",,,3.3903403282165527,12.497246742248535,0.6401791572570801
1690464122647758622,,420,,1690464122,647679146,"""world""",,,3.390514612197876,12.492819786071777,0.6402583122253418
1690464122657695215,,421,,1690464122,657636149,"""world""",,,3.390683174133301,12.488487243652344,0.6404592394828796
1690464122667700134,,422,,1690464122,667635168,"""world""",,,3.3908817768096924,12.484143257141113,0.6405854225158691
1690464122677676604,,423,,1690464122,677622814,"""world""",,,3.3910775184631348,12.479743003845215,0.6407156586647034
1690464122687696164,,424,,1690464122,687629265,"""world""",,,3.391249895095825,12.475433349609375,0.6407988667488098
1690464122697825985,,425,,1690464122,697709270,"""world""",,,3.3914127349853516,12.471095085144043,0.640870988368988
1690464122707758775,,426,,1690464122,707692791,"""world""",,,3.391645669937134,12.466801643371582,0.641035795211792
1690464122717718206,,427,,1690464122,717667775,"""world""",,,3.3916850090026855,12.462397575378418,0.6410922408103943
1690464122727702644,,428,,1690464122,727640252,"""world""",,,3.3919546604156494,12.458161354064941,0.6411586999893188
1690464122737725975,,429,,1690464122,737633203,"""world""",,,3.392063856124878,12.453842163085938,0.641316294670105
1690464122747713512,,430,,1690464122,747633587,"""world""",,,3.392305612564087,12.449607849121094,0.6413282155990601
1690464122757698475,,431,,1690464122,757636668,"""world""",,,3.3924365043640137,12.44533920288086,0.6414094567298889
1690464122767747709,,432,,1690464122,767641743,"""world""",,,3.392554521560669,12.441055297851562,0.64151531457901
1690464122777673243,,433,,1690464122,777620020,"""world""",,,3.3927855491638184,12.436823844909668,0.6415203809738159
1690464122787694517,,434,,1690464122,787631234,"""world""",,,3.3928937911987305,12.43256664276123,0.6415989995002747
1690464122797743261,,435,,1690464122,797649989,"""world""",,,3.393214464187622,12.428387641906738,0.641624927520752
1690464122807785251,,436,,1690464122,807664507,"""world""",,,3.393263339996338,12.424189567565918,0.641670286655426
1690464122817774507,,437,,1690464122,817714639,"""world""",,,3.3934624195098877,12.420029640197754,0.6417797207832336
1690464122827719916,,438,,1690464122,827641801,"""world""",,,3.3936047554016113,12.415863037109375,0.641869843006134
1690464122837706248,,439,,1690464122,837636671,"""world""",,,3.393833637237549,12.411717414855957,0.6418724656105042
1690464122847704740,,440,,1690464122,847634351,"""world""",,,3.394038200378418,12.407511711120605,0.6418618559837341
1690464122857692506,,441,,1690464122,857630856,"""world""",,,3.3941922187805176,12.403368949890137,0.6419773101806641
1690464122867701859,,442,,1690464122,867635555,"""world""",,,3.3942737579345703,12.399284362792969,0.6420443058013916
1690464122877670896,,443,,1690464122,877620829,"""world""",,,3.394432306289673,12.39510726928711,0.642116904258728
1690464122887705121,,444,,1690464122,887629338,"""world""",,,3.3946056365966797,12.391010284423828,0.6421241164207458
1690464122897726841,,445,,1690464122,897655466,"""world""",,,3.394735813140869,12.386822700500488,0.6420683264732361
1690464122907721650,,446,,1690464122,907664074,"""world""",,,3.3949100971221924,12.382672309875488,0.6421318650245667
1690464122917732262,,447,,1690464122,917648250,"""world""",,,3.394958972930908,12.378567695617676,0.6421857476234436
1690464122927751985,,448,,1690464122,927647540,"""world""",,,3.3952019214630127,12.37442684173584,0.6421329379081726
1690464122937688375,,449,,1690464122,937631758,"""world""",,,3.3953182697296143,12.370280265808105,0.642153263092041
1690464122947692090,,450,,1690464122,947635312,"""world""",,,3.395461082458496,12.366154670715332,0.6421315670013428
1690464122957689836,,451,,1690464122,957633735,"""world""",,,3.395620822906494,12.362079620361328,0.6420851349830627
1690464122967708724,,452,,1690464122,967634429,"""world""",,,3.3957479000091553,12.357953071594238,0.6421061754226685
1690464122977665457,,453,,1690464122,977620617,"""world""",,,3.3958888053894043,12.353767395019531,0.6419569849967957
1690464122987679368,,454,,1690464122,987629516,"""world""",,,3.3959667682647705,12.3495512008667,0.6419590711593628
1690464122997743337,,455,,1690464122,997659973,"""world""",,,3.3961708545684814,12.345433235168457,0.641883373260498
1690464123007688954,,456,,1690464123,7631247,"""world""",,,3.396256923675537,12.341326713562012,0.6419143080711365
1690464123017668832,,457,,1690464123,17620446,"""world""",,,3.396369218826294,12.337149620056152,0.641833484172821
1690464123027736554,,458,,1690464123,27652486,"""world""",,,3.3964684009552,12.33292293548584,0.6418092846870422
1690464123037694066,,459,,1690464123,37635195,"""world""",,,3.3965513706207275,12.328780174255371,0.6417984366416931
1690464123047727041,,460,,1690464123,47642736,"""world""",,,3.396686315536499,12.32463550567627,0.6418036818504333
1690464123067748102,,461,,1690464123,67634606,"""world""",,,3.396833658218384,12.32048511505127,0.641865074634552
1690464123067751660,,462,,1690464123,67649396,"""world""",,,3.3969950675964355,12.31622314453125,0.6418095827102661
1690464123077715896,,463,,1690464123,77619617,"""world""",,,3.3970754146575928,12.312092781066895,0.6418619155883789
1690464123087732653,,464,,1690464123,87629734,"""world""",,,3.397216558456421,12.307820320129395,0.641952395439148
1690464123097751631,,465,,1690464123,97659900,"""world""",,,3.3972184658050537,12.303553581237793,0.6419436931610107
1690464123107774102,,466,,1690464123,107681798,"""world""",,,3.3973371982574463,12.299210548400879,0.6419481039047241
1690464123117711392,,467,,1690464123,117655858,"""world""",,,3.397491693496704,12.294987678527832,0.6420103311538696
1690464123127705190,,468,,1690464123,127636601,"""world""",,,3.397554636001587,12.290763854980469,0.6421916484832764
1690464123137702156,,469,,1690464123,137634662,"""world""",,,3.3976263999938965,12.286442756652832,0.6422963738441467
1690464123147696873,,470,,1690464123,147633220,"""world""",,,3.397718667984009,12.282071113586426,0.642397403717041
1690464123157697810,,471,,1690464123,157634051,"""world""",,,3.3977274894714355,12.277695655822754,0.6425448060035706
1690464123167718262,,472,,1690464123,167637627,"""world""",,,3.3978309631347656,12.27326488494873,0.642642617225647
1690464123177697723,,473,,1690464123,177618471,"""world""",,,3.397874593734741,12.268898010253906,0.6428546905517578
1690464123187694964,,474,,1690464123,187629776,"""world""",,,3.3979010581970215,12.26446533203125,0.6430665254592896
1690464123197766861,,475,,1690464123,197657061,"""world""",,,3.398019313812256,12.26004409790039,0.643229603767395
1690464123207735789,,476,,1690464123,207639049,"""world""",,,3.3980629444122314,12.255569458007812,0.6433629393577576
1690464123217719483,,477,,1690464123,217624057,"""world""",,,3.3980894088745117,12.251055717468262,0.6435379385948181
1690464123227702265,,478,,1690464123,227640881,"""world""",,,3.3981823921203613,12.24657917022705,0.6437643766403198
1690464123237714354,,479,,1690464123,237651243,"""world""",,,3.3981635570526123,12.242088317871094,0.6440896391868591
1690464123247747335,,480,,1690464123,247644971,"""world""",,,3.3981215953826904,12.2374906539917,0.6442824602127075
1690464123257699860,,481,,1690464123,257636602,"""world""",,,3.3982954025268555,12.232893943786621,0.6444420218467712
1690464123267705508,,482,,1690464123,267637350,"""world""",,,3.398303270339966,12.22819995880127,0.644646942615509
1690464123277718882,,483,,1690464123,277626656,"""world""",,,3.398263454437256,12.22357177734375,0.6449281573295593
1690464123287726291,,484,,1690464123,287637347,"""world""",,,3.398319959640503,12.219063758850098,0.6452659964561462
1690464123297912541,,485,,1690464123,297665980,"""world""",,,3.39821195602417,12.214401245117188,0.6455184817314148
1690464123307752212,,486,,1690464123,307693209,"""world""",,,3.3982534408569336,12.209582328796387,0.6456117630004883
1690464123317668464,,487,,1690464123,317619762,"""world""",,,3.3982737064361572,12.204859733581543,0.6458029747009277
1690464123327705574,,488,,1690464123,327641965,"""world""",,,3.398298740386963,12.200018882751465,0.6460709571838379
1690464123337733739,,489,,1690464123,337633149,"""world""",,,3.3983681201934814,12.1953125,0.6463754177093506
1690464123347709327,,490,,1690464123,347641068,"""world""",,,3.3983194828033447,12.190546989440918,0.6465883851051331
1690464123357690719,,491,,1690464123,357631322,"""world""",,,3.3982977867126465,12.185614585876465,0.6467372179031372
1690464123367698566,,492,,1690464123,367634206,"""world""",,,3.3983213901519775,12.18077564239502,0.6469722390174866
1690464123377706948,,493,,1690464123,377620304,"""world""",,,3.398282289505005,12.176016807556152,0.6473032236099243
1690464123387694405,,494,,1690464123,387625507,"""world""",,,3.3982958793640137,12.171244621276855,0.6475974321365356
1690464123397806616,,495,,1690464123,397688029,"""world""",,,3.398258686065674,12.166404724121094,0.6478638648986816
1690464123407701506,,496,,1690464123,407637537,"""world""",,,3.3982765674591064,12.16163158416748,0.6481423377990723
1690464123417704184,,497,,1690464123,417652336,"""world""",,,3.398282766342163,12.1567964553833,0.6484420299530029
1690464123427696015,,498,,1690464123,427634305,"""world""",,,3.398250102996826,12.151951789855957,0.6487181782722473
1690464123437698133,,499,,1690464123,437632813,"""world""",,,3.3982129096984863,12.147156715393066,0.6489870548248291
1690464123447690046,,500,,1690464123,447630925,"""world""",,,3.3981993198394775,12.142265319824219,0.6492435336112976
1690464123457697666,,501,,1690464123,457636405,"""world""",,,3.3981926441192627,12.137309074401855,0.6494954824447632
1690464123467709201,,502,,1690464123,467636440,"""world""",,,3.398188829421997,12.132492065429688,0.6497072577476501
1690464123477687275,,503,,1690464123,477627664,"""world""",,,3.3982322216033936,12.12755298614502,0.6499101519584656
1690464123487697152,,504,,1690464123,487627879,"""world""",,,3.3981077671051025,12.122607231140137,0.6501573920249939
1690464123497748980,,505,,1690464123,497650890,"""world""",,,3.3980560302734375,12.117714881896973,0.6503493785858154
1690464123507697034,,506,,1690464123,507633223,"""world""",,,3.398210048675537,12.112884521484375,0.6505944132804871
