rosbagTimestamp,header,seq,stamp,secs,nsecs,frame_id,pose,position,x,y,z
1690898359059527196,,220,,1690898359,59477468,"""world""",,,3.5111613273620605,3.7499914169311523,0.287150114774704
1690898359069609222,,221,,1690898359,69507512,"""world""",,,3.511187791824341,3.7499914169311523,0.2871271073818207
1690898359079513520,,222,,1690898359,79461758,"""world""",,,3.5107932090759277,3.750016212463379,0.2873140275478363
1690898359089531281,,223,,1690898359,89479697,"""world""",,,3.511558771133423,3.7498838901519775,0.2870674431324005
1690898359101447507,,224,,1690898359,99598101,"""world""",,,3.511306047439575,3.7499783039093018,0.2871532142162323
1690898359109573966,,225,,1690898359,109500298,"""world""",,,3.511486768722534,3.749940872192383,0.2870873510837555
1690898359119511043,,226,,1690898359,119452677,"""world""",,,3.511121988296509,3.7500500679016113,0.28730112314224243
1690898359129536663,,227,,1690898359,129478849,"""world""",,,3.511634349822998,3.749979019165039,0.28715038299560547
1690898359139566878,,228,,1690898359,139500028,"""world""",,,3.511617660522461,3.7500288486480713,0.2871852517127991
1690898359149567161,,229,,1690898359,149491059,"""world""",,,3.5116443634033203,3.75007963180542,0.28720545768737793
1690898359159538468,,230,,1690898359,159482784,"""world""",,,3.5116994380950928,3.750081777572632,0.2872050702571869
1690898359169507662,,231,,1690898359,169457415,"""world""",,,3.5117392539978027,3.7501461505889893,0.28712624311447144
1690898359179544878,,232,,1690898359,179489305,"""world""",,,3.511721611022949,3.7501144409179688,0.287225604057312
1690898359189525726,,233,,1690898359,189477289,"""world""",,,3.5116991996765137,3.7501347064971924,0.28729963302612305
1690898359199662643,,234,,1690898359,199551784,"""world""",,,3.5117905139923096,3.7502083778381348,0.2873043119907379
1690898359209501952,,235,,1690898359,209436755,"""world""",,,3.5120067596435547,3.7502379417419434,0.28711560368537903
1690898359219547236,,236,,1690898359,219486664,"""world""",,,3.5120601654052734,3.7502660751342773,0.28720739483833313
1690898359229560638,,237,,1690898359,229491560,"""world""",,,3.511939287185669,3.75026535987854,0.287275493144989
1690898359239590411,,238,,1690898359,239504463,"""world""",,,3.5118889808654785,3.7502810955047607,0.28729048371315
1690898359249556553,,239,,1690898359,249495687,"""world""",,,3.512052297592163,3.750262498855591,0.28710731863975525
1690898359259566401,,240,,1690898359,259493267,"""world""",,,3.512040138244629,3.7502951622009277,0.28719472885131836
1690898359279574963,,241,,1690898359,279501240,"""world""",,,3.5120575428009033,3.750220775604248,0.2871673107147217
1690898359279578480,,242,,1690898359,279528037,"""world""",,,3.5121142864227295,3.7501823902130127,0.28704550862312317
1690898359289547456,,243,,1690898359,289484953,"""world""",,,3.5118887424468994,3.7496423721313477,0.2870820462703705
1690898359299681817,,244,,1690898359,299551089,"""world""",,,3.5119268894195557,3.749864339828491,0.28688257932662964
1690898359309541096,,245,,1690898359,309477093,"""world""",,,3.5115904808044434,3.7495229244232178,0.28705909848213196
1690898359319555035,,246,,1690898359,319485610,"""world""",,,3.511779308319092,3.7492752075195312,0.2869086265563965
1690898359329546091,,247,,1690898359,329486602,"""world""",,,3.5121819972991943,3.7488937377929688,0.2868233621120453
1690898359339554217,,248,,1690898359,339490476,"""world""",,,3.512446641921997,3.7484562397003174,0.28688040375709534
1690898359349571288,,249,,1690898359,349501371,"""world""",,,3.512734889984131,3.7482728958129883,0.28672584891319275
1690898359359546950,,250,,1690898359,359490161,"""world""",,,3.5137839317321777,3.7479543685913086,0.28627854585647583
1690898359369544736,,251,,1690898359,369486258,"""world""",,,3.5145263671875,3.747624397277832,0.2859751284122467
1690898359379566249,,252,,1690898359,379496717,"""world""",,,3.5149600505828857,3.7474117279052734,0.28585484623908997
1690898359389541596,,253,,1690898359,389485612,"""world""",,,3.515226364135742,3.7471024990081787,0.2858949899673462
1690898359399654467,,254,,1690898359,399534004,"""world""",,,3.515559673309326,3.747119665145874,0.28577446937561035
1690898359409570117,,255,,1690898359,409491714,"""world""",,,3.515885829925537,3.747041702270508,0.2857360243797302
1690898359419576178,,256,,1690898359,419490368,"""world""",,,3.5164265632629395,3.746744155883789,0.28566813468933105
1690898359429546044,,257,,1690898359,429486294,"""world""",,,3.5160436630249023,3.7466397285461426,0.28574708104133606
1690898359439561577,,258,,1690898359,439491808,"""world""",,,3.516791343688965,3.7468392848968506,0.28563371300697327
1690898359449612747,,259,,1690898359,449512718,"""world""",,,3.517029285430908,3.7464890480041504,0.28582459688186646
1690898359459537857,,260,,1690898359,459482304,"""world""",,,3.517244338989258,3.7466819286346436,0.2857193052768707
1690898359469544374,,261,,1690898359,469481783,"""world""",,,3.5169053077697754,3.746837854385376,0.2858811020851135
1690898359479562102,,262,,1690898359,479492520,"""world""",,,3.5172903537750244,3.7468607425689697,0.28576943278312683
1690898359489546544,,263,,1690898359,489486269,"""world""",,,3.517805814743042,3.7467918395996094,0.28566858172416687
1690898359499621640,,264,,1690898359,499533299,"""world""",,,3.518903970718384,3.7468414306640625,0.2850588858127594
1690898359509555806,,265,,1690898359,509485628,"""world""",,,3.5192511081695557,3.7468786239624023,0.28544631600379944
1690898359519563490,,266,,1690898359,519493913,"""world""",,,3.519348621368408,3.7469093799591064,0.2854887843132019
1690898359529567074,,267,,1690898359,529509556,"""world""",,,3.5198490619659424,3.746936321258545,0.28542405366897583
1690898359539548997,,268,,1690898359,539484985,"""world""",,,3.5202953815460205,3.746924877166748,0.2853529155254364
1690898359549624096,,269,,1690898359,549505583,"""world""",,,3.5205469131469727,3.746924638748169,0.28544795513153076
1690898359559559399,,270,,1690898359,559497273,"""world""",,,3.5208675861358643,3.7470343112945557,0.28538617491722107
1690898359569556028,,271,,1690898359,569487230,"""world""",,,3.520448684692383,3.746975898742676,0.28574180603027344
1690898359579609300,,272,,1690898359,579510978,"""world""",,,3.521152973175049,3.7469825744628906,0.28564518690109253
1690898359589534794,,273,,1690898359,589476556,"""world""",,,3.521632194519043,3.747112989425659,0.28549015522003174
1690898359599614745,,274,,1690898359,599500793,"""world""",,,3.5218327045440674,3.7470531463623047,0.28557270765304565
1690898359609561655,,275,,1690898359,609494754,"""world""",,,3.5218756198883057,3.747163772583008,0.2856147587299347
1690898359619563351,,276,,1690898359,619498098,"""world""",,,3.5219860076904297,3.747194290161133,0.2856683135032654
1690898359629532057,,277,,1690898359,629481264,"""world""",,,3.522176504135132,3.7472496032714844,0.2856937646865845
1690898359649583295,,278,,1690898359,649505598,"""world""",,,3.5224664211273193,3.747300386428833,0.2856521010398865
1690898359649605966,,279,,1690898359,649521033,"""world""",,,3.5229272842407227,3.7473692893981934,0.2855718433856964
1690898359659545874,,280,,1690898359,659484811,"""world""",,,3.5237534046173096,3.7472407817840576,0.2853555679321289
1690898359669539701,,281,,1690898359,669489085,"""world""",,,3.524005174636841,3.7474048137664795,0.2853808104991913
1690898359679544057,,282,,1690898359,679468670,"""world""",,,3.5245449542999268,3.7475059032440186,0.28530073165893555
1690898359689530463,,283,,1690898359,689475391,"""world""",,,3.5244243144989014,3.7471721172332764,0.28538885712623596
1690898359699595056,,284,,1690898359,699498791,"""world""",,,3.525001287460327,3.7474286556243896,0.28533053398132324
1690898359709573792,,285,,1690898359,709501710,"""world""",,,3.5254666805267334,3.747361898422241,0.2852270007133484
1690898359719542736,,286,,1690898359,719490127,"""world""",,,3.524716854095459,3.7472221851348877,0.28588077425956726
1690898359729532552,,287,,1690898359,729482095,"""world""",,,3.5252866744995117,3.7473971843719482,0.2854997515678406
1690898359739573753,,288,,1690898359,739505948,"""world""",,,3.526185989379883,3.7473843097686768,0.28529515862464905
1690898359749632374,,289,,1690898359,749527753,"""world""",,,3.5266404151916504,3.7473647594451904,0.2852334678173065
1690898359759534380,,290,,1690898359,759482264,"""world""",,,3.526139259338379,3.7472574710845947,0.2856626808643341
1690898359769563334,,291,,1690898359,769499230,"""world""",,,3.526909112930298,3.747274875640869,0.28547513484954834
1690898359779552574,,292,,1690898359,779488116,"""world""",,,3.5273401737213135,3.7473273277282715,0.28537657856941223
1690898359789530312,,293,,1690898359,789478573,"""world""",,,3.5277209281921387,3.74733829498291,0.2853098511695862
1690898359799682499,,294,,1690898359,799564273,"""world""",,,3.5281929969787598,3.747282028198242,0.28534242510795593
1690898359809584227,,295,,1690898359,809500254,"""world""",,,3.5283544063568115,3.7473182678222656,0.2854454219341278
1690898359819548738,,296,,1690898359,819488656,"""world""",,,3.5285491943359375,3.7473037242889404,0.2854860723018646
1690898359839570075,,297,,1690898359,839493545,"""world""",,,3.5288398265838623,3.7475411891937256,0.28527402877807617
1690898359839578562,,298,,1690898359,839519435,"""world""",,,3.5290520191192627,3.747554063796997,0.2852553725242615
1690898359849576144,,299,,1690898359,849499739,"""world""",,,3.5292937755584717,3.7475128173828125,0.2852591872215271
1690898359859551466,,300,,1690898359,859482402,"""world""",,,3.5295348167419434,3.7475690841674805,0.2853010892868042
1690898359869609581,,301,,1690898359,869523178,"""world""",,,3.529726505279541,3.7476608753204346,0.2854124903678894
1690898359879553944,,302,,1690898359,879488633,"""world""",,,3.530134439468384,3.7476847171783447,0.285405695438385
1690898359889532045,,303,,1690898359,889476019,"""world""",,,3.530439853668213,3.747769594192505,0.2853412330150604
1690898359899660509,,304,,1690898359,899536881,"""world""",,,3.5308518409729004,3.7478253841400146,0.28534311056137085
1690898359909559326,,305,,1690898359,909491855,"""world""",,,3.531067132949829,3.747922897338867,0.2853009104728699
1690898359919578032,,306,,1690898359,919507350,"""world""",,,3.531275987625122,3.748074531555176,0.28531497716903687
1690898359929543205,,307,,1690898359,929482763,"""world""",,,3.531508684158325,3.7481279373168945,0.28532323241233826
1690898359939543079,,308,,1690898359,939484975,"""world""",,,3.5320465564727783,3.748232364654541,0.2851543128490448
1690898359949566070,,309,,1690898359,949497206,"""world""",,,3.5312085151672363,3.7476727962493896,0.2861897051334381
1690898359959541841,,310,,1690898359,959482153,"""world""",,,3.5316274166107178,3.747708320617676,0.2860897183418274
1690898359969570284,,311,,1690898359,969495240,"""world""",,,3.5317342281341553,3.747786045074463,0.2861475646495819
1690898359979550725,,312,,1690898359,979484653,"""world""",,,3.531986713409424,3.7478232383728027,0.2861308455467224
1690898359989532878,,313,,1690898359,989477533,"""world""",,,3.532250165939331,3.7478883266448975,0.2861260771751404
1690898359999662023,,314,,1690898359,999519782,"""world""",,,3.5325233936309814,3.7479281425476074,0.2860978841781616
1690898360009582448,,315,,1690898360,9498304,"""world""",,,3.5327255725860596,3.7479679584503174,0.28612810373306274
1690898360019541891,,316,,1690898360,19484992,"""world""",,,3.534102201461792,3.748509407043457,0.28533095121383667
1690898360029555386,,317,,1690898360,29491115,"""world""",,,3.5344672203063965,3.748506546020508,0.2852710783481598
1690898360039556231,,318,,1690898360,39492065,"""world""",,,3.5348665714263916,3.7485148906707764,0.28521838784217834
1690898360049610247,,319,,1690898360,49515727,"""world""",,,3.5351579189300537,3.748596429824829,0.285226970911026
1690898360059602004,,320,,1690898360,59494557,"""world""",,,3.5353565216064453,3.748568058013916,0.2852783203125
1690898360069551489,,321,,1690898360,69490282,"""world""",,,3.5356523990631104,3.7485804557800293,0.285342812538147
1690898360079540869,,322,,1690898360,79482873,"""world""",,,3.535766363143921,3.7485883235931396,0.28538474440574646
1690898360089585968,,323,,1690898360,89511247,"""world""",,,3.5360653400421143,3.7486441135406494,0.2853616774082184
1690898360099612877,,324,,1690898360,99522461,"""world""",,,3.5364174842834473,3.74859356880188,0.2853621244430542
1690898360109562399,,325,,1690898360,109493297,"""world""",,,3.536712408065796,3.748669385910034,0.2852756381034851
1690898360119564618,,326,,1690898360,119493926,"""world""",,,3.5370891094207764,3.7486732006073,0.28516680002212524
1690898360129545650,,327,,1690898360,129485250,"""world""",,,3.5373337268829346,3.7486894130706787,0.28522562980651855
1690898360139498237,,328,,1690898360,139441222,"""world""",,,3.5377731323242188,3.7487411499023438,0.28534069657325745
1690898360149576428,,329,,1690898360,149512439,"""world""",,,3.5380218029022217,3.74877667427063,0.2853541374206543
1690898360159550964,,330,,1690898360,159488196,"""world""",,,3.538147211074829,3.74886155128479,0.2855418622493744
1690898360169541998,,331,,1690898360,169483775,"""world""",,,3.5384836196899414,3.748948574066162,0.28555166721343994
1690898360179546213,,332,,1690898360,179486690,"""world""",,,3.53767991065979,3.748870372772217,0.28606632351875305
1690898360189549312,,333,,1690898360,189488508,"""world""",,,3.537992238998413,3.7489068508148193,0.28606581687927246
1690898360199657074,,334,,1690898360,199545507,"""world""",,,3.538182497024536,3.7487857341766357,0.28630349040031433
1690898360209535125,,335,,1690898360,209466613,"""world""",,,3.5384182929992676,3.7488815784454346,0.2862926125526428
1690898360219559997,,336,,1690898360,219489709,"""world""",,,3.5388078689575195,3.74910831451416,0.286119282245636
1690898360229542243,,337,,1690898360,229486755,"""world""",,,3.539841651916504,3.749446153640747,0.2854039669036865
1690898360239536697,,338,,1690898360,239483107,"""world""",,,3.5402143001556396,3.7494781017303467,0.2854045629501343
1690898360249669002,,339,,1690898360,249508037,"""world""",,,3.5404257774353027,3.749530553817749,0.28541144728660583
1690898360259550611,,340,,1690898360,259482346,"""world""",,,3.5399770736694336,3.7494797706604004,0.285733699798584
1690898360269540900,,341,,1690898360,269486446,"""world""",,,3.5403218269348145,3.749436378479004,0.285856693983078
1690898360279546190,,342,,1690898360,279486327,"""world""",,,3.54081130027771,3.7496016025543213,0.28563106060028076
1690898360289548667,,343,,1690898360,289483976,"""world""",,,3.540930986404419,3.749453067779541,0.2858641743659973
1690898360299669903,,344,,1690898360,299556070,"""world""",,,3.5408477783203125,3.7496557235717773,0.2859566807746887
1690898360309560702,,345,,1690898360,309489746,"""world""",,,3.541123390197754,3.7496531009674072,0.2859669029712677
1690898360319550446,,346,,1690898360,319485546,"""world""",,,3.5413765907287598,3.7497379779815674,0.28601399064064026
1690898360329525112,,347,,1690898360,329474968,"""world""",,,3.5415725708007812,3.7497873306274414,0.2861230969429016
1690898360339569601,,348,,1690898360,339501369,"""world""",,,3.541794776916504,3.749859571456909,0.2861694395542145
1690898360349670089,,349,,1690898360,349535807,"""world""",,,3.541987419128418,3.749985694885254,0.2862352728843689
1690898360359552273,,350,,1690898360,359485559,"""world""",,,3.542555809020996,3.749833583831787,0.28634122014045715
1690898360369556331,,351,,1690898360,369492805,"""world""",,,3.5436325073242188,3.7503550052642822,0.28545278310775757
1690898360379558885,,352,,1690898360,379490258,"""world""",,,3.5436856746673584,3.7506139278411865,0.28556013107299805
1690898360389548400,,353,,1690898360,389487724,"""world""",,,3.5440893173217773,3.7506566047668457,0.28564491868019104
1690898360399655726,,354,,1690898360,399547835,"""world""",,,3.5436723232269287,3.7503273487091064,0.2861873507499695
1690898360409580556,,355,,1690898360,409501140,"""world""",,,3.5438413619995117,3.7507920265197754,0.2859058380126953
1690898360419554573,,356,,1690898360,419486876,"""world""",,,3.5441787242889404,3.750837564468384,0.28587988018989563
1690898360429530329,,357,,1690898360,429477355,"""world""",,,3.5444297790527344,3.7509946823120117,0.2858315706253052
1690898360439559733,,358,,1690898360,439488529,"""world""",,,3.544774293899536,3.7510876655578613,0.2858146131038666
1690898360449568425,,359,,1690898360,449497585,"""world""",,,3.5449512004852295,3.750999689102173,0.2859247922897339
1690898360459540445,,360,,1690898360,459480548,"""world""",,,3.545214891433716,3.7510359287261963,0.2860291004180908
1690898360469537807,,361,,1690898360,469484633,"""world""",,,3.5455384254455566,3.7512762546539307,0.2860201597213745
1690898360479553126,,362,,1690898360,479489552,"""world""",,,3.5456466674804688,3.751070022583008,0.28621724247932434
1690898360489531108,,363,,1690898360,489482681,"""world""",,,3.5459213256835938,3.751197099685669,0.28615429997444153
1690898360499680029,,364,,1690898360,499543719,"""world""",,,3.54618239402771,3.751307725906372,0.286228746175766
1690898360509630923,,365,,1690898360,509499226,"""world""",,,3.546475887298584,3.7513773441314697,0.2861858308315277
1690898360519556348,,366,,1690898360,519487719,"""world""",,,3.546738624572754,3.7515616416931152,0.2861817479133606
1690898360529524713,,367,,1690898360,529476261,"""world""",,,3.546967029571533,3.7517268657684326,0.28624284267425537
1690898360539562957,,368,,1690898360,539496858,"""world""",,,3.5480690002441406,3.751979112625122,0.2857705354690552
1690898360549579632,,369,,1690898360,549504415,"""world""",,,3.5482287406921387,3.752011775970459,0.2857723832130432
1690898360559549951,,370,,1690898360,559489804,"""world""",,,3.5483579635620117,3.752113103866577,0.28584837913513184
1690898360569599189,,371,,1690898360,569511454,"""world""",,,3.547943353652954,3.752084255218506,0.28608888387680054
1690898360579555508,,372,,1690898360,579486592,"""world""",,,3.5482568740844727,3.7520503997802734,0.28598862886428833
1690898360589533837,,373,,1690898360,589478586,"""world""",,,3.5482780933380127,3.7522549629211426,0.28612610697746277
1690898360599611948,,374,,1690898360,599503417,"""world""",,,3.548701524734497,3.752382516860962,0.2859712541103363
1690898360609641465,,375,,1690898360,609491798,"""world""",,,3.5495657920837402,3.7525248527526855,0.28564512729644775
1690898360619550213,,376,,1690898360,619488379,"""world""",,,3.5499439239501953,3.752610683441162,0.2856442630290985
1690898360629532411,,377,,1690898360,629477146,"""world""",,,3.5498595237731934,3.7527854442596436,0.2859119176864624
1690898360639555455,,378,,1690898360,639484725,"""world""",,,3.5493712425231934,3.7528862953186035,0.2861555516719818
1690898360649607957,,379,,1690898360,649500555,"""world""",,,3.5497944355010986,3.752729892730713,0.28641295433044434
1690898360659526312,,380,,1690898360,659466882,"""world""",,,3.549957036972046,3.752833127975464,0.2865743935108185
1690898360669603099,,381,,1690898360,669496384,"""world""",,,3.550173759460449,3.7529423236846924,0.28659164905548096
1690898360679542906,,382,,1690898360,679485196,"""world""",,,3.550340175628662,3.7530357837677,0.28661367297172546
1690898360689477279,,383,,1690898360,689434491,"""world""",,,3.5505058765411377,3.7533650398254395,0.2865948975086212
1690898360699974157,,384,,1690898360,699611177,"""world""",,,3.550696611404419,3.753638505935669,0.28659120202064514
1690898360709532220,,385,,1690898360,709457333,"""world""",,,3.5508885383605957,3.753603219985962,0.28666427731513977
1690898360719556590,,386,,1690898360,719485430,"""world""",,,3.5511062145233154,3.7537381649017334,0.2867775857448578
1690898360729537000,,387,,1690898360,729476161,"""world""",,,3.5513672828674316,3.7539238929748535,0.28683722019195557
1690898360739562594,,388,,1690898360,739488950,"""world""",,,3.5515096187591553,3.7541916370391846,0.2868344187736511
1690898360749564147,,389,,1690898360,749495421,"""world""",,,3.5516114234924316,3.754399061203003,0.2867673337459564
1690898360759551938,,390,,1690898360,759489381,"""world""",,,3.551841974258423,3.7543039321899414,0.2871263921260834
1690898360769554176,,391,,1690898360,769487877,"""world""",,,3.552042245864868,3.7545084953308105,0.2871706187725067
1690898360779541641,,392,,1690898360,779484695,"""world""",,,3.552192449569702,3.754582405090332,0.2871813476085663
1690898360789530398,,393,,1690898360,789475357,"""world""",,,3.5523934364318848,3.7546443939208984,0.2872028946876526
1690898360799554598,,394,,1690898360,799484844,"""world""",,,3.5525128841400146,3.754878282546997,0.2872317135334015
1690898360809570942,,395,,1690898360,809499504,"""world""",,,3.5528364181518555,3.755067825317383,0.2871862053871155
1690898360819575262,,396,,1690898360,819516049,"""world""",,,3.5528006553649902,3.7551827430725098,0.28729939460754395
1690898360829573402,,397,,1690898360,829493977,"""world""",,,3.5533480644226074,3.7552123069763184,0.28736063838005066
1690898360839546535,,398,,1690898360,839485357,"""world""",,,3.553154230117798,3.755581855773926,0.28734922409057617
1690898360849599823,,399,,1690898360,849491988,"""world""",,,3.5533344745635986,3.755735158920288,0.28743869066238403
1690898360859575465,,400,,1690898360,859493474,"""world""",,,3.553997755050659,3.7561657428741455,0.28703150153160095
1690898360869569109,,401,,1690898360,869474580,"""world""",,,3.55435848236084,3.756176233291626,0.2869330942630768
1690898360879547152,,402,,1690898360,879487473,"""world""",,,3.553805351257324,3.756352186203003,0.28724658489227295
1690898360889582110,,403,,1690898360,889490109,"""world""",,,3.553898572921753,3.7563674449920654,0.2873486280441284
1690898360899553951,,404,,1690898360,899493862,"""world""",,,3.5540144443511963,3.7564616203308105,0.28733211755752563
1690898360909578570,,405,,1690898360,909489947,"""world""",,,3.5541203022003174,3.756554365158081,0.2873793840408325
1690898360929553158,,406,,1690898360,929486807,"""world""",,,3.55427622795105,3.7566516399383545,0.2874827980995178
1690898360929561325,,407,,1690898360,929512019,"""world""",,,3.5543787479400635,3.7567543983459473,0.2874860167503357
1690898360939525099,,408,,1690898360,939457814,"""world""",,,3.5544214248657227,3.756892204284668,0.2874850630760193
1690898360949578158,,409,,1690898360,949504349,"""world""",,,3.554461717605591,3.7568576335906982,0.2875344157218933
1690898360959546177,,410,,1690898360,959486386,"""world""",,,3.554614782333374,3.756992816925049,0.28758150339126587
1690898360969562766,,411,,1690898360,969493513,"""world""",,,3.554715633392334,3.7571520805358887,0.287645548582077
1690898360979543648,,412,,1690898360,979486663,"""world""",,,3.554908037185669,3.7571139335632324,0.2875308692455292
1690898360989547239,,413,,1690898360,989488839,"""world""",,,3.5547702312469482,3.7571983337402344,0.287685751914978
1690898360999583182,,414,,1690898360,999509561,"""world""",,,3.5550692081451416,3.75732684135437,0.2875842750072479
1690898361009555631,,415,,1690898361,9486811,"""world""",,,3.5551693439483643,3.7573189735412598,0.2876180112361908
1690898361019547003,,416,,1690898361,19456914,"""world""",,,3.555232524871826,3.7574496269226074,0.2876172661781311
1690898361029545736,,417,,1690898361,29484498,"""world""",,,3.5552384853363037,3.7574822902679443,0.28761813044548035
1690898361039540869,,418,,1690898361,39485058,"""world""",,,3.555325984954834,3.757681131362915,0.2876434922218323
1690898361049689463,,419,,1690898361,49517664,"""world""",,,3.5553998947143555,3.7577567100524902,0.2876549959182739
1690898361059541232,,420,,1690898361,59485390,"""world""",,,3.5555174350738525,3.7578670978546143,0.28766512870788574
1690898361069558526,,421,,1690898361,69484424,"""world""",,,3.555555820465088,3.7578680515289307,0.2876962721347809
1690898361079555800,,422,,1690898361,79489110,"""world""",,,3.5556766986846924,3.757883071899414,0.2877372205257416
1690898361089542019,,423,,1690898361,89483162,"""world""",,,3.5556836128234863,3.758064031600952,0.2877730429172516
1690898361099632336,,424,,1690898361,99532442,"""world""",,,3.5556211471557617,3.7580666542053223,0.2878881096839905
1690898361109515013,,425,,1690898361,109441417,"""world""",,,3.5556976795196533,3.7579052448272705,0.2881259322166443
1690898361119581953,,426,,1690898361,119505065,"""world""",,,3.5555715560913086,3.758089780807495,0.28789588809013367
1690898361129528206,,427,,1690898361,129474710,"""world""",,,3.555711507797241,3.758284568786621,0.2877693176269531
1690898361139543942,,428,,1690898361,139484458,"""world""",,,3.5557401180267334,3.7582955360412598,0.2878737449645996
1690898361149563679,,429,,1690898361,149466386,"""world""",,,3.5558252334594727,3.7583701610565186,0.28774380683898926
1690898361159499177,,430,,1690898361,159439733,"""world""",,,3.5557446479797363,3.75846529006958,0.28776681423187256
1690898361169559650,,431,,1690898361,169488232,"""world""",,,3.555779457092285,3.758533000946045,0.2877987325191498
1690898361179563570,,432,,1690898361,179494820,"""world""",,,3.5558831691741943,3.758727788925171,0.28800347447395325
1690898361189543380,,433,,1690898361,189484478,"""world""",,,3.556436777114868,3.7588307857513428,0.287879079580307
1690898361199606076,,434,,1690898361,199504651,"""world""",,,3.5559794902801514,3.758904218673706,0.288054883480072
1690898361209567300,,435,,1690898361,209495185,"""world""",,,3.555971622467041,3.7588961124420166,0.2881169617176056
1690898361219569144,,436,,1690898361,219504852,"""world""",,,3.5559558868408203,3.7589924335479736,0.2880846858024597
1690898361229524391,,437,,1690898361,229475628,"""world""",,,3.5560455322265625,3.7591075897216797,0.2881529927253723
1690898361239546485,,438,,1690898361,239489485,"""world""",,,3.5560576915740967,3.759165048599243,0.28821828961372375
1690898361249635954,,439,,1690898361,249523262,"""world""",,,3.5560529232025146,3.7592194080352783,0.28824564814567566
1690898361259547337,,440,,1690898361,259487688,"""world""",,,3.556036949157715,3.759258508682251,0.28827768564224243
1690898361269553610,,441,,1690898361,269486589,"""world""",,,3.5560519695281982,3.7592766284942627,0.28832700848579407
1690898361279559636,,442,,1690898361,279492793,"""world""",,,3.556211233139038,3.7592906951904297,0.28833019733428955
1690898361289539703,,443,,1690898361,289487783,"""world""",,,3.5560879707336426,3.7594475746154785,0.2883225083351135
1690898361299596758,,444,,1690898361,299515138,"""world""",,,3.5560739040374756,3.7594637870788574,0.28831520676612854
1690898361309611285,,445,,1690898361,309499694,"""world""",,,3.5560050010681152,3.759392261505127,0.28838276863098145
1690898361319554577,,446,,1690898361,319489468,"""world""",,,3.5559213161468506,3.759650945663452,0.28845658898353577
1690898361329520921,,447,,1690898361,329471645,"""world""",,,3.5559334754943848,3.759657382965088,0.2884737253189087
1690898361339599377,,448,,1690898361,339510378,"""world""",,,3.556039810180664,3.759575843811035,0.28854644298553467
1690898361349557262,,449,,1690898361,349495167,"""world""",,,3.555920362472534,3.7597522735595703,0.2885097861289978
1690898361359544407,,450,,1690898361,359487535,"""world""",,,3.555863380432129,3.7597603797912598,0.2885429859161377
1690898361369600613,,451,,1690898361,369497264,"""world""",,,3.5564706325531006,3.7599716186523438,0.2884042263031006
1690898361379550343,,452,,1690898361,379486989,"""world""",,,3.555903673171997,3.759891986846924,0.2886238396167755
1690898361389507879,,453,,1690898361,389448302,"""world""",,,3.5559616088867188,3.7599892616271973,0.28866609930992126
1690898361399599869,,454,,1690898361,399514374,"""world""",,,3.556004047393799,3.7600905895233154,0.28867578506469727
1690898361409557342,,455,,1690898361,409489955,"""world""",,,3.5558276176452637,3.7601053714752197,0.2887320816516876
1690898361419557584,,456,,1690898361,419488780,"""world""",,,3.5557661056518555,3.7601630687713623,0.288796991109848
1690898361429517170,,457,,1690898361,429467883,"""world""",,,3.5556814670562744,3.7603111267089844,0.28888845443725586
1690898361439550870,,458,,1690898361,439488522,"""world""",,,3.555682420730591,3.7602617740631104,0.28894588351249695
1690898361449536935,,459,,1690898361,449460434,"""world""",,,3.5556447505950928,3.7603816986083984,0.28893306851387024
1690898361459545292,,460,,1690898361,459484077,"""world""",,,3.5555922985076904,3.760371685028076,0.28899237513542175
1690898361469648011,,461,,1690898361,469521284,"""world""",,,3.5554847717285156,3.7605433464050293,0.2890448570251465
1690898361479546336,,462,,1690898361,479485707,"""world""",,,3.5554697513580322,3.76064133644104,0.28912851214408875
1690898361489536360,,463,,1690898361,489479991,"""world""",,,3.555584669113159,3.7606844902038574,0.2891577482223511
1690898361499672498,,464,,1690898361,499524200,"""world""",,,3.5555074214935303,3.7609260082244873,0.28929436206817627
1690898361509585983,,465,,1690898361,509498598,"""world""",,,3.5554914474487305,3.7610785961151123,0.2892627716064453
1690898361519567487,,466,,1690898361,519493930,"""world""",,,3.555532455444336,3.761152505874634,0.28935810923576355
1690898361529547782,,467,,1690898361,529484807,"""world""",,,3.5555784702301025,3.7612216472625732,0.28935062885284424
1690898361539555966,,468,,1690898361,539490452,"""world""",,,3.5555965900421143,3.7614803314208984,0.28952935338020325
1690898361549609203,,469,,1690898361,549513537,"""world""",,,3.555570125579834,3.7615723609924316,0.2896054983139038
1690898361559561522,,470,,1690898361,559490003,"""world""",,,3.555579423904419,3.7617101669311523,0.28970474004745483
1690898361569569964,,471,,1690898361,569492326,"""world""",,,3.555605411529541,3.761845827102661,0.28977781534194946
1690898361579549131,,472,,1690898361,579488167,"""world""",,,3.555459976196289,3.7619941234588623,0.28982123732566833
1690898361589538336,,473,,1690898361,589480856,"""world""",,,3.5554206371307373,3.7624011039733887,0.28971049189567566
1690898361599579455,,474,,1690898361,599501823,"""world""",,,3.5552258491516113,3.7626123428344727,0.2899149954319
1690898361609563069,,475,,1690898361,609486265,"""world""",,,3.555220127105713,3.762558698654175,0.29037734866142273
1690898361619543234,,476,,1690898361,619485064,"""world""",,,3.555177927017212,3.7627549171447754,0.2904413044452667
1690898361629557141,,477,,1690898361,629490929,"""world""",,,3.555083751678467,3.762935161590576,0.29055559635162354
1690898361639521858,,478,,1690898361,639454552,"""world""",,,3.5550873279571533,3.763087511062622,0.29060792922973633
1690898361649628821,,479,,1690898361,649489633,"""world""",,,3.5549919605255127,3.7633185386657715,0.29070883989334106
1690898361659590677,,480,,1690898361,659493081,"""world""",,,3.554908275604248,3.7636587619781494,0.29071658849716187
1690898361669585549,,481,,1690898361,669494853,"""world""",,,3.55487322807312,3.763646125793457,0.29087668657302856
1690898361679563227,,482,,1690898361,679493382,"""world""",,,3.5548923015594482,3.7637083530426025,0.2909928560256958
1690898361689581596,,483,,1690898361,689488989,"""world""",,,3.5550146102905273,3.763833522796631,0.2910079061985016
1690898361699578953,,484,,1690898361,699501018,"""world""",,,3.5548653602600098,3.7640645503997803,0.2910669445991516
1690898361709550153,,485,,1690898361,709488835,"""world""",,,3.554795980453491,3.764519691467285,0.2909541726112366
1690898361719552890,,486,,1690898361,719491841,"""world""",,,3.554779291152954,3.7645626068115234,0.29099389910697937
1690898361729542404,,487,,1690898361,729483539,"""world""",,,3.5547935962677,3.764413833618164,0.2912488579750061
1690898361739550368,,488,,1690898361,739483124,"""world""",,,3.55477237701416,3.7646732330322266,0.29107367992401123
1690898361749604285,,489,,1690898361,749511002,"""world""",,,3.5548319816589355,3.7648074626922607,0.2911083996295929
1690898361759544385,,490,,1690898361,759475747,"""world""",,,3.5548272132873535,3.7648696899414062,0.2911394238471985
1690898361769556819,,491,,1690898361,769488204,"""world""",,,3.5550343990325928,3.764979600906372,0.2911064326763153
1690898361779549249,,492,,1690898361,779488672,"""world""",,,3.554919481277466,3.765058755874634,0.29118844866752625
1690898361789543314,,493,,1690898361,789484962,"""world""",,,3.555058479309082,3.765172243118286,0.29120728373527527
1690898361799574003,,494,,1690898361,799491208,"""world""",,,3.555393934249878,3.765418291091919,0.2910568118095398
1690898361809570322,,495,,1690898361,809494087,"""world""",,,3.555304527282715,3.765587091445923,0.2911235988140106
1690898361819566382,,496,,1690898361,819486666,"""world""",,,3.5553107261657715,3.765742301940918,0.29116785526275635
1690898361829538918,,497,,1690898361,829480679,"""world""",,,3.5552783012390137,3.7658681869506836,0.2911636531352997
1690898361839530623,,498,,1690898361,839460971,"""world""",,,3.555529832839966,3.7659640312194824,0.29118597507476807
1690898361850064129,,499,,1690898361,849621434,"""world""",,,3.555480480194092,3.765988826751709,0.2913130819797516
1690898361859550065,,500,,1690898361,859487454,"""world""",,,3.5557820796966553,3.766052007675171,0.2912784516811371
1690898361869517453,,501,,1690898361,869453274,"""world""",,,3.5556139945983887,3.7661449909210205,0.29134857654571533
1690898361879541574,,502,,1690898361,879474296,"""world""",,,3.5559494495391846,3.7662558555603027,0.29130661487579346
1690898361889544062,,503,,1690898361,889481250,"""world""",,,3.5557875633239746,3.7663815021514893,0.29135745763778687
1690898361899603922,,504,,1690898361,899514599,"""world""",,,3.5560038089752197,3.766505479812622,0.2913004457950592
1690898361909560721,,505,,1690898361,909486586,"""world""",,,3.5559141635894775,3.7665698528289795,0.2913551926612854
1690898361919556365,,506,,1690898361,919487576,"""world""",,,3.5561769008636475,3.7666590213775635,0.2912518084049225
1690898361929524201,,507,,1690898361,929472083,"""world""",,,3.5562684535980225,3.7667665481567383,0.2912241518497467
1690898361939566436,,508,,1690898361,939487412,"""world""",,,3.5563347339630127,3.766883373260498,0.2911905348300934
1690898361949670818,,509,,1690898361,949522957,"""world""",,,3.5564160346984863,3.766814708709717,0.2913534641265869
1690898361959564778,,510,,1690898361,959492924,"""world""",,,3.556544303894043,3.766887903213501,0.2913246750831604
1690898361969551598,,511,,1690898361,969489842,"""world""",,,3.5566611289978027,3.766953229904175,0.29133620858192444
1690898361979641220,,512,,1690898361,979510411,"""world""",,,3.556783437728882,3.767038583755493,0.29131293296813965
1690898361989547683,,513,,1690898361,989486752,"""world""",,,3.5568549633026123,3.767092227935791,0.2912827432155609
1690898362000104250,,514,,1690898362,19117,"""world""",,,3.55696964263916,3.7670302391052246,0.2912615239620209
1690898362009574847,,515,,1690898362,9498356,"""world""",,,3.5570356845855713,3.7671759128570557,0.2912329435348511
1690898362019572353,,516,,1690898362,19490178,"""world""",,,3.5571203231811523,3.7670950889587402,0.2912306487560272
1690898362029503347,,517,,1690898362,29443265,"""world""",,,3.5572500228881836,3.7671027183532715,0.2911882996559143
1690898362039595567,,518,,1690898362,39514421,"""world""",,,3.557232618331909,3.767364501953125,0.2908788323402405
1690898362049583262,,519,,1690898362,49501322,"""world""",,,3.5572903156280518,3.7674436569213867,0.29086318612098694
1690898362059547706,,520,,1690898362,59483866,"""world""",,,3.5573372840881348,3.767528772354126,0.2908848524093628
1690898362069566597,,521,,1690898362,69493072,"""world""",,,3.557356595993042,3.767540454864502,0.2908684015274048
1690898362079567525,,522,,1690898362,79493525,"""world""",,,3.5574257373809814,3.767474412918091,0.2911669909954071
1690898362089541633,,523,,1690898362,89480430,"""world""",,,3.5574607849121094,3.767754077911377,0.29087942838668823
1690898362099589337,,524,,1690898362,99499979,"""world""",,,3.557546615600586,3.7678110599517822,0.290892094373703
1690898362109631802,,525,,1690898362,109512972,"""world""",,,3.5575759410858154,3.767923593521118,0.2909073233604431
1690898362119543663,,526,,1690898362,119474368,"""world""",,,3.5575854778289795,3.768014430999756,0.2909475862979889
1690898362129535608,,527,,1690898362,129471251,"""world""",,,3.557720184326172,3.7683305740356445,0.2908741533756256
1690898362139592095,,528,,1690898362,139509439,"""world""",,,3.5577518939971924,3.768406629562378,0.29085007309913635
1690898362149570213,,529,,1690898362,149496297,"""world""",,,3.5578479766845703,3.7684319019317627,0.2908862829208374
1690898362159539163,,530,,1690898362,159486506,"""world""",,,3.557832717895508,3.7685492038726807,0.29090866446495056
1690898362169575318,,531,,1690898362,169500700,"""world""",,,3.557971715927124,3.7686965465545654,0.29095467925071716
1690898362179544231,,532,,1690898362,179488178,"""world""",,,3.557922840118408,3.7687840461730957,0.2909407615661621
1690898362189532800,,533,,1690898362,189480188,"""world""",,,3.557835102081299,3.7687506675720215,0.2913130521774292
1690898362199601617,,534,,1690898362,199508971,"""world""",,,3.5579607486724854,3.769101619720459,0.2911036014556885
1690898362209556902,,535,,1690898362,209489445,"""world""",,,3.557907819747925,3.7693724632263184,0.2910747528076172
1690898362219557940,,536,,1690898362,219496392,"""world""",,,3.5579590797424316,3.7691287994384766,0.2915278673171997
1690898362229522507,,537,,1690898362,229472269,"""world""",,,3.5579261779785156,3.7692761421203613,0.29158449172973633
1690898362239546245,,538,,1690898362,239485465,"""world""",,,3.557936668395996,3.7694530487060547,0.29162049293518066
1690898362249579085,,539,,1690898362,249508196,"""world""",,,3.5579214096069336,3.769681215286255,0.29165416955947876
1690898362259538276,,540,,1690898362,259484001,"""world""",,,3.557888984680176,3.7696914672851562,0.29166075587272644
1690898362269655197,,541,,1690898362,269525340,"""world""",,,3.55784273147583,3.7697927951812744,0.2917137145996094
1690898362279571296,,542,,1690898362,279490951,"""world""",,,3.557788133621216,3.77004075050354,0.2918029725551605
1690898362289491027,,543,,1690898362,289436208,"""world""",,,3.5577914714813232,3.770094633102417,0.2918338179588318
1690898362299796009,,544,,1690898362,299616070,"""world""",,,3.557828426361084,3.7699949741363525,0.2919503152370453
1690898362309584678,,545,,1690898362,309499361,"""world""",,,3.5577852725982666,3.7702245712280273,0.2919991910457611
1690898362319556492,,546,,1690898362,319488017,"""world""",,,3.557743787765503,3.7703325748443604,0.29208359122276306
1690898362329533538,,547,,1690898362,329478705,"""world""",,,3.557652711868286,3.7706849575042725,0.292060911655426
1690898362339556940,,548,,1690898362,339486462,"""world""",,,3.5576698780059814,3.7703797817230225,0.2922153174877167
1690898362349576452,,549,,1690898362,349499276,"""world""",,,3.5574865341186523,3.7708239555358887,0.292062371969223
1690898362359543413,,550,,1690898362,359487408,"""world""",,,3.5574493408203125,3.770922899246216,0.29212507605552673
1690898362369563370,,551,,1690898362,369491573,"""world""",,,3.557429552078247,3.7709097862243652,0.29211753606796265
1690898362379545035,,552,,1690898362,379488545,"""world""",,,3.557570695877075,3.77079701423645,0.2921862304210663
1690898362389525013,,553,,1690898362,389477731,"""world""",,,3.5574986934661865,3.7709527015686035,0.2922125458717346
1690898362399582837,,554,,1690898362,399500500,"""world""",,,3.5574769973754883,3.771007776260376,0.29225072264671326
1690898362409546000,,555,,1690898362,409486088,"""world""",,,3.557448625564575,3.7710764408111572,0.29231491684913635
1690898362419568471,,556,,1690898362,419508159,"""world""",,,3.5574212074279785,3.771122694015503,0.29235848784446716
1690898362429568987,,557,,1690898362,429491348,"""world""",,,3.557415723800659,3.771252393722534,0.2923818826675415
1690898362439502404,,558,,1690898362,439439439,"""world""",,,3.557407855987549,3.7714102268218994,0.2924077808856964
1690898362449638028,,559,,1690898362,449522191,"""world""",,,3.5574026107788086,3.771358013153076,0.29245683550834656
1690898362459591029,,560,,1690898362,459493524,"""world""",,,3.55739164352417,3.771559238433838,0.29234451055526733
1690898362469580928,,561,,1690898362,469509909,"""world""",,,3.5574023723602295,3.771622896194458,0.29254958033561707
1690898362479532782,,562,,1690898362,479475656,"""world""",,,3.557380437850952,3.7715601921081543,0.29258525371551514
1690898362489616209,,563,,1690898362,489505030,"""world""",,,3.5572140216827393,3.7717673778533936,0.2925022542476654
1690898362499595326,,564,,1690898362,499502629,"""world""",,,3.5573551654815674,3.7718241214752197,0.292580783367157
1690898362509558958,,565,,1690898362,509487917,"""world""",,,3.557173252105713,3.7719690799713135,0.29257112741470337
1690898362519571475,,566,,1690898362,519502856,"""world""",,,3.557128667831421,3.7720437049865723,0.2926391661167145
1690898362529545787,,567,,1690898362,529484756,"""world""",,,3.557097911834717,3.772282361984253,0.29272928833961487
1690898362539500186,,568,,1690898362,539442853,"""world""",,,3.557074546813965,3.7722907066345215,0.2927975356578827
1690898362549629234,,569,,1690898362,549518722,"""world""",,,3.5570836067199707,3.772374153137207,0.2928842306137085
1690898362559568659,,570,,1690898362,559492582,"""world""",,,3.5570595264434814,3.7725744247436523,0.29288583993911743
1690898362569572994,,571,,1690898362,569491385,"""world""",,,3.5569663047790527,3.772722005844116,0.292941689491272
1690898362579512217,,572,,1690898362,579443349,"""world""",,,3.556934356689453,3.772806167602539,0.2929959297180176
1690898362589533656,,573,,1690898362,589464621,"""world""",,,3.5568864345550537,3.772935390472412,0.29307326674461365
1690898362599582062,,574,,1690898362,599498343,"""world""",,,3.5568087100982666,3.7731292247772217,0.2932145595550537
1690898362609556770,,575,,1690898362,609490318,"""world""",,,3.55682373046875,3.7731361389160156,0.2932157814502716
1690898362619564733,,576,,1690898362,619495441,"""world""",,,3.5567626953125,3.773289442062378,0.2932767868041992
1690898362629504730,,577,,1690898362,629441986,"""world""",,,3.556786298751831,3.773371934890747,0.29336634278297424
1690898362639560047,,578,,1690898362,639494823,"""world""",,,3.556697368621826,3.7735512256622314,0.29345279932022095
1690898362649638769,,579,,1690898362,649524387,"""world""",,,3.556650400161743,3.773611068725586,0.29361212253570557
1690898362659571885,,580,,1690898362,659483712,"""world""",,,3.556586742401123,3.7737321853637695,0.29371076822280884
1690898362669578119,,581,,1690898362,669508145,"""world""",,,3.556586980819702,3.7736928462982178,0.2940111756324768
1690898362679566497,,582,,1690898362,679488086,"""world""",,,3.556501865386963,3.773923873901367,0.2938414514064789
1690898362689544237,,583,,1690898362,689483964,"""world""",,,3.5564258098602295,3.774048089981079,0.29388242959976196
1690898362699574139,,584,,1690898362,699491786,"""world""",,,3.556405544281006,3.7741005420684814,0.2939209043979645
1690898362709550573,,585,,1690898362,709487713,"""world""",,,3.556326150894165,3.774233341217041,0.29400306940078735
1690898362719568364,,586,,1690898362,719503076,"""world""",,,3.556354522705078,3.7742886543273926,0.29398342967033386
1690898362729527402,,587,,1690898362,729473634,"""world""",,,3.556306838989258,3.774385690689087,0.2940441071987152
1690898362739571904,,588,,1690898362,739503252,"""world""",,,3.5563106536865234,3.774369239807129,0.2941111922264099
1690898362749617911,,589,,1690898362,749483396,"""world""",,,3.5562336444854736,3.774538516998291,0.29419082403182983
1690898362759548612,,590,,1690898362,759486660,"""world""",,,3.556303024291992,3.7746376991271973,0.29423022270202637
1690898362769549591,,591,,1690898362,769484801,"""world""",,,3.5562679767608643,3.7746670246124268,0.29430297017097473
1690898362779587684,,592,,1690898362,779509250,"""world""",,,3.5562782287597656,3.7746589183807373,0.2943803369998932
1690898362789543675,,593,,1690898362,789483939,"""world""",,,3.5561795234680176,3.7748420238494873,0.2943834364414215
1690898362799559637,,594,,1690898362,799488289,"""world""",,,3.5561270713806152,3.7748677730560303,0.29446184635162354
1690898362809565452,,595,,1690898362,809491862,"""world""",,,3.5560669898986816,3.774930477142334,0.2944812476634979
1690898362819544337,,596,,1690898362,819486232,"""world""",,,3.556109666824341,3.774998188018799,0.2945423126220703
1690898362829490772,,597,,1690898362,829431093,"""world""",,,3.555889368057251,3.775063991546631,0.29480117559432983
1690898362839557971,,598,,1690898362,839490019,"""world""",,,3.5558972358703613,3.7750892639160156,0.29460904002189636
1690898362849564292,,599,,1690898362,849494209,"""world""",,,3.5558197498321533,3.7751500606536865,0.2946542501449585
1690898362859546531,,600,,1690898362,859485586,"""world""",,,3.5557658672332764,3.7751824855804443,0.29468515515327454
1690898362869550753,,601,,1690898362,869493066,"""world""",,,3.555776834487915,3.775059461593628,0.29488903284072876
1690898362879562812,,602,,1690898362,879492960,"""world""",,,3.555711507797241,3.7752957344055176,0.29476213455200195
1690898362889539404,,603,,1690898362,889479875,"""world""",,,3.5556833744049072,3.775371551513672,0.29480263590812683
1690898362899575873,,604,,1690898362,899498665,"""world""",,,3.5556252002716064,3.775322437286377,0.29483941197395325
1690898362909673050,,605,,1690898362,909524292,"""world""",,,3.5563371181488037,3.775329351425171,0.29490670561790466
1690898362919560213,,606,,1690898362,919488711,"""world""",,,3.5554862022399902,3.775341510772705,0.294891893863678
1690898362929523291,,607,,1690898362,929471703,"""world""",,,3.5554301738739014,3.7752785682678223,0.2948783040046692
1690898362939554026,,608,,1690898362,939492416,"""world""",,,3.5553534030914307,3.7752206325531006,0.29490676522254944
1690898362949573004,,609,,1690898362,949497121,"""world""",,,3.5552053451538086,3.775090217590332,0.2949844002723694
1690898362959554321,,610,,1690898362,959493947,"""world""",,,3.5552027225494385,3.77494215965271,0.2949286997318268
1690898362969552713,,611,,1690898362,969483869,"""world""",,,3.5550265312194824,3.7749290466308594,0.29501375555992126
1690898362979554173,,612,,1690898362,979486110,"""world""",,,3.554929733276367,3.774766206741333,0.29506248235702515
1690898362989559602,,613,,1690898362,989496158,"""world""",,,3.5548746585845947,3.7746992111206055,0.29507794976234436
1690898362999561866,,614,,1690898362,999486948,"""world""",,,3.554865837097168,3.7745094299316406,0.29513388872146606
1690898363009576631,,615,,1690898363,9504066,"""world""",,,3.5547542572021484,3.774280071258545,0.29534807801246643
1690898363019567488,,616,,1690898363,19489322,"""world""",,,3.554680585861206,3.7742807865142822,0.295107364654541
1690898363029528486,,617,,1690898363,29475580,"""world""",,,3.554581880569458,3.774134397506714,0.2950851619243622
1690898363039549427,,618,,1690898363,39484865,"""world""",,,3.5544750690460205,3.7740097045898438,0.29501575231552124
1690898363049577312,,619,,1690898363,49492244,"""world""",,,3.554389715194702,3.773815155029297,0.2950074076652527
1690898363059539546,,620,,1690898363,59463193,"""world""",,,3.5542221069335938,3.773735761642456,0.29497116804122925
1690898363069608196,,621,,1690898363,69498325,"""world""",,,3.5541651248931885,3.773613214492798,0.29494917392730713
1690898363079573359,,622,,1690898363,79510013,"""world""",,,3.5540547370910645,3.773442506790161,0.2949841320514679
1690898363089534166,,623,,1690898363,89477922,"""world""",,,3.5540289878845215,3.773216485977173,0.29497864842414856
1690898363099739654,,624,,1690898363,99531276,"""world""",,,3.5538768768310547,3.773120880126953,0.29501745104789734
1690898363109620879,,625,,1690898363,109519676,"""world""",,,3.5538012981414795,3.772879123687744,0.294999361038208
1690898363119541805,,626,,1690898363,119485294,"""world""",,,3.553697347640991,3.772693634033203,0.2949711084365845
1690898363129528440,,627,,1690898363,129476195,"""world""",,,3.5536177158355713,3.7724835872650146,0.2949748635292053
1690898363139557404,,628,,1690898363,139494209,"""world""",,,3.553476333618164,3.7723653316497803,0.2949693202972412
1690898363149615076,,629,,1690898363,149516788,"""world""",,,3.553311824798584,3.7720742225646973,0.2948448956012726
1690898363159564773,,630,,1690898363,159482951,"""world""",,,3.5531654357910156,3.771789789199829,0.29485076665878296
1690898363169576954,,631,,1690898363,169490515,"""world""",,,3.5530025959014893,3.7714855670928955,0.2948167324066162
1690898363179555150,,632,,1690898363,179486023,"""world""",,,3.5527076721191406,3.7713937759399414,0.2946818172931671
1690898363189530323,,633,,1690898363,189475118,"""world""",,,3.552626609802246,3.771043062210083,0.2947075366973877
1690898363199593282,,634,,1690898363,199516717,"""world""",,,3.552452564239502,3.770718574523926,0.29470381140708923
1690898363209552460,,635,,1690898363,209486477,"""world""",,,3.5523552894592285,3.77036190032959,0.29465368390083313
1690898363219545799,,636,,1690898363,219485258,"""world""",,,3.552124500274658,3.769869804382324,0.2948886454105377
1690898363229561652,,637,,1690898363,229489107,"""world""",,,3.551980495452881,3.769535541534424,0.2949029803276062
1690898363239561648,,638,,1690898363,239500659,"""world""",,,3.5518980026245117,3.7692017555236816,0.2948930561542511
1690898363249701464,,639,,1690898363,249576640,"""world""",,,3.5516915321350098,3.769148349761963,0.29464906454086304
1690898363259557347,,640,,1690898363,259467127,"""world""",,,3.551576852798462,3.7687594890594482,0.29461145401000977
1690898363269567014,,641,,1690898363,269494555,"""world""",,,3.5514121055603027,3.768498182296753,0.29433703422546387
1690898363279555944,,642,,1690898363,279487344,"""world""",,,3.5511951446533203,3.7681379318237305,0.2944115698337555
1690898363289583842,,643,,1690898363,289497695,"""world""",,,3.55106258392334,3.767932653427124,0.29408934712409973
1690898363309565430,,644,,1690898363,309499104,"""world""",,,3.550889730453491,3.767634153366089,0.2939678728580475
1690898363309576656,,645,,1690898363,309511785,"""world""",,,3.5508639812469482,3.7674496173858643,0.2939189374446869
1690898363319561286,,646,,1690898363,319490756,"""world""",,,3.5505940914154053,3.7668838500976562,0.2939879596233368
1690898363329502685,,647,,1690898363,329438282,"""world""",,,3.5503053665161133,3.766489267349243,0.2941429615020752
1690898363339551972,,648,,1690898363,339486385,"""world""",,,3.5507030487060547,3.766326904296875,0.29401347041130066
1690898363349619055,,649,,1690898363,349502030,"""world""",,,3.55000638961792,3.765754222869873,0.2942166328430176
1690898363359552161,,650,,1690898363,359491323,"""world""",,,3.5499277114868164,3.7654123306274414,0.2942017614841461
1690898363369569670,,651,,1690898363,369505892,"""world""",,,3.5497264862060547,3.7651166915893555,0.2941568195819855
1690898363379548982,,652,,1690898363,379488343,"""world""",,,3.5495266914367676,3.764739990234375,0.29413604736328125
1690898363389541608,,653,,1690898363,389477165,"""world""",,,3.549386978149414,3.7644379138946533,0.29411670565605164
1690898363399577124,,654,,1690898363,399493046,"""world""",,,3.5492987632751465,3.7640669345855713,0.29399561882019043
1690898363409577227,,655,,1690898363,409501459,"""world""",,,3.5496129989624023,3.7639122009277344,0.2936725616455078
1690898363419557635,,656,,1690898363,419489786,"""world""",,,3.5495858192443848,3.763610363006592,0.2935461401939392
1690898363429544605,,657,,1690898363,429484184,"""world""",,,3.548560857772827,3.762861728668213,0.29390934109687805
1690898363439567599,,658,,1690898363,439503618,"""world""",,,3.5484251976013184,3.762289524078369,0.2937812805175781
1690898363449763231,,659,,1690898363,449543575,"""world""",,,3.548187017440796,3.762051820755005,0.2936320900917053
1690898363459582216,,660,,1690898363,459514777,"""world""",,,3.5481154918670654,3.76169490814209,0.2935153841972351
1690898363469546935,,661,,1690898363,469482894,"""world""",,,3.5478618144989014,3.761324405670166,0.2934156358242035
1690898363479522867,,662,,1690898363,479451466,"""world""",,,3.5477077960968018,3.760951280593872,0.29335951805114746
1690898363489568101,,663,,1690898363,489508709,"""world""",,,3.5475499629974365,3.7606022357940674,0.2933351397514343
1690898363499588532,,664,,1690898363,499497198,"""world""",,,3.548011302947998,3.760443925857544,0.2929496169090271
1690898363509644153,,665,,1690898363,509497174,"""world""",,,3.547193765640259,3.759709596633911,0.2934739887714386
1690898363519617593,,666,,1690898363,519508661,"""world""",,,3.5471913814544678,3.7595536708831787,0.29320481419563293
1690898363529541666,,667,,1690898363,529480595,"""world""",,,3.546917200088501,3.7590556144714355,0.2932099401950836
1690898363539554906,,668,,1690898363,539488666,"""world""",,,3.546849012374878,3.758742094039917,0.29310718178749084
1690898363549713980,,669,,1690898363,549512194,"""world""",,,3.546783447265625,3.7583937644958496,0.29296988248825073
1690898363559564998,,670,,1690898363,559490342,"""world""",,,3.5466489791870117,3.7581069469451904,0.2928684949874878
1690898363579576177,,671,,1690898363,579496949,"""world""",,,3.5465328693389893,3.7577545642852783,0.2927992045879364
1690898363579581128,,672,,1690898363,579511034,"""world""",,,3.546428918838501,3.7574219703674316,0.29268765449523926
1690898363589546359,,673,,1690898363,589485181,"""world""",,,3.54632306098938,3.757082462310791,0.29236724972724915
1690898363599597629,,674,,1690898363,599496144,"""world""",,,3.546110153198242,3.756845474243164,0.29232263565063477
1690898363609626346,,675,,1690898363,609509988,"""world""",,,3.5459108352661133,3.7563488483428955,0.29222145676612854
1690898363629550054,,676,,1690898363,629478110,"""world""",,,3.5456132888793945,3.75570011138916,0.2925143241882324
1690898363629559800,,677,,1690898363,629488913,"""world""",,,3.5452961921691895,3.7554337978363037,0.2922583818435669
1690898363639549452,,678,,1690898363,639486812,"""world""",,,3.5451507568359375,3.7549073696136475,0.29236167669296265
1690898363649549437,,679,,1690898363,649472551,"""world""",,,3.5450074672698975,3.754577398300171,0.2920376658439636
1690898363659541917,,680,,1690898363,659485503,"""world""",,,3.5449280738830566,3.75412917137146,0.2920801341533661
1690898363669548406,,681,,1690898363,669492676,"""world""",,,3.5448081493377686,3.753840208053589,0.2918245196342468
1690898363679572387,,682,,1690898363,679491437,"""world""",,,3.544832944869995,3.753403663635254,0.2915787398815155
1690898363689536862,,683,,1690898363,689447369,"""world""",,,3.5448856353759766,3.752955198287964,0.29144182801246643
1690898363699557562,,684,,1690898363,699491883,"""world""",,,3.544762372970581,3.7526299953460693,0.2912784218788147
1690898363709854754,,685,,1690898363,709527033,"""world""",,,3.5445668697357178,3.7521419525146484,0.2911888659000397
1690898363719547122,,686,,1690898363,719487140,"""world""",,,3.5443105697631836,3.7517080307006836,0.2912161350250244
1690898363729531666,,687,,1690898363,729473119,"""world""",,,3.544205665588379,3.7512755393981934,0.2908201813697815
1690898363739592068,,688,,1690898363,739519056,"""world""",,,3.5439841747283936,3.7509937286376953,0.2907329797744751
1690898363749540366,,689,,1690898363,749475630,"""world""",,,3.543773651123047,3.7504923343658447,0.2906321883201599
1690898363759547230,,690,,1690898363,759485557,"""world""",,,3.543408155441284,3.750168800354004,0.29061850905418396
1690898363769567792,,691,,1690898363,769498458,"""world""",,,3.543238878250122,3.7497177124023438,0.29052335023880005
1690898363779579832,,692,,1690898363,779502699,"""world""",,,3.543081521987915,3.749396800994873,0.2904963791370392
1690898363789538103,,693,,1690898363,789480309,"""world""",,,3.5428950786590576,3.7490663528442383,0.290375292301178
1690898363799564867,,694,,1690898363,799493818,"""world""",,,3.5425686836242676,3.74845552444458,0.2905136048793793
1690898363809569542,,695,,1690898363,809473180,"""world""",,,3.542454957962036,3.7480058670043945,0.2904437780380249
1690898363819588624,,696,,1690898363,819486825,"""world""",,,3.5422325134277344,3.7476537227630615,0.290395587682724
1690898363829526225,,697,,1690898363,829474787,"""world""",,,3.5420303344726562,3.7474007606506348,0.29021379351615906
1690898363839558056,,698,,1690898363,839492968,"""world""",,,3.5417404174804688,3.7469661235809326,0.29014813899993896
1690898363849630641,,699,,1690898363,849529190,"""world""",,,3.541430950164795,3.746548652648926,0.29018139839172363
1690898363859533370,,700,,1690898363,859472256,"""world""",,,3.541201114654541,3.7462258338928223,0.29018634557724
1690898363869658087,,701,,1690898363,869533585,"""world""",,,3.5417230129241943,3.7457900047302246,0.28996801376342773
1690898363879581013,,702,,1690898363,879491061,"""world""",,,3.540544033050537,3.7455337047576904,0.2901354432106018
1690898363889526272,,703,,1690898363,889468750,"""world""",,,3.5406861305236816,3.745420455932617,0.2899617850780487
1690898363899591932,,704,,1690898363,899510995,"""world""",,,3.5398802757263184,3.7448689937591553,0.29028937220573425
1690898363909566262,,705,,1690898363,909479680,"""world""",,,3.5395634174346924,3.7445833683013916,0.29063689708709717
1690898363919568939,,706,,1690898363,919498236,"""world""",,,3.539903402328491,3.7445263862609863,0.28980591893196106
1690898363939549879,,707,,1690898363,939487029,"""world""",,,3.5393943786621094,3.7442197799682617,0.28997230529785156
1690898363939571504,,708,,1690898363,939511705,"""world""",,,3.538449287414551,3.7439992427825928,0.29024210572242737
1690898363949572319,,709,,1690898363,949480663,"""world""",,,3.5385680198669434,3.7437925338745117,0.29018253087997437
1690898363959543313,,710,,1690898363,959487463,"""world""",,,3.537625551223755,3.7433419227600098,0.29058507084846497
1690898363969547965,,711,,1690898363,969486309,"""world""",,,3.537153720855713,3.743130683898926,0.2907128930091858
1690898363979536669,,712,,1690898363,979468886,"""world""",,,3.5370545387268066,3.74296498298645,0.2907552421092987
1690898363989545738,,713,,1690898363,989480991,"""world""",,,3.5365116596221924,3.7426555156707764,0.2909070551395416
1690898363999564890,,714,,1690898363,999483047,"""world""",,,3.5360639095306396,3.7424120903015137,0.2910512685775757
1690898364009600097,,715,,1690898364,9487570,"""world""",,,3.5353798866271973,3.7417678833007812,0.2915046215057373
1690898364019541455,,716,,1690898364,19469378,"""world""",,,3.5360710620880127,3.7421371936798096,0.2907080054283142
1690898364029569696,,717,,1690898364,29491143,"""world""",,,3.5350587368011475,3.741670608520508,0.29120907187461853
1690898364039543507,,718,,1690898364,39482854,"""world""",,,3.5352230072021484,3.7415883541107178,0.29077765345573425
1690898364049608150,,719,,1690898364,49504919,"""world""",,,3.5346696376800537,3.7413218021392822,0.2909303605556488
1690898364059603713,,720,,1690898364,59502827,"""world""",,,3.5343434810638428,3.7411506175994873,0.2909991443157196
1690898364069542687,,721,,1690898364,69485252,"""world""",,,3.533928871154785,3.7409615516662598,0.2911924123764038
1690898364079542255,,722,,1690898364,79487443,"""world""",,,3.5333914756774902,3.740823268890381,0.2912660837173462
1690898364089630549,,723,,1690898364,89506702,"""world""",,,3.533115863800049,3.740617036819458,0.2912639081478119
1690898364099558432,,724,,1690898364,99491325,"""world""",,,3.5329625606536865,3.7404232025146484,0.29133331775665283
1690898364109554484,,725,,1690898364,109488244,"""world""",,,3.5319290161132812,3.7401013374328613,0.29183414578437805
