rosbagTimestamp,header,seq,stamp,secs,nsecs,frame_id,pose,position,x,y,z
1690898929976951350,,7897,,1690898929,969449525,"""world""",,,3.5261688232421875,3.7310683727264404,0.28868791460990906
1690898929976980079,,7898,,1690898929,976912510,"""world""",,,3.5275461673736572,3.7312557697296143,0.28836044669151306
1690898929989563796,,7899,,1690898929,989489026,"""world""",,,3.527651071548462,3.731252431869507,0.28840306401252747
1690898930001309450,,7900,,1690898929,999507079,"""world""",,,3.5267531871795654,3.7311959266662598,0.2888426184654236
1690898930009578681,,7901,,1690898930,9500171,"""world""",,,3.5271167755126953,3.731461524963379,0.2887199819087982
1690898930019546945,,7902,,1690898930,19492327,"""world""",,,3.5273115634918213,3.7314743995666504,0.2886965274810791
1690898930029563477,,7903,,1690898930,29488957,"""world""",,,3.527566432952881,3.731475591659546,0.28869518637657166
1690898930039598915,,7904,,1690898930,39507702,"""world""",,,3.527764320373535,3.731532335281372,0.2887442409992218
1690898930049606234,,7905,,1690898930,49494844,"""world""",,,3.528215169906616,3.7316172122955322,0.28854358196258545
1690898930059550203,,7906,,1690898930,59485240,"""world""",,,3.5284032821655273,3.7316267490386963,0.2885516583919525
1690898930069542273,,7907,,1690898930,69484961,"""world""",,,3.5286355018615723,3.7316009998321533,0.28850552439689636
1690898930079533649,,7908,,1690898930,79478729,"""world""",,,3.5288236141204834,3.7316043376922607,0.28847241401672363
1690898930089548388,,7909,,1690898930,89482297,"""world""",,,3.5289206504821777,3.731448173522949,0.2887210547924042
1690898930099612410,,7910,,1690898930,99506758,"""world""",,,3.52921986579895,3.7314658164978027,0.2885983884334564
1690898930109635520,,7911,,1690898930,109486146,"""world""",,,3.529265880584717,3.731480360031128,0.2886632978916168
1690898930119552616,,7912,,1690898930,119490187,"""world""",,,3.529693841934204,3.7314488887786865,0.28858426213264465
1690898930239587321,,7913,,1690898930,239496207,"""world""",,,3.5298805236816406,3.731511354446411,0.28854483366012573
1690898930239593670,,7914,,1690898930,239511082,"""world""",,,3.5300822257995605,3.7314887046813965,0.288530558347702
1690898930239605708,,7915,,1690898930,239527434,"""world""",,,3.5305635929107666,3.7315943241119385,0.2883012890815735
1690898930239615545,,7922,,1690898930,239562972,"""world""",,,3.5321249961853027,3.7315754890441895,0.2883233428001404
1690898930239638018,,7923,,1690898930,239576324,"""world""",,,3.5321762561798096,3.731750011444092,0.2883753776550293
1690898930239650122,,7924,,1690898930,239584501,"""world""",,,3.53242826461792,3.7317752838134766,0.28842583298683167
1690898930249567136,,7925,,1690898930,249490447,"""world""",,,3.5325775146484375,3.7316672801971436,0.2883481979370117
1690898930259549087,,7926,,1690898930,259485536,"""world""",,,3.5325183868408203,3.7316842079162598,0.28859174251556396
1690898930269678847,,7927,,1690898930,269526868,"""world""",,,3.5327060222625732,3.731708288192749,0.2885543406009674
1690898930279536994,,7928,,1690898930,279481289,"""world""",,,3.5329179763793945,3.7317705154418945,0.2885725200176239
1690898930289542307,,7929,,1690898930,289475857,"""world""",,,3.5333058834075928,3.731887102127075,0.2883627116680145
1690898930300059986,,7930,,1690898930,299568992,"""world""",,,3.53426194190979,3.731928586959839,0.2881373167037964
1690898930309562878,,7931,,1690898930,309492040,"""world""",,,3.534121513366699,3.7319111824035645,0.28832611441612244
1690898930319525531,,7932,,1690898930,319473738,"""world""",,,3.5345985889434814,3.7319583892822266,0.2882317900657654
1690898930439535353,,7933,,1690898930,439465416,"""world""",,,3.5350258350372314,3.7320122718811035,0.2882685959339142
1690898930439538613,,7934,,1690898930,439477536,"""world""",,,3.5351157188415527,3.7320549488067627,0.288301557302475
1690898930439542175,,7935,,1690898930,439491779,"""world""",,,3.5353922843933105,3.732044219970703,0.2884836494922638
1690898930439564516,,7939,,1690898930,439512462,"""world""",,,3.5352625846862793,3.731950521469116,0.28905582427978516
1690898930439587940,,7940,,1690898930,439523703,"""world""",,,3.535510301589966,3.7320261001586914,0.2889363467693329
1690898930439591964,,7942,,1690898930,439540004,"""world""",,,3.5359089374542236,3.7322065830230713,0.2890112102031708
1690898930439593770,,7943,,1690898930,439556741,"""world""",,,3.536057949066162,3.732313394546509,0.28915324807167053
1690898930439616873,,7944,,1690898930,439564503,"""world""",,,3.5362255573272705,3.7325010299682617,0.2889999747276306
1690898930449553543,,7945,,1690898930,449488428,"""world""",,,3.5365028381347656,3.732614755630493,0.28888940811157227
1690898930459577999,,7946,,1690898930,459500550,"""world""",,,3.536486864089966,3.7326278686523438,0.28922998905181885
1690898930469514110,,7947,,1690898930,469456414,"""world""",,,3.536667823791504,3.732762575149536,0.2892525792121887
1690898930519562540,,7948,,1690898930,519481439,"""world""",,,3.536759614944458,3.73276948928833,0.28929203748703003
1690898930519566916,,7949,,1690898930,519495635,"""world""",,,3.5371124744415283,3.7329423427581787,0.2890941798686981
1690898930519574594,,7950,,1690898930,519501290,"""world""",,,3.5371768474578857,3.7330031394958496,0.28911030292510986
1690898930519588033,,7952,,1690898930,519523786,"""world""",,,3.537421941757202,3.7331790924072266,0.2890826463699341
1690898930529546907,,7953,,1690898930,529481009,"""world""",,,3.5381920337677,3.73331880569458,0.28881001472473145
1690898930599690646,,7954,,1690898930,599535250,"""world""",,,3.538325309753418,3.7333548069000244,0.2888633906841278
1690898930599705315,,7955,,1690898930,599565707,"""world""",,,3.537736654281616,3.733304738998413,0.2891882658004761
1690898930599710607,,7956,,1690898930,599599167,"""world""",,,3.5378530025482178,3.7333834171295166,0.2892124354839325
1690898930599717270,,7960,,1690898930,599633020,"""world""",,,3.5384230613708496,3.7336363792419434,0.2891668975353241
1690898930609554900,,7961,,1690898930,609487927,"""world""",,,3.538597822189331,3.7337758541107178,0.28917795419692993
1690898930619572592,,7962,,1690898930,619455344,"""world""",,,3.5399580001831055,3.733664035797119,0.2892052233219147
1690898930719563666,,7963,,1690898930,719485005,"""world""",,,3.538923740386963,3.7338602542877197,0.28924044966697693
1690898930719572581,,7964,,1690898930,719496669,"""world""",,,3.5392401218414307,3.7340028285980225,0.289215624332428
1690898930719579423,,7965,,1690898930,719509556,"""world""",,,3.538978099822998,3.7340073585510254,0.2895064651966095
1690898930719586698,,7970,,1690898930,719530403,"""world""",,,3.5400760173797607,3.734602451324463,0.2894779145717621
1690898930719604991,,7971,,1690898930,719542662,"""world""",,,3.539963960647583,3.734724283218384,0.28957873582839966
1690898930719608533,,7972,,1690898930,719549910,"""world""",,,3.5394222736358643,3.7347605228424072,0.28993239998817444
1690898930729527373,,7973,,1690898930,729463462,"""world""",,,3.5395355224609375,3.7348010540008545,0.2898942828178406
1690898930769583821,,7974,,1690898930,769488449,"""world""",,,3.5408427715301514,3.734696865081787,0.28992557525634766
1690898930769604308,,7975,,1690898930,769505101,"""world""",,,3.5397391319274902,3.734886646270752,0.28996190428733826
1690898930769610686,,7976,,1690898930,769525167,"""world""",,,3.5397849082946777,3.735032320022583,0.29012495279312134
1690898930769616194,,7977,,1690898930,769539072,"""world""",,,3.5398616790771484,3.735093116760254,0.290157675743103
1690898930779589722,,7978,,1690898930,779487445,"""world""",,,3.5399067401885986,3.7351365089416504,0.2901782691478729
1690898930789615541,,7979,,1690898930,789498011,"""world""",,,3.540053367614746,3.7351784706115723,0.2902200520038605
1690898930849579112,,7980,,1690898930,849494998,"""world""",,,3.5399720668792725,3.7353155612945557,0.2902097702026367
1690898930849584263,,7982,,1690898930,849512646,"""world""",,,3.5399272441864014,3.734781265258789,0.29043012857437134
1690898930849616840,,7983,,1690898930,849528620,"""world""",,,3.540515661239624,3.735642910003662,0.2898998558521271
1690898930849619322,,7985,,1690898930,849537924,"""world""",,,3.5402748584747314,3.7356486320495605,0.2900056838989258
1690898930859551108,,7986,,1690898930,859486136,"""world""",,,3.54095721244812,3.735774040222168,0.28972822427749634
1690898930869560700,,7987,,1690898930,869495062,"""world""",,,3.54079270362854,3.735717296600342,0.2898736894130707
1690898930879552714,,7988,,1690898930,879485927,"""world""",,,3.540752649307251,3.7357518672943115,0.2899084687232971
1690898930889493217,,7989,,1690898930,889439737,"""world""",,,3.5407655239105225,3.7357635498046875,0.28993627429008484
1690898930899820455,,7990,,1690898930,899511098,"""world""",,,3.541013717651367,3.7358102798461914,0.28982865810394287
1690898930909567876,,7991,,1690898930,909496925,"""world""",,,3.540760040283203,3.7358524799346924,0.28994423151016235
1690898930919542857,,7992,,1690898930,919486210,"""world""",,,3.540644884109497,3.7357678413391113,0.2900577783584595
1690898930929551121,,7993,,1690898930,929488623,"""world""",,,3.5412354469299316,3.7358474731445312,0.2898508906364441
1690898930939618909,,7994,,1690898930,939498140,"""world""",,,3.5411887168884277,3.735910654067993,0.2899392247200012
1690898931049562575,,7995,,1690898931,49495964,"""world""",,,3.5404908657073975,3.7358899116516113,0.2902395725250244
1690898931059555393,,7996,,1690898931,59486487,"""world""",,,3.5408573150634766,3.735969305038452,0.29011070728302
1690898931059560215,,7997,,1690898931,59499956,"""world""",,,3.5403523445129395,3.7359607219696045,0.29033327102661133
1690898931059581847,,7998,,1690898931,59515707,"""world""",,,3.5403592586517334,3.736055850982666,0.2903464734554291
1690898931059586149,,8002,,1690898931,59532062,"""world""",,,3.5409762859344482,3.7362380027770996,0.2899288833141327
1690898931059615752,,8003,,1690898931,59542627,"""world""",,,3.5403451919555664,3.736037492752075,0.29021206498146057
1690898931059624009,,8006,,1690898931,59555298,"""world""",,,3.540151834487915,3.7360939979553223,0.2901724874973297
1690898931069575895,,8007,,1690898931,69483330,"""world""",,,3.5401647090911865,3.7360787391662598,0.2901843786239624
1690898931079545673,,8008,,1690898931,79485274,"""world""",,,3.5401930809020996,3.7360427379608154,0.2901870608329773
1690898931089531846,,8009,,1690898931,89476295,"""world""",,,3.5400938987731934,3.735983371734619,0.2902509272098541
1690898931099726680,,8010,,1690898931,99555945,"""world""",,,3.5400779247283936,3.735968828201294,0.29026883840560913
1690898931109569725,,8011,,1690898931,109498758,"""world""",,,3.5401675701141357,3.73580265045166,0.2902999520301819
1690898931119606760,,8012,,1690898931,119518817,"""world""",,,3.540018081665039,3.7358498573303223,0.29026317596435547
1690898931129650690,,8013,,1690898931,129514471,"""world""",,,3.539994955062866,3.7358062267303467,0.29021891951560974
1690898931139566871,,8014,,1690898931,139495930,"""world""",,,3.5399577617645264,3.735745906829834,0.2901826798915863
1690898931269554372,,8015,,1690898931,269487950,"""world""",,,3.5398523807525635,3.7357215881347656,0.2901787757873535
1690898931269598438,,8016,,1690898931,269513282,"""world""",,,3.5398025512695312,3.735672950744629,0.2901560068130493
1690898931269602783,,8020,,1690898931,269540653,"""world""",,,3.539510488510132,3.7352638244628906,0.2902126908302307
1690898931269636612,,8021,,1690898931,269556853,"""world""",,,3.5394814014434814,3.735116720199585,0.29019248485565186
1690898931269640741,,8023,,1690898931,269570598,"""world""",,,3.5394351482391357,3.7348997592926025,0.2900089621543884
1690898931269669444,,8024,,1690898931,269584715,"""world""",,,3.5393738746643066,3.7348341941833496,0.2899770736694336
1690898931269672387,,8027,,1690898931,269619109,"""world""",,,3.5393147468566895,3.7345595359802246,0.28983333706855774
1690898931279536430,,8028,,1690898931,279481022,"""world""",,,3.539257764816284,3.7345082759857178,0.28981778025627136
1690898931289692568,,8029,,1690898931,289529343,"""world""",,,3.539154052734375,3.7344160079956055,0.28982120752334595
1690898931299594691,,8030,,1690898931,299518793,"""world""",,,3.5390565395355225,3.734407424926758,0.28980782628059387
1690898931309558588,,8031,,1690898931,309495336,"""world""",,,3.5390639305114746,3.734297513961792,0.2897798717021942
1690898931319511041,,8032,,1690898931,319460427,"""world""",,,3.5388736724853516,3.734206199645996,0.289765328168869
1690898931329551193,,8033,,1690898931,329487893,"""world""",,,3.5388176441192627,3.734210252761841,0.2899183928966522
1690898931339552777,,8034,,1690898931,339487977,"""world""",,,3.5387802124023438,3.7341456413269043,0.2897827625274658
1690898931349566410,,8035,,1690898931,349498680,"""world""",,,3.5389511585235596,3.7340753078460693,0.2897040843963623
1690898931469563071,,8036,,1690898931,469491131,"""world""",,,3.538640022277832,3.734069347381592,0.2897402048110962
1690898931469581854,,8037,,1690898931,469517945,"""world""",,,3.538609743118286,3.7340478897094727,0.2896972894668579
1690898931469601094,,8040,,1690898931,469537136,"""world""",,,3.5383973121643066,3.7341010570526123,0.2896500527858734
1690898931469622867,,8041,,1690898931,469547173,"""world""",,,3.5381362438201904,3.7341115474700928,0.2898765802383423
1690898931469633875,,8044,,1690898931,469566744,"""world""",,,3.5378963947296143,3.734151840209961,0.2900111973285675
1690898931469636266,,8045,,1690898931,469581439,"""world""",,,3.5378048419952393,3.734161615371704,0.2900220453739166
1690898931469648293,,8046,,1690898931,469599294,"""world""",,,3.5376954078674316,3.7341785430908203,0.29005810618400574
1690898931469660473,,8047,,1690898931,469607545,"""world""",,,3.537648916244507,3.734222888946533,0.2900560200214386
1690898931479540516,,8048,,1690898931,479477040,"""world""",,,3.537510871887207,3.734323263168335,0.2901650667190552
1690898931489572440,,8049,,1690898931,489489501,"""world""",,,3.5375757217407227,3.7342770099639893,0.29005515575408936
1690898931499636046,,8050,,1690898931,499512136,"""world""",,,3.5376033782958984,3.7343335151672363,0.2901245653629303
1690898931509547006,,8051,,1690898931,509477985,"""world""",,,3.537449598312378,3.7344436645507812,0.2901114821434021
1690898931519553337,,8052,,1690898931,519487263,"""world""",,,3.5373668670654297,3.7345759868621826,0.2900717258453369
1690898931529613255,,8053,,1690898931,529487843,"""world""",,,3.5373430252075195,3.734622001647949,0.2899976968765259
1690898931539554908,,8054,,1690898931,539488375,"""world""",,,3.537179708480835,3.7346434593200684,0.2901667654514313
1690898931549657815,,8055,,1690898931,549528551,"""world""",,,3.5372090339660645,3.7346041202545166,0.2901725172996521
1690898931669555205,,8056,,1690898931,669489028,"""world""",,,3.5370700359344482,3.734668731689453,0.29015374183654785
1690898931669576114,,8057,,1690898931,669511968,"""world""",,,3.536954641342163,3.734872341156006,0.290069580078125
1690898931669578681,,8062,,1690898931,669533491,"""world""",,,3.5366244316101074,3.734844923019409,0.2900719940662384
1690898931669624814,,8063,,1690898931,669544501,"""world""",,,3.5365302562713623,3.7347545623779297,0.2901604473590851
1690898931669632034,,8067,,1690898931,669561508,"""world""",,,3.53635573387146,3.734644651412964,0.2900233864784241
1690898931679542419,,8068,,1690898931,679457812,"""world""",,,3.5362401008605957,3.734745979309082,0.28998902440071106
1690898931689530927,,8069,,1690898931,689474649,"""world""",,,3.5365569591522217,3.7348358631134033,0.2897179126739502
1690898931699644495,,8070,,1690898931,699541109,"""world""",,,3.537031650543213,3.73480224609375,0.28948283195495605
1690898931709572345,,8071,,1690898931,709493969,"""world""",,,3.5370419025421143,3.734832286834717,0.28946903347969055
1690898931719551591,,8072,,1690898931,719485268,"""world""",,,3.536500930786133,3.734771966934204,0.2896173596382141
1690898931729561388,,8073,,1690898931,729492890,"""world""",,,3.536849021911621,3.7348005771636963,0.2895226776599884
1690898931739595062,,8074,,1690898931,739484256,"""world""",,,3.5366554260253906,3.7348268032073975,0.28950679302215576
1690898931749552110,,8075,,1690898931,749485163,"""world""",,,3.536303997039795,3.7348766326904297,0.28963854908943176
1690898931759550581,,8076,,1690898931,759487745,"""world""",,,3.53603458404541,3.7347910404205322,0.2897385060787201
1690898931879554681,,8077,,1690898931,879485511,"""world""",,,3.5358150005340576,3.734617233276367,0.2901366055011749
1690898931879565358,,8078,,1690898931,879513709,"""world""",,,3.5358192920684814,3.7346205711364746,0.290086030960083
1690898931879574241,,8081,,1690898931,879530281,"""world""",,,3.5357441902160645,3.7345902919769287,0.2901153266429901
1690898931879608119,,8082,,1690898931,879539496,"""world""",,,3.5357279777526855,3.734632968902588,0.29011866450309753
1690898931879631025,,8084,,1690898931,879553183,"""world""",,,3.5356993675231934,3.7344536781311035,0.29039543867111206
1690898931879638438,,8085,,1690898931,879564788,"""world""",,,3.535672426223755,3.7346534729003906,0.29008013010025024
1690898931879645477,,8087,,1690898931,879579821,"""world""",,,3.5356462001800537,3.73461651802063,0.2900989353656769
1690898931879653519,,8088,,1690898931,879590010,"""world""",,,3.5354654788970947,3.734536647796631,0.29028213024139404
1690898931889526870,,8089,,1690898931,889474667,"""world""",,,3.5354785919189453,3.7345688343048096,0.29034268856048584
1690898931899715935,,8090,,1690898931,899539277,"""world""",,,3.535675525665283,3.7345268726348877,0.2902814745903015
1690898931919549290,,8091,,1690898931,919481796,"""world""",,,3.5356390476226807,3.7345221042633057,0.29038864374160767
1690898931919556388,,8092,,1690898931,919492892,"""world""",,,3.5356431007385254,3.7344648838043213,0.2903968393802643
1690898931929625401,,8093,,1690898931,929512526,"""world""",,,3.5358095169067383,3.7345309257507324,0.29034462571144104
1690898931939572095,,8094,,1690898931,939497495,"""world""",,,3.5358386039733887,3.7344629764556885,0.2903271019458771
1690898931949565456,,8095,,1690898931,949492278,"""world""",,,3.5358004570007324,3.7344303131103516,0.290342777967453
1690898931959595824,,8096,,1690898931,959500960,"""world""",,,3.5356028079986572,3.7345311641693115,0.29043975472450256
1690898932089676215,,8097,,1690898932,89498809,"""world""",,,3.535756826400757,3.734518051147461,0.2902909219264984
1690898932089689380,,8101,,1690898932,89526099,"""world""",,,3.5355498790740967,3.7346808910369873,0.2902764081954956
1690898932089699689,,8102,,1690898932,89549516,"""world""",,,3.535639762878418,3.734576940536499,0.2903192639350891
1690898932089708157,,8109,,1690898932,89604239,"""world""",,,3.5367114543914795,3.734771490097046,0.2902124226093292
1690898932099656687,,8110,,1690898932,99536245,"""world""",,,3.5365426540374756,3.7347002029418945,0.2902989685535431
1690898932109578246,,8111,,1690898932,109498514,"""world""",,,3.536633253097534,3.734781265258789,0.290330708026886
1690898932119535041,,8112,,1690898932,119476188,"""world""",,,3.536771297454834,3.734804391860962,0.29029691219329834
1690898932149580443,,8113,,1690898932,149501812,"""world""",,,3.5367085933685303,3.734734296798706,0.2906302809715271
1690898932149609189,,8114,,1690898932,149530259,"""world""",,,3.536832094192505,3.7348580360412598,0.2903752326965332
1690898932149612927,,8115,,1690898932,149540547,"""world""",,,3.5370192527770996,3.734968423843384,0.2903972268104553
1690898932159550748,,8116,,1690898932,159487669,"""world""",,,3.537065267562866,3.7349538803100586,0.2903868556022644
1690898932169525944,,8117,,1690898932,169457799,"""world""",,,3.537385940551758,3.7348616123199463,0.29032301902770996
1690898932179557256,,8118,,1690898932,179483498,"""world""",,,3.537400007247925,3.7348923683166504,0.2903320789337158
1690898932189551328,,8119,,1690898932,189487907,"""world""",,,3.53741455078125,3.7349584102630615,0.2904137372970581
1690898932199641744,,8120,,1690898932,199525755,"""world""",,,3.537709951400757,3.735050678253174,0.29021117091178894
1690898932209550980,,8121,,1690898932,209486853,"""world""",,,3.5378289222717285,3.735034942626953,0.2901934087276459
1690898932219620507,,8122,,1690898932,219494693,"""world""",,,3.5380260944366455,3.734917163848877,0.2901228368282318
1690898932229550727,,8123,,1690898932,229490175,"""world""",,,3.5382158756256104,3.734907627105713,0.2901151478290558
1690898932239550037,,8124,,1690898932,239488212,"""world""",,,3.5383660793304443,3.7349185943603516,0.29009953141212463
1690898932249649192,,8125,,1690898932,249509662,"""world""",,,3.5385305881500244,3.734947681427002,0.2900542914867401
1690898932259547292,,8126,,1690898932,259486330,"""world""",,,3.5387401580810547,3.734973669052124,0.28992241621017456
1690898932269525130,,8127,,1690898932,269474210,"""world""",,,3.5392279624938965,3.7349956035614014,0.28974929451942444
1690898932279590050,,8128,,1690898932,279497931,"""world""",,,3.5392351150512695,3.7351181507110596,0.28971874713897705
1690898932289554023,,8129,,1690898932,289491940,"""world""",,,3.539998769760132,3.7351090908050537,0.28957700729370117
1690898932299608291,,8130,,1690898932,299514261,"""world""",,,3.5394089221954346,3.7351136207580566,0.2897615134716034
1690898932309539163,,8131,,1690898932,309470039,"""world""",,,3.540168285369873,3.7350754737854004,0.28966188430786133
1690898932319617623,,8132,,1690898932,319500483,"""world""",,,3.539968729019165,3.735201358795166,0.28975677490234375
1690898932329523182,,8133,,1690898932,329456304,"""world""",,,3.540283441543579,3.7352287769317627,0.28974491357803345
1690898932339548613,,8134,,1690898932,339488614,"""world""",,,3.5397984981536865,3.7350432872772217,0.29010987281799316
1690898932349647665,,8135,,1690898932,349519483,"""world""",,,3.5400168895721436,3.735098123550415,0.29008132219314575
1690898932359561077,,8136,,1690898932,359494028,"""world""",,,3.540287494659424,3.7350542545318604,0.29001015424728394
1690898932369543064,,8137,,1690898932,369485725,"""world""",,,3.540520191192627,3.7349491119384766,0.2899548411369324
1690898932379533990,,8138,,1690898932,379481828,"""world""",,,3.5406768321990967,3.734877586364746,0.28989988565444946
1690898932389540677,,8139,,1690898932,389484417,"""world""",,,3.5408952236175537,3.734834671020508,0.2898542582988739
1690898932399595817,,8140,,1690898932,399498562,"""world""",,,3.541050672531128,3.7347731590270996,0.28979673981666565
1690898932409551061,,8141,,1690898932,409488469,"""world""",,,3.541168451309204,3.734916925430298,0.2897387742996216
1690898932419544879,,8142,,1690898932,419487630,"""world""",,,3.541266441345215,3.734764575958252,0.28971827030181885
1690898932429541072,,8143,,1690898932,429482983,"""world""",,,3.5415542125701904,3.734797716140747,0.28958660364151
1690898932439551640,,8144,,1690898932,439487130,"""world""",,,3.5421369075775146,3.734778881072998,0.28947901725769043
1690898932449577774,,8145,,1690898932,449494796,"""world""",,,3.5426063537597656,3.73470401763916,0.2894059121608734
1690898932459560315,,8146,,1690898932,459493213,"""world""",,,3.542989492416382,3.73458194732666,0.2893516421318054
1690898932469545148,,8147,,1690898932,469483921,"""world""",,,3.5431716442108154,3.7345848083496094,0.2893468737602234
1690898932479567361,,8148,,1690898932,479487623,"""world""",,,3.543015956878662,3.7340245246887207,0.2898550033569336
1690898932489522460,,8149,,1690898932,489470122,"""world""",,,3.5434341430664062,3.734683036804199,0.289323091506958
1690898932499645601,,8150,,1690898932,499528541,"""world""",,,3.5434813499450684,3.734499216079712,0.2895229160785675
1690898932509561788,,8151,,1690898932,509489064,"""world""",,,3.5438642501831055,3.734624147415161,0.2892896831035614
1690898932519507637,,8152,,1690898932,519448279,"""world""",,,3.544057846069336,3.7345879077911377,0.2891882658004761
1690898932529548038,,8153,,1690898932,529485434,"""world""",,,3.544029712677002,3.7346441745758057,0.2891244888305664
1690898932539661570,,8154,,1690898932,539515477,"""world""",,,3.544255256652832,3.7346432209014893,0.2890027165412903
1690898932549580108,,8155,,1690898932,549499703,"""world""",,,3.54398512840271,3.7345428466796875,0.2891604006290436
1690898932559562706,,8156,,1690898932,559492238,"""world""",,,3.5439133644104004,3.7345030307769775,0.2893342077732086
1690898932569616751,,8157,,1690898932,569502321,"""world""",,,3.5442757606506348,3.7344377040863037,0.2893359065055847
1690898932579557657,,8158,,1690898932,579486525,"""world""",,,3.5442161560058594,3.734469175338745,0.2894338369369507
1690898932589532408,,8159,,1690898932,589472900,"""world""",,,3.5443496704101562,3.7345125675201416,0.28952842950820923
1690898932599718108,,8160,,1690898932,599543019,"""world""",,,3.544527530670166,3.7344655990600586,0.2895829975605011
1690898932609650144,,8161,,1690898932,609505186,"""world""",,,3.544687271118164,3.7344276905059814,0.2897087335586548
1690898932619529630,,8162,,1690898932,619478231,"""world""",,,3.5450029373168945,3.7344202995300293,0.28978216648101807
1690898932629545202,,8163,,1690898932,629486285,"""world""",,,3.5453319549560547,3.734433889389038,0.2898181080818176
1690898932639574399,,8164,,1690898932,639488741,"""world""",,,3.5467100143432617,3.7344539165496826,0.29004400968551636
1690898932649572082,,8165,,1690898932,649498208,"""world""",,,3.5454626083374023,3.7342987060546875,0.2902902364730835
1690898932659575204,,8166,,1690898932,659495097,"""world""",,,3.54585599899292,3.734426975250244,0.2903764843940735
1690898932669648335,,8167,,1690898932,669511582,"""world""",,,3.546070098876953,3.7342326641082764,0.2905753552913666
1690898932679551845,,8168,,1690898932,679487233,"""world""",,,3.5462512969970703,3.7341675758361816,0.2908600866794586
1690898932689521490,,8169,,1690898932,689471326,"""world""",,,3.5465333461761475,3.734179735183716,0.2910238206386566
1690898932699753143,,8170,,1690898932,699510435,"""world""",,,3.546675443649292,3.7340593338012695,0.2913510501384735
1690898932709555234,,8171,,1690898932,709488208,"""world""",,,3.546826124191284,3.7339131832122803,0.2917512357234955
1690898932719494247,,8172,,1690898932,719441873,"""world""",,,3.5469439029693604,3.7336490154266357,0.2921936810016632
1690898932729573726,,8173,,1690898932,729499426,"""world""",,,3.5470640659332275,3.733563184738159,0.2926020324230194
1690898932739548604,,8174,,1690898932,739486959,"""world""",,,3.5472357273101807,3.7336978912353516,0.29281583428382874
1690898932749561702,,8175,,1690898932,749493375,"""world""",,,3.5481855869293213,3.733849287033081,0.29263490438461304
1690898932759529170,,8176,,1690898932,759459394,"""world""",,,3.54876708984375,3.7337183952331543,0.292858749628067
1690898932769564362,,8177,,1690898932,769494079,"""world""",,,3.5490241050720215,3.7335855960845947,0.29321420192718506
1690898932779544951,,8178,,1690898932,779484621,"""world""",,,3.5481512546539307,3.733116388320923,0.29430192708969116
1690898932789525890,,8179,,1690898932,789471339,"""world""",,,3.548609495162964,3.7332968711853027,0.2942233383655548
1690898932799692113,,8180,,1690898932,799568351,"""world""",,,3.5486834049224854,3.733285427093506,0.2944090664386749
1690898932809552317,,8181,,1690898932,809487644,"""world""",,,3.549079418182373,3.7330243587493896,0.2948633134365082
1690898932819519860,,8182,,1690898932,819473526,"""world""",,,3.54925537109375,3.732933759689331,0.29521891474723816
1690898932829614312,,8183,,1690898932,829506249,"""world""",,,3.5495107173919678,3.7328226566314697,0.2955212891101837
1690898932839553918,,8184,,1690898932,839487795,"""world""",,,3.5497093200683594,3.732616901397705,0.29596030712127686
1690898932849535645,,8185,,1690898932,849475333,"""world""",,,3.5500071048736572,3.732475519180298,0.2963024973869324
1690898932859607201,,8186,,1690898932,859508900,"""world""",,,3.550374746322632,3.732412099838257,0.296630322933197
1690898932869599011,,8187,,1690898932,869509293,"""world""",,,3.5507049560546875,3.7323389053344727,0.2970053255558014
1690898932879572877,,8188,,1690898932,879514975,"""world""",,,3.551987409591675,3.7321901321411133,0.2969815135002136
1690898932889615093,,8189,,1690898932,889502560,"""world""",,,3.552119731903076,3.7320752143859863,0.2974323630332947
1690898932899656175,,8190,,1690898932,899533219,"""world""",,,3.5524392127990723,3.7318825721740723,0.29780295491218567
1690898932909557809,,8191,,1690898932,909491077,"""world""",,,3.5524680614471436,3.731743097305298,0.2983306646347046
1690898932919552760,,8192,,1690898932,919487512,"""world""",,,3.5527596473693848,3.731555461883545,0.2987214922904968
1690898932929550337,,8193,,1690898932,929488881,"""world""",,,3.5531258583068848,3.731320858001709,0.2992296814918518
1690898932939538641,,8194,,1690898932,939475732,"""world""",,,3.5533220767974854,3.731182813644409,0.2996610999107361
1690898932949557030,,8195,,1690898932,949493052,"""world""",,,3.5535271167755127,3.731046438217163,0.2999585270881653
1690898932959579150,,8196,,1690898932,959491099,"""world""",,,3.553760290145874,3.730820417404175,0.30046722292900085
1690898932969564472,,8197,,1690898932,969492337,"""world""",,,3.5536022186279297,3.730469226837158,0.3009891211986542
1690898932979541213,,8198,,1690898932,979480080,"""world""",,,3.5537452697753906,3.730583667755127,0.3014443814754486
1690898932989549370,,8199,,1690898932,989487736,"""world""",,,3.554004430770874,3.7304091453552246,0.30181553959846497
1690898932999648479,,8200,,1690898932,999525384,"""world""",,,3.554222822189331,3.730125904083252,0.3022899329662323
1690898933009602789,,8201,,1690898933,9519587,"""world""",,,3.554518222808838,3.7297964096069336,0.3028712868690491
1690898933019554279,,8202,,1690898933,19487493,"""world""",,,3.55475115776062,3.729752779006958,0.30328282713890076
1690898933029553541,,8203,,1690898933,29487897,"""world""",,,3.5550684928894043,3.729548454284668,0.3037559390068054
1690898933039555400,,8204,,1690898933,39488459,"""world""",,,3.555927038192749,3.72939133644104,0.3039981722831726
1690898933049633921,,8205,,1690898933,49523689,"""world""",,,3.5560760498046875,3.729177951812744,0.3044392764568329
1690898933059572900,,8206,,1690898933,59493793,"""world""",,,3.5567164421081543,3.728877305984497,0.3049083352088928
1690898933069546101,,8207,,1690898933,69483483,"""world""",,,3.557162046432495,3.7286605834960938,0.30530083179473877
1690898933079551118,,8208,,1690898933,79489964,"""world""",,,3.5572526454925537,3.728468894958496,0.305825412273407
1690898933089537662,,8209,,1690898933,89476349,"""world""",,,3.5573132038116455,3.728193759918213,0.3062439560890198
1690898933099636711,,8210,,1690898933,99539534,"""world""",,,3.5576109886169434,3.7279446125030518,0.306738018989563
1690898933109563690,,8211,,1690898933,109492968,"""world""",,,3.557945966720581,3.7276837825775146,0.3071443736553192
1690898933119553823,,8212,,1690898933,119487753,"""world""",,,3.557915449142456,3.727546453475952,0.3077085614204407
1690898933129549794,,8213,,1690898933,129489573,"""world""",,,3.5575063228607178,3.7272424697875977,0.30861803889274597
1690898933139547201,,8214,,1690898933,139486037,"""world""",,,3.557788610458374,3.7270915508270264,0.3089947998523712
1690898933149579878,,8215,,1690898933,149494115,"""world""",,,3.5579752922058105,3.7266035079956055,0.30962374806404114
1690898933159566443,,8216,,1690898933,159488751,"""world""",,,3.5582315921783447,3.726431369781494,0.3101222813129425
1690898933169573877,,8217,,1690898933,169494655,"""world""",,,3.5587480068206787,3.7260961532592773,0.3105304539203644
1690898933179639244,,8218,,1690898933,179519106,"""world""",,,3.559359312057495,3.72584867477417,0.3108399212360382
1690898933189544748,,8219,,1690898933,189485890,"""world""",,,3.560070514678955,3.725672960281372,0.3112351894378662
1690898933199625004,,8220,,1690898933,199517771,"""world""",,,3.5602664947509766,3.7253098487854004,0.3117077648639679
1690898933209571403,,8221,,1690898933,209498368,"""world""",,,3.560398817062378,3.725050449371338,0.31234103441238403
1690898933219582257,,8222,,1690898933,219505643,"""world""",,,3.5607657432556152,3.7247865200042725,0.3128206431865692
1690898933229556488,,8223,,1690898933,229490983,"""world""",,,3.560784339904785,3.7244820594787598,0.313422292470932
1690898933239565008,,8224,,1690898933,239487267,"""world""",,,3.5610547065734863,3.724261522293091,0.31429323554039
1690898933249547518,,8225,,1690898933,249489628,"""world""",,,3.5613389015197754,3.723788261413574,0.3145621120929718
1690898933259642072,,8226,,1690898933,259523211,"""world""",,,3.5612361431121826,3.723604202270508,0.3153511583805084
1690898933269648597,,8227,,1690898933,269506202,"""world""",,,3.5614681243896484,3.723318099975586,0.3159419596195221
1690898933279581831,,8228,,1690898933,279489060,"""world""",,,3.5616726875305176,3.7230725288391113,0.3164973258972168
1690898933289531452,,8229,,1690898933,289474308,"""world""",,,3.5621156692504883,3.722989320755005,0.31701087951660156
1690898933299724254,,8230,,1690898933,299553994,"""world""",,,3.5615851879119873,3.722254514694214,0.3180781900882721
1690898933309581902,,8231,,1690898933,309504466,"""world""",,,3.561943531036377,3.722097873687744,0.3184918463230133
1690898933319569566,,8232,,1690898933,319498877,"""world""",,,3.5620570182800293,3.721785545349121,0.3191417455673218
1690898933329574329,,8233,,1690898933,329503783,"""world""",,,3.562882661819458,3.721524477005005,0.31953808665275574
1690898933339658107,,8234,,1690898933,339522464,"""world""",,,3.563264846801758,3.721191644668579,0.32034310698509216
1690898933349617372,,8235,,1690898933,349515316,"""world""",,,3.5631051063537598,3.7209763526916504,0.3208447992801666
1690898933359546083,,8236,,1690898933,359476445,"""world""",,,3.5637505054473877,3.720637321472168,0.321340411901474
1690898933369584890,,8237,,1690898933,369499326,"""world""",,,3.5628178119659424,3.720242500305176,0.3226516842842102
1690898933379555820,,8238,,1690898933,379489881,"""world""",,,3.563005208969116,3.7199363708496094,0.3233257532119751
1690898933389524874,,8239,,1690898933,389475642,"""world""",,,3.5638129711151123,3.7194626331329346,0.32387685775756836
1690898933399653580,,8240,,1690898933,399524998,"""world""",,,3.564507484436035,3.7194106578826904,0.3240695893764496
1690898933409643536,,8241,,1690898933,409506972,"""world""",,,3.56445050239563,3.7190561294555664,0.32487356662750244
1690898933419532684,,8242,,1690898933,419479784,"""world""",,,3.5646438598632812,3.718755006790161,0.3254297077655792
1690898933429549796,,8243,,1690898933,429483506,"""world""",,,3.564333200454712,3.7184643745422363,0.32609549164772034
1690898933439562057,,8244,,1690898933,439498005,"""world""",,,3.564190626144409,3.718172550201416,0.326839417219162
1690898933449559193,,8245,,1690898933,449495848,"""world""",,,3.564239501953125,3.717867612838745,0.3276101350784302
1690898933459558138,,8246,,1690898933,459487250,"""world""",,,3.5644073486328125,3.7173962593078613,0.3284622132778168
1690898933469688811,,8247,,1690898933,469528646,"""world""",,,3.5647614002227783,3.716855525970459,0.3294030427932739
1690898933479542130,,8248,,1690898933,479485965,"""world""",,,3.5647590160369873,3.716582775115967,0.3300875425338745
1690898933489521543,,8249,,1690898933,489472335,"""world""",,,3.564922332763672,3.7163400650024414,0.3307473063468933
1690898933499713414,,8250,,1690898933,499537880,"""world""",,,3.5652718544006348,3.715930461883545,0.33134543895721436
1690898933509558702,,8251,,1690898933,509488078,"""world""",,,3.5660738945007324,3.7154204845428467,0.33187437057495117
1690898933519537729,,8252,,1690898933,519477786,"""world""",,,3.566394329071045,3.7150421142578125,0.3325998783111572
1690898933529561788,,8253,,1690898933,529499219,"""world""",,,3.5666072368621826,3.7146108150482178,0.3331770598888397
1690898933539558508,,8254,,1690898933,539491329,"""world""",,,3.566603422164917,3.7142398357391357,0.3338436186313629
1690898933549601677,,8255,,1690898933,549499982,"""world""",,,3.5664658546447754,3.7138824462890625,0.33452004194259644
1690898933559528870,,8256,,1690898933,559460278,"""world""",,,3.5659613609313965,3.7132956981658936,0.33564794063568115
1690898933569573997,,8257,,1690898933,569498217,"""world""",,,3.566131591796875,3.7129099369049072,0.33622732758522034
1690898933579555825,,8258,,1690898933,579490375,"""world""",,,3.566127300262451,3.7124457359313965,0.3371747136116028
1690898933589533050,,8259,,1690898933,589477927,"""world""",,,3.566788673400879,3.7120699882507324,0.3377252221107483
1690898933599679961,,8260,,1690898933,599542772,"""world""",,,3.56671404838562,3.7115495204925537,0.33859768509864807
1690898933609522300,,8261,,1690898933,609454266,"""world""",,,3.566709041595459,3.7110185623168945,0.3396305441856384
1690898933619532431,,8262,,1690898933,619476067,"""world""",,,3.566895008087158,3.7105817794799805,0.34041628241539
1690898933629571274,,8263,,1690898933,629489624,"""world""",,,3.567180871963501,3.710186004638672,0.34106719493865967
1690898933639555024,,8264,,1690898933,639486928,"""world""",,,3.568120002746582,3.709749460220337,0.34153228998184204
1690898933649578549,,8265,,1690898933,649498648,"""world""",,,3.568256139755249,3.70920467376709,0.34257498383522034
1690898933659574084,,8266,,1690898933,659487816,"""world""",,,3.567655563354492,3.708815813064575,0.3436458110809326
1690898933669581831,,8267,,1690898933,669503643,"""world""",,,3.568544864654541,3.7082347869873047,0.3443024456501007
1690898933679533421,,8268,,1690898933,679480298,"""world""",,,3.5679495334625244,3.7080016136169434,0.34515658020973206
1690898933689586050,,8269,,1690898933,689488283,"""world""",,,3.5682566165924072,3.7075905799865723,0.34578415751457214
1690898933699618139,,8270,,1690898933,699526619,"""world""",,,3.568472385406494,3.707082748413086,0.3465275168418884
1690898933709561528,,8271,,1690898933,709482840,"""world""",,,3.5680992603302,3.7068121433258057,0.34754565358161926
1690898933719522255,,8272,,1690898933,719471342,"""world""",,,3.5683765411376953,3.706378698348999,0.34837526082992554
1690898933729562000,,8273,,1690898933,729491536,"""world""",,,3.5687060356140137,3.7059473991394043,0.3491983711719513
1690898933739549487,,8274,,1690898933,739488782,"""world""",,,3.568585157394409,3.705205202102661,0.35052379965782166
1690898933749557449,,8275,,1690898933,749488636,"""world""",,,3.568828821182251,3.7048733234405518,0.35128647089004517
1690898933759580429,,8276,,1690898933,759489561,"""world""",,,3.5690929889678955,3.704782247543335,0.3519097864627838
1690898933769567584,,8277,,1690898933,769486214,"""world""",,,3.5695114135742188,3.7042605876922607,0.3526294529438019
1690898933779543628,,8278,,1690898933,779486298,"""world""",,,3.570387363433838,3.703868865966797,0.35321569442749023
1690898933789548611,,8279,,1690898933,789486597,"""world""",,,3.5699338912963867,3.7034642696380615,0.35410287976264954
1690898933799637568,,8280,,1690898933,799515704,"""world""",,,3.5701231956481934,3.703003406524658,0.35483217239379883
1690898933809553575,,8281,,1690898933,809478147,"""world""",,,3.5701537132263184,3.7025983333587646,0.35586684942245483
1690898933819599663,,8282,,1690898933,819514115,"""world""",,,3.570312261581421,3.7022364139556885,0.3566531538963318
1690898933829530451,,8283,,1690898933,829464904,"""world""",,,3.570788621902466,3.7018258571624756,0.3573806881904602
1690898933839540392,,8284,,1690898933,839462908,"""world""",,,3.5709221363067627,3.701328754425049,0.3581550121307373
1690898933849559698,,8285,,1690898933,849493669,"""world""",,,3.571791410446167,3.7009341716766357,0.3586936593055725
1690898933859556853,,8286,,1690898933,859488770,"""world""",,,3.571625232696533,3.7004263401031494,0.35977527499198914
1690898933869555784,,8287,,1690898933,869488321,"""world""",,,3.571488380432129,3.7000491619110107,0.36059969663619995
1690898933879547975,,8288,,1690898933,879485337,"""world""",,,3.5722098350524902,3.6996283531188965,0.36121872067451477
1690898933889539172,,8289,,1690898933,889485076,"""world""",,,3.5718955993652344,3.6992411613464355,0.36208346486091614
1690898933899611806,,8290,,1690898933,899522399,"""world""",,,3.5719728469848633,3.698734760284424,0.3631827235221863
1690898933909563319,,8291,,1690898933,909494418,"""world""",,,3.572126626968384,3.6983819007873535,0.36399492621421814
1690898933919530242,,8292,,1690898933,919472494,"""world""",,,3.5722885131835938,3.6982436180114746,0.3646390438079834
1690898933929549887,,8293,,1690898933,929485479,"""world""",,,3.572401285171509,3.6974642276763916,0.3657682538032532
1690898933939554812,,8294,,1690898933,939491336,"""world""",,,3.5725152492523193,3.6974093914031982,0.3663996458053589
1690898933949635889,,8295,,1690898933,949518872,"""world""",,,3.572861671447754,3.6969711780548096,0.3671566843986511
1690898933959565411,,8296,,1690898933,959487477,"""world""",,,3.5730857849121094,3.6964468955993652,0.3680053949356079
1690898933969581491,,8297,,1690898933,969500308,"""world""",,,3.57330322265625,3.6961722373962402,0.36872509121894836
1690898933979571198,,8298,,1690898933,979487532,"""world""",,,3.5735056400299072,3.6954517364501953,0.36980918049812317
1690898933989538682,,8299,,1690898933,989484421,"""world""",,,3.5736687183380127,3.6950342655181885,0.37063631415367126
1690898933999619380,,8300,,1690898933,999519970,"""world""",,,3.573840379714966,3.694812059402466,0.37144652009010315
1690898934009561828,,8301,,1690898934,9488286,"""world""",,,3.575030565261841,3.694570302963257,0.37195393443107605
1690898934019553825,,8302,,1690898934,19484543,"""world""",,,3.5752036571502686,3.6941978931427,0.37273168563842773
1690898934029552287,,8303,,1690898934,29486094,"""world""",,,3.5753071308135986,3.6939868927001953,0.3734999895095825
1690898934039577219,,8304,,1690898934,39502634,"""world""",,,3.5754339694976807,3.6936254501342773,0.3743170201778412
1690898934049535934,,8305,,1690898934,49468840,"""world""",,,3.5755112171173096,3.6933765411376953,0.37519460916519165
1690898934059566419,,8306,,1690898934,59484521,"""world""",,,3.5748894214630127,3.6930043697357178,0.37650230526924133
1690898934069514680,,8307,,1690898934,69448415,"""world""",,,3.5758941173553467,3.6927545070648193,0.3770664632320404
1690898934079556374,,8308,,1690898934,79489004,"""world""",,,3.575871706008911,3.692605972290039,0.3779313564300537
1690898934089523111,,8309,,1690898934,89472143,"""world""",,,3.5757217407226562,3.6923317909240723,0.3788333237171173
1690898934099630771,,8310,,1690898934,99529075,"""world""",,,3.575098752975464,3.6920862197875977,0.3801071047782898
1690898934109621621,,8311,,1690898934,109505719,"""world""",,,3.575204372406006,3.6917836666107178,0.38105496764183044
1690898934119511608,,8312,,1690898934,119442106,"""world""",,,3.5755977630615234,3.691279888153076,0.38190656900405884
1690898934129553539,,8313,,1690898934,129487396,"""world""",,,3.5757224559783936,3.690739393234253,0.3830844461917877
1690898934139583573,,8314,,1690898934,139490595,"""world""",,,3.5758628845214844,3.6902902126312256,0.38420671224594116
1690898934149551980,,8315,,1690898934,149485929,"""world""",,,3.5759944915771484,3.6903278827667236,0.38497719168663025
1690898934159570952,,8316,,1690898934,159492257,"""world""",,,3.5761806964874268,3.690110445022583,0.38586023449897766
1690898934169644183,,8317,,1690898934,169521602,"""world""",,,3.5763235092163086,3.6898956298828125,0.3867374062538147
1690898934179547747,,8318,,1690898934,179488346,"""world""",,,3.57627272605896,3.6896347999572754,0.38779401779174805
1690898934189521265,,8319,,1690898934,189469982,"""world""",,,3.5768163204193115,3.689178705215454,0.38865944743156433
1690898934199614334,,8320,,1690898934,199515883,"""world""",,,3.576380729675293,3.689121961593628,0.3900706470012665
1690898934209583815,,8321,,1690898934,209502107,"""world""",,,3.5774905681610107,3.6887693405151367,0.3909524977207184
1690898934219573977,,8322,,1690898934,219517538,"""world""",,,3.577524185180664,3.688586473464966,0.3919086754322052
1690898934229550055,,8323,,1690898934,229485927,"""world""",,,3.577726125717163,3.688340425491333,0.3929785192012787
1690898934239560015,,8324,,1690898934,239496861,"""world""",,,3.577659845352173,3.68805193901062,0.3942936658859253
1690898934249569087,,8325,,1690898934,249498946,"""world""",,,3.577730894088745,3.6880385875701904,0.3952149748802185
1690898934259575668,,8326,,1690898934,259495745,"""world""",,,3.5777430534362793,3.6877920627593994,0.3963489830493927
1690898934269735366,,8327,,1690898934,269530078,"""world""",,,3.5777363777160645,3.6876025199890137,0.3974995017051697
1690898934279514177,,8328,,1690898934,279457760,"""world""",,,3.5777218341827393,3.6873724460601807,0.39877232909202576
1690898934289520335,,8329,,1690898934,289470842,"""world""",,,3.5776896476745605,3.6870930194854736,0.39992937445640564
1690898934299739928,,8330,,1690898934,299570536,"""world""",,,3.5774729251861572,3.6869070529937744,0.40116336941719055
1690898934309580607,,8331,,1690898934,309514970,"""world""",,,3.576860189437866,3.6863296031951904,0.40281617641448975
1690898934319561253,,8332,,1690898934,319483883,"""world""",,,3.576953172683716,3.686300277709961,0.40395116806030273
1690898934329585800,,8333,,1690898934,329501104,"""world""",,,3.5770554542541504,3.686004638671875,0.40516266226768494
1690898934339592915,,8334,,1690898934,339494850,"""world""",,,3.577155590057373,3.6855485439300537,0.40654343366622925
1690898934349550142,,8335,,1690898934,349478700,"""world""",,,3.576967716217041,3.6852025985717773,0.4080106317996979
1690898934359614578,,8336,,1690898934,359500862,"""world""",,,3.5772063732147217,3.685281753540039,0.4088400602340698
1690898934369609743,,8337,,1690898934,369490748,"""world""",,,3.5779552459716797,3.685025691986084,0.4100026786327362
1690898934379546898,,8338,,1690898934,379484920,"""world""",,,3.577810525894165,3.6848487854003906,0.41128844022750854
1690898934389523291,,8339,,1690898934,389471103,"""world""",,,3.5779504776000977,3.684602737426758,0.41242823004722595
1690898934399601905,,8340,,1690898934,399502216,"""world""",,,3.5771682262420654,3.6842408180236816,0.41407960653305054
1690898934409570194,,8341,,1690898934,409496929,"""world""",,,3.5777342319488525,3.6839969158172607,0.4150249660015106
1690898934419529490,,8342,,1690898934,419472339,"""world""",,,3.57778263092041,3.6839444637298584,0.41617292165756226
1690898934429632388,,8343,,1690898934,429502836,"""world""",,,3.5777058601379395,3.683711528778076,0.4173801839351654
1690898934439587008,,8344,,1690898934,439486326,"""world""",,,3.577672004699707,3.683481216430664,0.4183427095413208
1690898934449545421,,8345,,1690898934,449477567,"""world""",,,3.577263116836548,3.683232307434082,0.41955339908599854
1690898934459703147,,8346,,1690898934,459535990,"""world""",,,3.576624631881714,3.682979106903076,0.42096248269081116
1690898934469562060,,8347,,1690898934,469487490,"""world""",,,3.5769989490509033,3.6827392578125,0.421940416097641
1690898934479544419,,8348,,1690898934,479486470,"""world""",,,3.576906204223633,3.6824898719787598,0.42301177978515625
1690898934489584696,,8349,,1690898934,489486197,"""world""",,,3.576542615890503,3.682152271270752,0.4243183732032776
1690898934499631823,,8350,,1690898934,499523909,"""world""",,,3.576496124267578,3.681783676147461,0.4254833459854126
1690898934509575910,,8351,,1690898934,509493755,"""world""",,,3.5764236450195312,3.6816318035125732,0.4264792501926422
1690898934519533127,,8352,,1690898934,519471672,"""world""",,,3.5762553215026855,3.6812264919281006,0.4276863634586334
1690898934529555946,,8353,,1690898934,529481452,"""world""",,,3.5773205757141113,3.6812081336975098,0.4280623495578766
1690898934539565375,,8354,,1690898934,539494954,"""world""",,,3.577230453491211,3.680854082107544,0.42945805191993713
1690898934549609447,,8355,,1690898934,549505623,"""world""",,,3.5772430896759033,3.6806564331054688,0.43033644556999207
1690898934559598023,,8356,,1690898934,559495337,"""world""",,,3.577298641204834,3.6805057525634766,0.43113821744918823
1690898934569568317,,8357,,1690898934,569463943,"""world""",,,3.5772671699523926,3.6801047325134277,0.43229326605796814
1690898934579555913,,8358,,1690898934,579485818,"""world""",,,3.5772788524627686,3.679824113845825,0.43337032198905945
1690898934589552577,,8359,,1690898934,589486002,"""world""",,,3.5772054195404053,3.6795878410339355,0.43448105454444885
1690898934599672410,,8360,,1690898934,599528707,"""world""",,,3.577023506164551,3.6792120933532715,0.4356998801231384
1690898934609554046,,8361,,1690898934,609487428,"""world""",,,3.577047109603882,3.6789920330047607,0.4366662800312042
1690898934619591305,,8362,,1690898934,619487999,"""world""",,,3.5770387649536133,3.678739547729492,0.4376268684864044
1690898934629561728,,8363,,1690898934,629490352,"""world""",,,3.576841115951538,3.6780261993408203,0.43921706080436707
1690898934639548657,,8364,,1690898934,639487514,"""world""",,,3.5766913890838623,3.67788028717041,0.4403274357318878
1690898934649557433,,8365,,1690898934,649495081,"""world""",,,3.5765130519866943,3.677734613418579,0.44132158160209656
1690898934659567706,,8366,,1690898934,659491213,"""world""",,,3.5766706466674805,3.677722454071045,0.442082941532135
1690898934669605176,,8367,,1690898934,669507238,"""world""",,,3.5761938095092773,3.6776371002197266,0.44314005970954895
1690898934679542831,,8368,,1690898934,679484651,"""world""",,,3.5758743286132812,3.677224636077881,0.44412368535995483
1690898934689542543,,8369,,1690898934,689483796,"""world""",,,3.5754854679107666,3.676685333251953,0.4457152187824249
1690898934699634226,,8370,,1690898934,699517974,"""world""",,,3.5753324031829834,3.676469087600708,0.44693925976753235
1690898934709580242,,8371,,1690898934,709503638,"""world""",,,3.575416088104248,3.676353931427002,0.4478941857814789
1690898934719555428,,8372,,1690898934,719486426,"""world""",,,3.576172113418579,3.6764588356018066,0.4485762417316437
1690898934729567851,,8373,,1690898934,729489414,"""world""",,,3.5760200023651123,3.676130771636963,0.4497477114200592
1690898934739556000,,8374,,1690898934,739492317,"""world""",,,3.5754849910736084,3.6758382320404053,0.450954407453537
1690898934749665642,,8375,,1690898934,749530187,"""world""",,,3.5759336948394775,3.675595998764038,0.45208820700645447
1690898934759576656,,8376,,1690898934,759497633,"""world""",,,3.5759241580963135,3.67541766166687,0.4531460702419281
1690898934769610445,,8377,,1690898934,769501537,"""world""",,,3.5759220123291016,3.6753087043762207,0.45425522327423096
1690898934779557745,,8378,,1690898934,779485121,"""world""",,,3.5755248069763184,3.6751837730407715,0.45554935932159424
1690898934789543248,,8379,,1690898934,789484795,"""world""",,,3.5755045413970947,3.675023317337036,0.456676721572876
1690898934799557596,,8380,,1690898934,799491776,"""world""",,,3.575761079788208,3.674600601196289,0.45819151401519775
1690898934809570396,,8381,,1690898934,809489865,"""world""",,,3.5754189491271973,3.674657106399536,0.4591219425201416
1690898934819547179,,8382,,1690898934,819484900,"""world""",,,3.5752627849578857,3.67445707321167,0.46002092957496643
1690898934829556056,,8383,,1690898934,829489326,"""world""",,,3.5752735137939453,3.6743147373199463,0.4612879157066345
1690898934839568781,,8384,,1690898934,839486692,"""world""",,,3.5742223262786865,3.674187660217285,0.4628891348838806
1690898934849576949,,8385,,1690898934,849488375,"""world""",,,3.57419753074646,3.6740071773529053,0.464086651802063
1690898934859557913,,8386,,1690898934,859479801,"""world""",,,3.574127197265625,3.673772096633911,0.4652253985404968
1690898934869543226,,8387,,1690898934,869483327,"""world""",,,3.5747339725494385,3.6734671592712402,0.46620598435401917
1690898934879553277,,8388,,1690898934,879488859,"""world""",,,3.573615312576294,3.6732170581817627,0.4679115414619446
1690898934889524903,,8389,,1690898934,889473415,"""world""",,,3.5736589431762695,3.6730356216430664,0.46914222836494446
1690898934899587473,,8390,,1690898934,899503376,"""world""",,,3.5743839740753174,3.67303204536438,0.470034658908844
1690898934909570213,,8391,,1690898934,909495952,"""world""",,,3.574237585067749,3.6728148460388184,0.47138750553131104
1690898934919541396,,8392,,1690898934,919485476,"""world""",,,3.5742268562316895,3.6726324558258057,0.4726048707962036
1690898934929545507,,8393,,1690898934,929487316,"""world""",,,3.5740458965301514,3.6725149154663086,0.4738069176673889
1690898934939643037,,8394,,1690898934,939516547,"""world""",,,3.5737967491149902,3.6724746227264404,0.4751072824001312
1690898934949566433,,8395,,1690898934,949493872,"""world""",,,3.5737078189849854,3.6722280979156494,0.47643035650253296
1690898934959567574,,8396,,1690898934,959479472,"""world""",,,3.573765516281128,3.672039031982422,0.47770625352859497
1690898934969607527,,8397,,1690898934,969493916,"""world""",,,3.573462724685669,3.6719248294830322,0.4790038466453552
1690898934979518033,,8398,,1690898934,979455614,"""world""",,,3.5731070041656494,3.6718969345092773,0.4803672730922699
1690898934989523509,,8399,,1690898934,989471007,"""world""",,,3.573155403137207,3.6717581748962402,0.48148658871650696
1690898934999644344,,8400,,1690898934,999525831,"""world""",,,3.572852849960327,3.671701669692993,0.48274004459381104
1690898935009612699,,8401,,1690898935,9497178,"""world""",,,3.5728282928466797,3.6714394092559814,0.4842236340045929
1690898935019537458,,8402,,1690898935,19476984,"""world""",,,3.5725152492523193,3.6713433265686035,0.48570066690444946
1690898935029548263,,8403,,1690898935,29485219,"""world""",,,3.5725483894348145,3.6712656021118164,0.4869352877140045
1690898935039554662,,8404,,1690898935,39490856,"""world""",,,3.572049856185913,3.6711525917053223,0.48841848969459534
1690898935049564135,,8405,,1690898935,49488224,"""world""",,,3.572293996810913,3.671158790588379,0.4895646274089813
1690898935059593160,,8406,,1690898935,59501224,"""world""",,,3.5721774101257324,3.671017646789551,0.4912201762199402
1690898935069577287,,8407,,1690898935,69498679,"""world""",,,3.572183609008789,3.670830726623535,0.492561399936676
1690898935079544652,,8408,,1690898935,79487610,"""world""",,,3.571760654449463,3.6708943843841553,0.49411702156066895
1690898935089526056,,8409,,1690898935,89469447,"""world""",,,3.572110414505005,3.670708417892456,0.49583521485328674
1690898935099796697,,8410,,1690898935,99588977,"""world""",,,3.5716214179992676,3.670891284942627,0.49699899554252625
1690898935109573963,,8411,,1690898935,109499445,"""world""",,,3.57146954536438,3.6708743572235107,0.49856099486351013
1690898935119562208,,8412,,1690898935,119509323,"""world""",,,3.571091890335083,3.6708269119262695,0.4998764097690582
1690898935129571715,,8413,,1690898935,129502242,"""world""",,,3.57055926322937,3.670433521270752,0.5018332004547119
1690898935139566104,,8414,,1690898935,139496551,"""world""",,,3.570791721343994,3.6709561347961426,0.5029103755950928
1690898935149559822,,8415,,1690898935,149502869,"""world""",,,3.570645809173584,3.6709651947021484,0.5041792392730713
1690898935159667325,,8416,,1690898935,159524123,"""world""",,,3.5703232288360596,3.671067237854004,0.5058053731918335
1690898935169575741,,8417,,1690898935,169494053,"""world""",,,3.570115566253662,3.671215295791626,0.507425844669342
1690898935179546475,,8418,,1690898935,179485900,"""world""",,,3.5699429512023926,3.671238899230957,0.5087757110595703
1690898935189520476,,8419,,1690898935,189468970,"""world""",,,3.5696475505828857,3.6713316440582275,0.5104315280914307
1690898935199671004,,8420,,1690898935,199552023,"""world""",,,3.569498300552368,3.671360731124878,0.5118606090545654
1690898935209559753,,8421,,1690898935,209488189,"""world""",,,3.569185495376587,3.6715219020843506,0.5133832097053528
1690898935219501845,,8422,,1690898935,219454982,"""world""",,,3.5686888694763184,3.671452522277832,0.5150012969970703
1690898935229627287,,8423,,1690898935,229511260,"""world""",,,3.568000555038452,3.671482563018799,0.5167890787124634
1690898935239578828,,8424,,1690898935,239504070,"""world""",,,3.568678617477417,3.6716465950012207,0.5179980993270874
1690898935249571588,,8425,,1690898935,249492697,"""world""",,,3.568049907684326,3.6717588901519775,0.519760012626648
1690898935259668965,,8426,,1690898935,259513574,"""world""",,,3.56846022605896,3.6718337535858154,0.52093905210495
1690898935269546611,,8427,,1690898935,269484490,"""world""",,,3.568108558654785,3.671943426132202,0.5226567387580872
1690898935279531692,,8428,,1690898935,279473393,"""world""",,,3.5678579807281494,3.671968936920166,0.5242511034011841
1690898935289575989,,8429,,1690898935,289489726,"""world""",,,3.5677382946014404,3.6720786094665527,0.5257979035377502
1690898935299570868,,8430,,1690898935,299494203,"""world""",,,3.5675647258758545,3.672271490097046,0.5272718071937561
1690898935309564704,,8431,,1690898935,309488114,"""world""",,,3.567201852798462,3.6722071170806885,0.5291585922241211
1690898935319553036,,8432,,1690898935,319485288,"""world""",,,3.566938877105713,3.6723742485046387,0.5306499004364014
1690898935329568114,,8433,,1690898935,329490961,"""world""",,,3.56681227684021,3.672539234161377,0.5322710275650024
1690898935339594697,,8434,,1690898935,339504144,"""world""",,,3.56654953956604,3.672910213470459,0.5336299538612366
1690898935349564789,,8435,,1690898935,349492818,"""world""",,,3.565122127532959,3.67277455329895,0.5361254811286926
1690898935359693768,,8436,,1690898935,359523067,"""world""",,,3.5648488998413086,3.6729676723480225,0.5376574993133545
1690898935369553260,,8437,,1690898935,369484771,"""world""",,,3.5645365715026855,3.6729843616485596,0.5393797159194946
1690898935379550705,,8438,,1690898935,379488217,"""world""",,,3.5645461082458496,3.6730854511260986,0.5409095287322998
1690898935389556223,,8439,,1690898935,389489753,"""world""",,,3.5641610622406006,3.6733038425445557,0.542812168598175
1690898935399566931,,8440,,1690898935,399493905,"""world""",,,3.5639488697052,3.673682451248169,0.5442082285881042
1690898935409552363,,8441,,1690898935,409487172,"""world""",,,3.563788652420044,3.673861265182495,0.5458354353904724
1690898935419575080,,8442,,1690898935,419489560,"""world""",,,3.5634660720825195,3.6737241744995117,0.5477625131607056
1690898935429536054,,8443,,1690898935,429468098,"""world""",,,3.564410924911499,3.674516439437866,0.5486899614334106
1690898935439589128,,8444,,1690898935,439493517,"""world""",,,3.5642924308776855,3.674659013748169,0.5503491759300232
1690898935449558073,,8445,,1690898935,449490232,"""world""",,,3.563605785369873,3.6744649410247803,0.5525782704353333
1690898935459581635,,8446,,1690898935,459493747,"""world""",,,3.563608169555664,3.675175905227661,0.5539206266403198
1690898935469540721,,8447,,1690898935,469482250,"""world""",,,3.5634868144989014,3.675290584564209,0.5556572079658508
1690898935479535663,,8448,,1690898935,479463198,"""world""",,,3.5632667541503906,3.6754093170166016,0.557420551776886
1690898935489540519,,8449,,1690898935,489485149,"""world""",,,3.562803268432617,3.6757619380950928,0.5591248869895935
1690898935499571526,,8450,,1690898935,499477995,"""world""",,,3.5625343322753906,3.6760051250457764,0.5609219670295715
1690898935509507121,,8451,,1690898935,509442442,"""world""",,,3.5624067783355713,3.676168203353882,0.5625556111335754
1690898935519555753,,8452,,1690898935,519484640,"""world""",,,3.562065362930298,3.6764020919799805,0.5643444657325745
1690898935529568719,,8453,,1690898935,529492262,"""world""",,,3.561760902404785,3.676607847213745,0.5660129189491272
