rosbagTimestamp,header,seq,stamp,secs,nsecs,frame_id,pose,position,x,y,z
1690900117629640750,,40222,,1690900117,629504086,"""world""",,,3.6563150882720947,3.606558084487915,0.28595563769340515
1690900117639554719,,40223,,1690900117,639473242,"""world""",,,3.6572561264038086,3.6063692569732666,0.2856289744377136
1690900117649555429,,40224,,1690900117,649491839,"""world""",,,3.6563515663146973,3.606668472290039,0.28590813279151917
1690900117659600234,,40225,,1690900117,659498732,"""world""",,,3.657022714614868,3.6064791679382324,0.2855653166770935
1690900117669563809,,40226,,1690900117,669495181,"""world""",,,3.6563782691955566,3.6066691875457764,0.2859452962875366
1690900117679609646,,40227,,1690900117,679496932,"""world""",,,3.6571927070617676,3.6064836978912354,0.28567302227020264
1690900117689603085,,40228,,1690900117,689495048,"""world""",,,3.6573646068573,3.606431484222412,0.2856423258781433
1690900117699542647,,40229,,1690900117,699484844,"""world""",,,3.65641713142395,3.6067240238189697,0.28596556186676025
1690900117709565171,,40230,,1690900117,709500543,"""world""",,,3.656515121459961,3.6065104007720947,0.2860639691352844
1690900117719542399,,40231,,1690900117,719485873,"""world""",,,3.656606435775757,3.606621026992798,0.28598296642303467
1690900117729613254,,40232,,1690900117,729498907,"""world""",,,3.656472682952881,3.606574058532715,0.28617560863494873
1690900117739596410,,40233,,1690900117,739496157,"""world""",,,3.6566455364227295,3.606569528579712,0.2861476242542267
1690900117749600187,,40234,,1690900117,749506249,"""world""",,,3.6566762924194336,3.6065263748168945,0.28611353039741516
1690900117759539019,,40235,,1690900117,759450565,"""world""",,,3.6575772762298584,3.60659122467041,0.285497784614563
1690900117769515144,,40236,,1690900117,769470612,"""world""",,,3.6567282676696777,3.606592893600464,0.2861030697822571
1690900117779589581,,40237,,1690900117,779494092,"""world""",,,3.656733512878418,3.6066508293151855,0.28613850474357605
1690900117789601442,,40238,,1690900117,789489697,"""world""",,,3.6567788124084473,3.606687307357788,0.2861391603946686
1690900117799556372,,40239,,1690900117,799486779,"""world""",,,3.657562255859375,3.6067450046539307,0.28558847308158875
1690900117809566934,,40240,,1690900117,809483366,"""world""",,,3.6568148136138916,3.6067073345184326,0.2861514985561371
1690900117819582904,,40241,,1690900117,819478561,"""world""",,,3.656818389892578,3.6066811084747314,0.28616514801979065
1690900117829571231,,40242,,1690900117,829489962,"""world""",,,3.656869888305664,3.6067168712615967,0.2861286699771881
1690900117839574684,,40243,,1690900117,839486388,"""world""",,,3.6569201946258545,3.606788396835327,0.28606846928596497
1690900117849570355,,40244,,1690900117,849503404,"""world""",,,3.656914472579956,3.6067397594451904,0.2861643135547638
1690900117859549729,,40245,,1690900117,859483780,"""world""",,,3.6569089889526367,3.606790542602539,0.286160945892334
1690900117869517387,,40246,,1690900117,869469008,"""world""",,,3.6569371223449707,3.6067769527435303,0.2861679494380951
1690900117879593206,,40247,,1690900117,879489108,"""world""",,,3.6571624279022217,3.606811761856079,0.28614503145217896
1690900117889584845,,40248,,1690900117,889487530,"""world""",,,3.656968593597412,3.6068739891052246,0.28618714213371277
1690900117899540909,,40249,,1690900117,899474790,"""world""",,,3.6570041179656982,3.606928586959839,0.2861592769622803
1690900117909546952,,40250,,1690900117,909485738,"""world""",,,3.6571033000946045,3.6069798469543457,0.286172479391098
1690900117919570284,,40251,,1690900117,919491043,"""world""",,,3.657101631164551,3.6070058345794678,0.2862221300601959
1690900117929563508,,40252,,1690900117,929489414,"""world""",,,3.657149076461792,3.6070804595947266,0.2862565815448761
1690900117939586961,,40253,,1690900117,939494751,"""world""",,,3.657909631729126,3.606975555419922,0.28604617714881897
1690900117949670815,,40254,,1690900117,949517802,"""world""",,,3.658041000366211,3.607090473175049,0.28617045283317566
1690900117959558951,,40255,,1690900117,959497005,"""world""",,,3.657726764678955,3.607233762741089,0.2862853705883026
1690900117969528733,,40256,,1690900117,969476298,"""world""",,,3.6582553386688232,3.6071319580078125,0.28617411851882935
1690900117979772445,,40257,,1690900117,979535464,"""world""",,,3.657583475112915,3.607405424118042,0.28643953800201416
1690900117989575483,,40258,,1690900117,989490103,"""world""",,,3.657822370529175,3.6073927879333496,0.2864566147327423
1690900117999539498,,40259,,1690900117,999482614,"""world""",,,3.657792806625366,3.6074893474578857,0.28638985753059387
1690900118009559720,,40260,,1690900118,9497445,"""world""",,,3.657902240753174,3.6074724197387695,0.28634101152420044
1690900118019548218,,40261,,1690900118,19486907,"""world""",,,3.658212661743164,3.6075167655944824,0.2862092852592468
1690900118029569202,,40262,,1690900118,29492930,"""world""",,,3.65824818611145,3.6075992584228516,0.2862856090068817
1690900118039629745,,40263,,1690900118,39503008,"""world""",,,3.65836238861084,3.6075479984283447,0.28623929619789124
1690900118049571335,,40264,,1690900118,49490866,"""world""",,,3.658632516860962,3.607558012008667,0.28608235716819763
1690900118059542766,,40265,,1690900118,59486126,"""world""",,,3.658921241760254,3.607478380203247,0.2859153151512146
1690900118069519007,,40266,,1690900118,69471447,"""world""",,,3.659480571746826,3.6073226928710938,0.28563958406448364
1690900118079611991,,40267,,1690900118,79502383,"""world""",,,3.659963846206665,3.607163190841675,0.285348117351532
1690900118089575668,,40268,,1690900118,89494282,"""world""",,,3.66059947013855,3.6069271564483643,0.28519293665885925
1690900118099531543,,40269,,1690900118,99476722,"""world""",,,3.6610987186431885,3.6067047119140625,0.28523772954940796
1690900118109650356,,40270,,1690900118,109513086,"""world""",,,3.6613690853118896,3.606609582901001,0.2852342128753662
1690900118119557431,,40271,,1690900118,119490103,"""world""",,,3.660897731781006,3.6063661575317383,0.285627543926239
1690900118129553023,,40272,,1690900118,129486116,"""world""",,,3.6621572971343994,3.6063687801361084,0.28492313623428345
1690900118139588203,,40273,,1690900118,139495806,"""world""",,,3.6613731384277344,3.6060802936553955,0.28558722138404846
1690900118149574745,,40274,,1690900118,149492361,"""world""",,,3.6617109775543213,3.6059982776641846,0.28544747829437256
1690900118159516870,,40275,,1690900118,159458003,"""world""",,,3.662689208984375,3.6057381629943848,0.28512099385261536
1690900118169561832,,40276,,1690900118,169484696,"""world""",,,3.663295030593872,3.6055474281311035,0.285009503364563
1690900118179580927,,40277,,1690900118,179472792,"""world""",,,3.6636979579925537,3.6053731441497803,0.28514742851257324
1690900118189572846,,40278,,1690900118,189486233,"""world""",,,3.664071559906006,3.6054069995880127,0.28500550985336304
1690900118199539161,,40279,,1690900118,199480175,"""world""",,,3.664339542388916,3.605551242828369,0.2848334312438965
1690900118209562449,,40280,,1690900118,209503641,"""world""",,,3.6646180152893066,3.6055104732513428,0.2847638428211212
1690900118219551716,,40281,,1690900118,219473509,"""world""",,,3.6648550033569336,3.605545997619629,0.2846551537513733
1690900118229566245,,40282,,1690900118,229488669,"""world""",,,3.6637890338897705,3.605717658996582,0.285451203584671
1690900118239581598,,40283,,1690900118,239472534,"""world""",,,3.6645500659942627,3.6054484844207764,0.28519290685653687
1690900118249563230,,40284,,1690900118,249492281,"""world""",,,3.6654186248779297,3.605339288711548,0.28502917289733887
1690900118259544280,,40285,,1690900118,259485385,"""world""",,,3.6658480167388916,3.6051530838012695,0.2850845158100128
1690900118269570242,,40286,,1690900118,269485483,"""world""",,,3.666095733642578,3.605363368988037,0.28488507866859436
1690900118279657111,,40287,,1690900118,279522925,"""world""",,,3.6668808460235596,3.6055431365966797,0.28475046157836914
1690900118289584754,,40288,,1690900118,289488937,"""world""",,,3.6671531200408936,3.605605363845825,0.28467872738838196
1690900118299572061,,40289,,1690900118,299485958,"""world""",,,3.6664392948150635,3.605372905731201,0.28545764088630676
1690900118309567980,,40290,,1690900118,309487430,"""world""",,,3.666774034500122,3.605487108230591,0.28543612360954285
1690900118319562879,,40291,,1690900118,319485931,"""world""",,,3.6670987606048584,3.605513572692871,0.2853127121925354
1690900118329674987,,40292,,1690900118,329509325,"""world""",,,3.6674251556396484,3.605527877807617,0.28523534536361694
1690900118339575571,,40293,,1690900118,339488094,"""world""",,,3.6680872440338135,3.605556011199951,0.28505074977874756
1690900118349569583,,40294,,1690900118,349486511,"""world""",,,3.6681270599365234,3.605666399002075,0.2850683331489563
1690900118359557882,,40295,,1690900118,359485040,"""world""",,,3.668287754058838,3.6057920455932617,0.2850552797317505
1690900118369546524,,40296,,1690900118,369485078,"""world""",,,3.6695048809051514,3.605738878250122,0.2847384512424469
1690900118379639592,,40297,,1690900118,379525138,"""world""",,,3.6699154376983643,3.605788230895996,0.28465643525123596
1690900118389623458,,40298,,1690900118,389509551,"""world""",,,3.6704273223876953,3.605738639831543,0.2846416234970093
1690900118399566168,,40299,,1690900118,399487700,"""world""",,,3.6705472469329834,3.605839729309082,0.2845829129219055
1690900118409537793,,40300,,1690900118,409482075,"""world""",,,3.6708366870880127,3.605783224105835,0.28466320037841797
1690900118419597739,,40301,,1690900118,419513356,"""world""",,,3.671154260635376,3.60581111907959,0.28458282351493835
1690900118429621353,,40302,,1690900118,429493634,"""world""",,,3.67156982421875,3.605809211730957,0.2845678925514221
1690900118439572006,,40303,,1690900118,439489418,"""world""",,,3.671783685684204,3.6058685779571533,0.28454601764678955
1690900118449552513,,40304,,1690900118,449491566,"""world""",,,3.67214035987854,3.605942487716675,0.28447285294532776
1690900118459627204,,40305,,1690900118,459513824,"""world""",,,3.6724867820739746,3.606041193008423,0.2844510078430176
1690900118469538524,,40306,,1690900118,469481348,"""world""",,,3.6728084087371826,3.6060657501220703,0.28443169593811035
1690900118479551311,,40307,,1690900118,479456830,"""world""",,,3.672926664352417,3.6061484813690186,0.28473007678985596
1690900118489602328,,40308,,1690900118,489497143,"""world""",,,3.6733717918395996,3.6061084270477295,0.2843235731124878
1690900118499551710,,40309,,1690900118,499485219,"""world""",,,3.672562599182129,3.6058363914489746,0.2852042317390442
1690900118509515275,,40310,,1690900118,509451571,"""world""",,,3.6731350421905518,3.6058847904205322,0.2850368320941925
1690900118519564173,,40311,,1690900118,519488964,"""world""",,,3.6740520000457764,3.6061785221099854,0.2845678925514221
1690900118529608260,,40312,,1690900118,529513340,"""world""",,,3.6742446422576904,3.606276035308838,0.2845921814441681
1690900118539558755,,40313,,1690900118,539488215,"""world""",,,3.674429178237915,3.6062510013580322,0.284584105014801
1690900118549572759,,40314,,1690900118,549491122,"""world""",,,3.6744542121887207,3.6063406467437744,0.28461822867393494
1690900118559568420,,40315,,1690900118,559487006,"""world""",,,3.674802541732788,3.6064059734344482,0.2846051752567291
1690900118569528639,,40316,,1690900118,569471862,"""world""",,,3.6750235557556152,3.6064891815185547,0.2845872640609741
1690900118579679411,,40317,,1690900118,579538067,"""world""",,,3.675591468811035,3.606416940689087,0.28453683853149414
1690900118589585473,,40318,,1690900118,589492890,"""world""",,,3.675790309906006,3.6064419746398926,0.28470951318740845
1690900118599556745,,40319,,1690900118,599486477,"""world""",,,3.676058530807495,3.6064112186431885,0.2846311330795288
1690900118609517185,,40320,,1690900118,609452596,"""world""",,,3.6763651371002197,3.6065590381622314,0.28463539481163025
1690900118619624104,,40321,,1690900118,619500297,"""world""",,,3.6765530109405518,3.606337308883667,0.28495705127716064
1690900118629602227,,40322,,1690900118,629494054,"""world""",,,3.676722526550293,3.6064605712890625,0.2849370539188385
1690900118639582941,,40323,,1690900118,639490683,"""world""",,,3.676797866821289,3.6065773963928223,0.28496071696281433
1690900118649615416,,40324,,1690900118,649509299,"""world""",,,3.6772024631500244,3.606593132019043,0.2848910689353943
1690900118659535003,,40325,,1690900118,659465565,"""world""",,,3.6776154041290283,3.6066465377807617,0.2848008871078491
1690900118669530780,,40326,,1690900118,669470467,"""world""",,,3.6779749393463135,3.606642484664917,0.28476691246032715
1690900118679629814,,40327,,1690900118,679520600,"""world""",,,3.678032398223877,3.6065945625305176,0.2848999500274658
1690900118689582775,,40328,,1690900118,689491532,"""world""",,,3.6776626110076904,3.606703042984009,0.28510069847106934
1690900118699546159,,40329,,1690900118,699480849,"""world""",,,3.6785309314727783,3.60654354095459,0.2850200831890106
1690900118709563881,,40330,,1690900118,709494898,"""world""",,,3.6779839992523193,3.606745481491089,0.2852550446987152
1690900118719560613,,40331,,1690900118,719466974,"""world""",,,3.6783242225646973,3.6067862510681152,0.28519198298454285
1690900118729551801,,40332,,1690900118,729457958,"""world""",,,3.6786394119262695,3.606865882873535,0.2851308584213257
1690900118739533525,,40333,,1690900118,739455248,"""world""",,,3.6792478561401367,3.606975793838501,0.2849465012550354
1690900118749649131,,40334,,1690900118,749512468,"""world""",,,3.679682731628418,3.6070971488952637,0.28486695885658264
1690900118759546303,,40335,,1690900118,759484013,"""world""",,,3.6806228160858154,3.6072049140930176,0.28456059098243713
1690900118769529442,,40336,,1690900118,769473649,"""world""",,,3.6808249950408936,3.6072704792022705,0.2846166491508484
1690900118779820518,,40337,,1690900118,779558141,"""world""",,,3.681227445602417,3.6073720455169678,0.28452375531196594
1690900118789580992,,40338,,1690900118,789489539,"""world""",,,3.681222677230835,3.607120990753174,0.2849760949611664
1690900118799536399,,40339,,1690900118,799478338,"""world""",,,3.6808767318725586,3.6073315143585205,0.2850458323955536
1690900118809557366,,40340,,1690900118,809493292,"""world""",,,3.681260824203491,3.607553720474243,0.2848140299320221
1690900118819542277,,40341,,1690900118,819472170,"""world""",,,3.681858539581299,3.6075828075408936,0.2845636308193207
1690900118829597426,,40342,,1690900118,829505967,"""world""",,,3.6820945739746094,3.6076791286468506,0.28454872965812683
1690900118839613771,,40343,,1690900118,839510519,"""world""",,,3.6823039054870605,3.6077394485473633,0.2844994068145752
1690900118849551043,,40344,,1690900118,849474668,"""world""",,,3.682616710662842,3.6077797412872314,0.2844662070274353
1690900118859514164,,40345,,1690900118,859451500,"""world""",,,3.682821273803711,3.6076860427856445,0.28444790840148926
1690900118869527788,,40346,,1690900118,869473474,"""world""",,,3.6832401752471924,3.607694387435913,0.2844414710998535
1690900118879639165,,40347,,1690900118,879516567,"""world""",,,3.68357253074646,3.6077232360839844,0.28444576263427734
1690900118889572084,,40348,,1690900118,889490201,"""world""",,,3.6837844848632812,3.6079940795898438,0.2844182848930359
1690900118899533602,,40349,,1690900118,899477107,"""world""",,,3.6839406490325928,3.608022689819336,0.28442636132240295
1690900118909710696,,40350,,1690900118,909596035,"""world""",,,3.683729410171509,3.608015298843384,0.2846970856189728
1690900118919561459,,40351,,1690900118,919487648,"""world""",,,3.6843369007110596,3.608107328414917,0.28443941473960876
1690900118929626650,,40352,,1690900118,929474466,"""world""",,,3.6839210987091064,3.6082136631011963,0.2848139703273773
1690900118939623730,,40353,,1690900118,939500765,"""world""",,,3.6841049194335938,3.608238458633423,0.28488844633102417
1690900118949574195,,40354,,1690900118,949484787,"""world""",,,3.6845576763153076,3.6083571910858154,0.28483209013938904
1690900118959565553,,40355,,1690900118,959497375,"""world""",,,3.6848301887512207,3.6083528995513916,0.2849062383174896
1690900118969602023,,40356,,1690900118,969485102,"""world""",,,3.685148239135742,3.60844349861145,0.28496986627578735
1690900118979631308,,40357,,1690900118,979524351,"""world""",,,3.6853086948394775,3.6085782051086426,0.28502780199050903
1690900118989626073,,40358,,1690900118,989496720,"""world""",,,3.6856276988983154,3.608569383621216,0.2850462794303894
1690900118999504626,,40359,,1690900118,999451454,"""world""",,,3.6859657764434814,3.608705520629883,0.28501784801483154
1690900119009572684,,40360,,1690900119,9473051,"""world""",,,3.6856532096862793,3.6089072227478027,0.28527921438217163
1690900119019567237,,40361,,1690900119,19486172,"""world""",,,3.6860973834991455,3.6090707778930664,0.2852449417114258
1690900119029606648,,40362,,1690900119,29498358,"""world""",,,3.6863975524902344,3.60921573638916,0.2853430211544037
1690900119159545630,,40363,,1690900119,159481662,"""world""",,,3.6866936683654785,3.6094119548797607,0.2853485345840454
1690900119169503671,,40364,,1690900119,169437005,"""world""",,,3.685725212097168,3.6096031665802,0.28577762842178345
1690900119169542458,,40365,,1690900119,169460264,"""world""",,,3.685865640640259,3.609766960144043,0.2858964204788208
1690900119169549735,,40368,,1690900119,169481675,"""world""",,,3.6862123012542725,3.6101670265197754,0.2862238883972168
1690900119169570470,,40369,,1690900119,169495950,"""world""",,,3.6866230964660645,3.61051607131958,0.28611063957214355
1690900119169572870,,40372,,1690900119,169519010,"""world""",,,3.6873786449432373,3.611032247543335,0.28633975982666016
1690900119169601265,,40373,,1690900119,169530035,"""world""",,,3.6875832080841064,3.611194610595703,0.286615252494812
1690900119169605062,,40376,,1690900119,169549569,"""world""",,,3.6892004013061523,3.6121087074279785,0.28584739565849304
1690900119179580985,,40377,,1690900119,179494019,"""world""",,,3.689552068710327,3.6122591495513916,0.28587350249290466
1690900119189566087,,40378,,1690900119,189488203,"""world""",,,3.6898179054260254,3.612423896789551,0.28589752316474915
1690900119309556998,,40379,,1690900119,309489705,"""world""",,,3.6899025440216064,3.6126229763031006,0.28593868017196655
1690900119309585422,,40380,,1690900119,309514479,"""world""",,,3.6896822452545166,3.6126837730407715,0.28626254200935364
1690900119309606298,,40383,,1690900119,309536544,"""world""",,,3.6904749870300293,3.6132123470306396,0.2863248586654663
1690900119309609508,,40384,,1690900119,309548330,"""world""",,,3.690133571624756,3.6133477687835693,0.28654202818870544
1690900119309618617,,40387,,1690900119,309567510,"""world""",,,3.690553903579712,3.613624095916748,0.28697168827056885
1690900119309661980,,40388,,1690900119,309580996,"""world""",,,3.6906840801239014,3.613844633102417,0.2869323194026947
1690900119309665609,,40390,,1690900119,309605106,"""world""",,,3.6910364627838135,3.614243745803833,0.2869994640350342
1690900119319555529,,40391,,1690900119,319469564,"""world""",,,3.691197395324707,3.6144497394561768,0.28705260157585144
1690900119329569157,,40392,,1690900119,329492936,"""world""",,,3.692415952682495,3.6149251461029053,0.28655484318733215
1690900119359590235,,40393,,1690900119,359488214,"""world""",,,3.692319631576538,3.6151676177978516,0.28662991523742676
1690900119359599146,,40394,,1690900119,359513796,"""world""",,,3.6928625106811523,3.6153790950775146,0.2864838242530823
1690900119359606982,,40395,,1690900119,359521244,"""world""",,,3.692854642868042,3.6157076358795166,0.28668251633644104
1690900119369523269,,40396,,1690900119,369471833,"""world""",,,3.6923303604125977,3.615870714187622,0.28703173995018005
1690900119379542054,,40397,,1690900119,379479147,"""world""",,,3.692519426345825,3.616084098815918,0.287103533744812
1690900119419666275,,40398,,1690900119,419517506,"""world""",,,3.692974805831909,3.61639666557312,0.2870899438858032
1690900119419674340,,40399,,1690900119,419551023,"""world""",,,3.693157434463501,3.616694927215576,0.2871529459953308
1690900119419678893,,40400,,1690900119,419576357,"""world""",,,3.6930158138275146,3.6169841289520264,0.287413626909256
1690900119419681781,,40401,,1690900119,419593969,"""world""",,,3.6938343048095703,3.617330312728882,0.2872920334339142
1690900119429562364,,40402,,1690900119,429492626,"""world""",,,3.693333625793457,3.6174795627593994,0.2875627279281616
1690900119439601979,,40403,,1690900119,439493815,"""world""",,,3.693618059158325,3.617764711380005,0.28761887550354004
1690900119499524166,,40404,,1690900119,499450308,"""world""",,,3.6941471099853516,3.618191719055176,0.287401407957077
1690900119499534324,,40405,,1690900119,499462330,"""world""",,,3.694100856781006,3.618436813354492,0.287506639957428
1690900119499539095,,40406,,1690900119,499474826,"""world""",,,3.6944031715393066,3.6186652183532715,0.28768977522850037
1690900119499556610,,40409,,1690900119,499489250,"""world""",,,3.695005178451538,3.6190829277038574,0.28812456130981445
1690900119509554989,,40410,,1690900119,509485894,"""world""",,,3.6952507495880127,3.619347095489502,0.2881999909877777
1690900119519598935,,40411,,1690900119,519495282,"""world""",,,3.6954715251922607,3.6197597980499268,0.28834179043769836
1690900119529535739,,40412,,1690900119,529468420,"""world""",,,3.695669412612915,3.620065689086914,0.2883363664150238
1690900119539577871,,40413,,1690900119,539493235,"""world""",,,3.6959242820739746,3.620351552963257,0.28838130831718445
1690900119549721240,,40414,,1690900119,549560541,"""world""",,,3.6963329315185547,3.620828628540039,0.2881718873977661
1690900119559555651,,40415,,1690900119,559486191,"""world""",,,3.6974449157714844,3.6212615966796875,0.28790906071662903
1690900119569524114,,40416,,1690900119,569470684,"""world""",,,3.6970791816711426,3.621450185775757,0.2881181240081787
1690900119579734169,,40417,,1690900119,579520493,"""world""",,,3.697334051132202,3.6217033863067627,0.28832709789276123
1690900119719571330,,40418,,1690900119,719492657,"""world""",,,3.6986711025238037,3.621994972229004,0.2880993187427521
1690900119719602797,,40419,,1690900119,719522001,"""world""",,,3.698749303817749,3.6221771240234375,0.28835415840148926
1690900119719609110,,40423,,1690900119,719550002,"""world""",,,3.6984760761260986,3.6236732006073,0.28916534781455994
1690900119719640116,,40424,,1690900119,719565560,"""world""",,,3.6988556385040283,3.6242401599884033,0.28893083333969116
1690900119719643620,,40428,,1690900119,719592928,"""world""",,,3.6997721195220947,3.6253409385681152,0.28946956992149353
1690900119719675934,,40429,,1690900119,719603583,"""world""",,,3.699913740158081,3.625858783721924,0.2893935739994049
1690900119719683185,,40431,,1690900119,719617461,"""world""",,,3.7004494667053223,3.626770496368408,0.2895234227180481
1690900119729572958,,40432,,1690900119,729487724,"""world""",,,3.700606346130371,3.627190351486206,0.2894577980041504
1690900119739687366,,40433,,1690900119,739519191,"""world""",,,3.7017757892608643,3.6276087760925293,0.2893854081630707
1690900119779609059,,40434,,1690900119,779501962,"""world""",,,3.701568126678467,3.6277031898498535,0.28955334424972534
1690900119779620552,,40435,,1690900119,779520126,"""world""",,,3.701843500137329,3.6281397342681885,0.289576917886734
1690900119779629087,,40436,,1690900119,779544442,"""world""",,,3.702131748199463,3.6285133361816406,0.2896186411380768
1690900119779635910,,40437,,1690900119,779550759,"""world""",,,3.7019641399383545,3.6291680335998535,0.29006436467170715
1690900119789564198,,40438,,1690900119,789489390,"""world""",,,3.7024285793304443,3.629747152328491,0.2900830805301666
1690900119819572438,,40439,,1690900119,819484458,"""world""",,,3.702730655670166,3.6304099559783936,0.28985247015953064
1690900119819578200,,40440,,1690900119,819506272,"""world""",,,3.703005313873291,3.6307437419891357,0.29013264179229736
1690900119819583992,,40441,,1690900119,819511544,"""world""",,,3.7032933235168457,3.631169319152832,0.29026415944099426
1690900119829595755,,40442,,1690900119,829509351,"""world""",,,3.7035210132598877,3.631718635559082,0.29023271799087524
1690900119839687830,,40443,,1690900119,839525600,"""world""",,,3.703907012939453,3.632110118865967,0.29047542810440063
1690900119959574622,,40444,,1690900119,959490314,"""world""",,,3.7041125297546387,3.632521867752075,0.2905532717704773
1690900119959580197,,40445,,1690900119,959504646,"""world""",,,3.7043707370758057,3.632981061935425,0.29066202044487
1690900119959633578,,40446,,1690900119,959520632,"""world""",,,3.7046844959259033,3.633606195449829,0.29081669449806213
1690900119959641174,,40453,,1690900119,959550491,"""world""",,,3.705876111984253,3.6369869709014893,0.29149821400642395
1690900119959645214,,40454,,1690900119,959564199,"""world""",,,3.7061352729797363,3.637507200241089,0.2915327250957489
1690900119959658721,,40455,,1690900119,959569655,"""world""",,,3.706575870513916,3.6381804943084717,0.29143303632736206
1690900119969563960,,40456,,1690900119,969497626,"""world""",,,3.706979990005493,3.638676404953003,0.29129254817962646
1690900119979599625,,40457,,1690900119,979502843,"""world""",,,3.707226276397705,3.639075994491577,0.29157599806785583
1690900119989566517,,40458,,1690900119,989492552,"""world""",,,3.7072768211364746,3.6396126747131348,0.2917778193950653
1690900120109570885,,40459,,1690900120,109492711,"""world""",,,3.707456350326538,3.639984369277954,0.2920100688934326
1690900120109609693,,40460,,1690900120,109520277,"""world""",,,3.707698345184326,3.64058518409729,0.2920919358730316
1690900120109613909,,40468,,1690900120,109552724,"""world""",,,3.709667682647705,3.6446425914764404,0.29250597953796387
1690900120109643928,,40469,,1690900120,109563849,"""world""",,,3.7099711894989014,3.645176410675049,0.29273760318756104
1690900120109651813,,40470,,1690900120,109573489,"""world""",,,3.711184024810791,3.646069288253784,0.2924259901046753
1690900120119559711,,40471,,1690900120,119492908,"""world""",,,3.7104105949401855,3.64633846282959,0.292881578207016
1690900120129614798,,40472,,1690900120,129511447,"""world""",,,3.710872173309326,3.6469249725341797,0.2927984595298767
1690900120139569503,,40473,,1690900120,139487994,"""world""",,,3.711148977279663,3.6475768089294434,0.2928101718425751
1690900120149569733,,40474,,1690900120,149494150,"""world""",,,3.7114098072052,3.6479833126068115,0.2929038405418396
1690900120159577508,,40475,,1690900120,159492321,"""world""",,,3.711617946624756,3.6484735012054443,0.2930864691734314
1690900120169517394,,40476,,1690900120,169472637,"""world""",,,3.7118077278137207,3.6489529609680176,0.2932702898979187
1690900120179578613,,40477,,1690900120,179492745,"""world""",,,3.7120859622955322,3.6494505405426025,0.29334884881973267
1690900120299586933,,40478,,1690900120,299486219,"""world""",,,3.7121403217315674,3.6500611305236816,0.2933562695980072
1690900120299590855,,40484,,1690900120,299529298,"""world""",,,3.7135977745056152,3.6533000469207764,0.2935841381549835
1690900120299593088,,40485,,1690900120,299544785,"""world""",,,3.7139203548431396,3.6539440155029297,0.2935606837272644
1690900120299611181,,40489,,1690900120,299561590,"""world""",,,3.715424060821533,3.6561460494995117,0.29378148913383484
1690900120309547165,,40490,,1690900120,309482024,"""world""",,,3.71526837348938,3.6567254066467285,0.29385262727737427
1690900120319591150,,40491,,1690900120,319494282,"""world""",,,3.7158007621765137,3.6574718952178955,0.2937364876270294
1690900120329542032,,40492,,1690900120,329472351,"""world""",,,3.7156262397766113,3.6578545570373535,0.293991357088089
1690900120339567625,,40493,,1690900120,339491165,"""world""",,,3.715430736541748,3.658203363418579,0.2941914498806
1690900120349644529,,40494,,1690900120,349517333,"""world""",,,3.715625286102295,3.6585912704467773,0.29436856508255005
1690900120359545717,,40495,,1690900120,359487858,"""world""",,,3.7157607078552246,3.6592023372650146,0.2944014370441437
1690900120369519997,,40496,,1690900120,369471617,"""world""",,,3.715813398361206,3.659611225128174,0.294609397649765
1690900120379685053,,40497,,1690900120,379510981,"""world""",,,3.7159597873687744,3.6602604389190674,0.29463082551956177
1690900120389612312,,40498,,1690900120,389498329,"""world""",,,3.7161202430725098,3.6608591079711914,0.2947123646736145
1690900120399539352,,40499,,1690900120,399483022,"""world""",,,3.7162559032440186,3.6613335609436035,0.294778436422348
1690900120529646925,,40500,,1690900120,529502580,"""world""",,,3.7163443565368652,3.661882162094116,0.29484817385673523
1690900120529657660,,40504,,1690900120,529549806,"""world""",,,3.7164855003356934,3.664430856704712,0.29526209831237793
1690900120529684683,,40505,,1690900120,529574111,"""world""",,,3.7168076038360596,3.6649155616760254,0.2953348457813263
1690900120529695031,,40508,,1690900120,529606667,"""world""",,,3.7168469429016113,3.666543960571289,0.2957417666912079
1690900120529699917,,40509,,1690900120,529623594,"""world""",,,3.716900587081909,3.667232036590576,0.29580873250961304
1690900120529730783,,40510,,1690900120,529631997,"""world""",,,3.7168128490448,3.66776442527771,0.2960678040981293
1690900120529739064,,40511,,1690900120,529644907,"""world""",,,3.7167952060699463,3.6683058738708496,0.2962362766265869
1690900120529745663,,40512,,1690900120,529665943,"""world""",,,3.716702699661255,3.6688485145568848,0.2964198887348175
1690900120539616497,,40513,,1690900120,539479230,"""world""",,,3.716862201690674,3.669494152069092,0.296468585729599
1690900120549564984,,40514,,1690900120,549492999,"""world""",,,3.716904878616333,3.67002534866333,0.2966279983520508
1690900120559550395,,40515,,1690900120,559487439,"""world""",,,3.716970205307007,3.6706624031066895,0.2967430353164673
1690900120589577368,,40516,,1690900120,589467141,"""world""",,,3.7168428897857666,3.6712262630462646,0.2970691919326782
1690900120589605234,,40517,,1690900120,589487756,"""world""",,,3.716966152191162,3.6718993186950684,0.2970341444015503
1690900120589613438,,40518,,1690900120,589510324,"""world""",,,3.7169833183288574,3.6724891662597656,0.2971820533275604
1690900120599592591,,40519,,1690900120,599495769,"""world""",,,3.716736078262329,3.6728596687316895,0.2974288761615753
1690900120619569422,,40520,,1690900120,619495359,"""world""",,,3.7165534496307373,3.6737453937530518,0.2973455786705017
1690900120619584272,,40521,,1690900120,619508173,"""world""",,,3.7168939113616943,3.6738672256469727,0.2975466847419739
1690900120629623222,,40522,,1690900120,629496907,"""world""",,,3.7169151306152344,3.6743624210357666,0.297652006149292
1690900120639738960,,40523,,1690900120,639524331,"""world""",,,3.7169508934020996,3.674847364425659,0.2976716160774231
1690900120649616368,,40524,,1690900120,649493086,"""world""",,,3.717003107070923,3.6752936840057373,0.29767268896102905
1690900120659566314,,40525,,1690900120,659488239,"""world""",,,3.7170369625091553,3.6757442951202393,0.2976536452770233
1690900120669572135,,40526,,1690900120,669488501,"""world""",,,3.7169530391693115,3.676154136657715,0.297578901052475
1690900120679569335,,40527,,1690900120,679491827,"""world""",,,3.716904401779175,3.6765732765197754,0.29754289984703064
1690900120689599603,,40528,,1690900120,689490763,"""world""",,,3.716892719268799,3.677039861679077,0.2975083589553833
1690900120699605867,,40529,,1690900120,699501682,"""world""",,,3.71697735786438,3.6772265434265137,0.29752418398857117
1690900120709534122,,40530,,1690900120,709447952,"""world""",,,3.717101573944092,3.6775479316711426,0.29736241698265076
1690900120719566803,,40531,,1690900120,719487803,"""world""",,,3.717172861099243,3.6778643131256104,0.29727283120155334
1690900120729691621,,40532,,1690900120,729517610,"""world""",,,3.717302083969116,3.678283214569092,0.29704007506370544
1690900120739574381,,40533,,1690900120,739456907,"""world""",,,3.71744704246521,3.6786208152770996,0.29701200127601624
1690900120749561871,,40534,,1690900120,749495578,"""world""",,,3.717576742172241,3.678816795349121,0.29707953333854675
1690900120759560738,,40535,,1690900120,759487508,"""world""",,,3.7177810668945312,3.678960084915161,0.2971118986606598
1690900120769551058,,40536,,1690900120,769486954,"""world""",,,3.717932939529419,3.6791958808898926,0.297228068113327
1690900120779541217,,40537,,1690900120,779472226,"""world""",,,3.7180142402648926,3.67932391166687,0.2973152995109558
1690900120789574668,,40538,,1690900120,789490798,"""world""",,,3.7181246280670166,3.679372549057007,0.2974138557910919
1690900120799574646,,40539,,1690900120,799484054,"""world""",,,3.7182106971740723,3.6795847415924072,0.29744958877563477
1690900120809554342,,40540,,1690900120,809487894,"""world""",,,3.7183451652526855,3.679730176925659,0.2973927855491638
1690900120819563702,,40541,,1690900120,819487471,"""world""",,,3.7184019088745117,3.6798198223114014,0.2973736822605133
1690900120829625960,,40542,,1690900120,829491453,"""world""",,,3.718463182449341,3.67997670173645,0.29727208614349365
1690900120839605282,,40543,,1690900120,839501641,"""world""",,,3.718463659286499,3.6800787448883057,0.2972216308116913
1690900120849627511,,40544,,1690900120,849512039,"""world""",,,3.7185096740722656,3.6801109313964844,0.29714441299438477
1690900120859579717,,40545,,1690900120,859491137,"""world""",,,3.718501329421997,3.6801815032958984,0.297071248292923
1690900120869542721,,40546,,1690900120,869484425,"""world""",,,3.7184700965881348,3.680285692214966,0.29704785346984863
1690900120879579174,,40547,,1690900120,879501340,"""world""",,,3.71854305267334,3.680297374725342,0.29704344272613525
1690900120889565158,,40548,,1690900120,889464760,"""world""",,,3.7185142040252686,3.6803462505340576,0.29705843329429626
1690900120899548477,,40549,,1690900120,899485250,"""world""",,,3.7185826301574707,3.6803619861602783,0.29709747433662415
1690900120909579439,,40550,,1690900120,909487082,"""world""",,,3.7187395095825195,3.680277109146118,0.29711484909057617
1690900120919575217,,40551,,1690900120,919489458,"""world""",,,3.7188401222229004,3.680241823196411,0.2971206307411194
1690900120929553147,,40552,,1690900120,929474422,"""world""",,,3.718923330307007,3.6801698207855225,0.2971102297306061
1690900120939624868,,40553,,1690900120,939505830,"""world""",,,3.7189857959747314,3.6800639629364014,0.29710501432418823
1690900120949562551,,40554,,1690900120,949497463,"""world""",,,3.718993902206421,3.6799874305725098,0.2970197796821594
1690900120959591067,,40555,,1690900120,959495669,"""world""",,,3.7190070152282715,3.6798534393310547,0.2969339191913605
1690900120969525988,,40556,,1690900120,969474551,"""world""",,,3.719024181365967,3.67962646484375,0.29679372906684875
1690900120979553569,,40557,,1690900120,979474320,"""world""",,,3.719045877456665,3.6794769763946533,0.2966564893722534
1690900120989615474,,40558,,1690900120,989511278,"""world""",,,3.7191405296325684,3.6792826652526855,0.29651808738708496
1690900120999552771,,40559,,1690900120,999483345,"""world""",,,3.719054937362671,3.6791601181030273,0.2964244484901428
1690900121009585394,,40560,,1690900121,9487787,"""world""",,,3.719191789627075,3.678819417953491,0.29632091522216797
1690900121019633194,,40561,,1690900121,19510988,"""world""",,,3.719158411026001,3.6785900592803955,0.2963516116142273
1690900121029564876,,40562,,1690900121,29491568,"""world""",,,3.7192673683166504,3.678287982940674,0.29628831148147583
1690900121039633235,,40563,,1690900121,39504748,"""world""",,,3.7193386554718018,3.6780364513397217,0.29630663990974426
1690900121049579490,,40564,,1690900121,49498093,"""world""",,,3.7193446159362793,3.677745819091797,0.29636475443840027
1690900121059555498,,40565,,1690900121,59486713,"""world""",,,3.719343900680542,3.677450656890869,0.2963634431362152
1690900121069523163,,40566,,1690900121,69469529,"""world""",,,3.719345808029175,3.6771445274353027,0.29632771015167236
1690900121079594439,,40567,,1690900121,79499507,"""world""",,,3.7192792892456055,3.6769180297851562,0.29630815982818604
1690900121089578399,,40568,,1690900121,89497780,"""world""",,,3.7192225456237793,3.676704168319702,0.2962121367454529
1690900121099548636,,40569,,1690900121,99487068,"""world""",,,3.7189438343048096,3.676384449005127,0.29619941115379333
1690900121109578476,,40570,,1690900121,109489747,"""world""",,,3.7189435958862305,3.6760942935943604,0.29600992798805237
1690900121119584706,,40571,,1690900121,119492946,"""world""",,,3.7187297344207764,3.6757779121398926,0.2958696782588959
1690900121129574950,,40572,,1690900121,129490703,"""world""",,,3.718553304672241,3.675480842590332,0.29568997025489807
1690900121139579752,,40573,,1690900121,139494227,"""world""",,,3.718465566635132,3.675128698348999,0.29552796483039856
1690900121149610003,,40574,,1690900121,149494307,"""world""",,,3.718378782272339,3.674582004547119,0.2955205738544464
1690900121159550420,,40575,,1690900121,159484086,"""world""",,,3.7183103561401367,3.6741466522216797,0.29536518454551697
1690900121169519708,,40576,,1690900121,169467890,"""world""",,,3.7183218002319336,3.6736152172088623,0.29516565799713135
1690900121179722994,,40577,,1690900121,179543830,"""world""",,,3.7183120250701904,3.673083782196045,0.2949348986148834
1690900121189574400,,40578,,1690900121,189483111,"""world""",,,3.718257188796997,3.672635078430176,0.29462090134620667
1690900121199521924,,40579,,1690900121,199460505,"""world""",,,3.71830415725708,3.6720049381256104,0.2943550646305084
1690900121209651773,,40580,,1690900121,209520235,"""world""",,,3.71825909614563,3.6714437007904053,0.2940608263015747
1690900121219555645,,40581,,1690900121,219486666,"""world""",,,3.7181992530822754,3.670738935470581,0.29394322633743286
1690900121229575422,,40582,,1690900121,229488794,"""world""",,,3.7182090282440186,3.670334577560425,0.29364609718322754
1690900121239605145,,40583,,1690900121,239501858,"""world""",,,3.7181785106658936,3.6698129177093506,0.29327914118766785
1690900121249549409,,40584,,1690900121,249473184,"""world""",,,3.7183263301849365,3.669156551361084,0.2930627465248108
1690900121259525408,,40585,,1690900121,259465923,"""world""",,,3.7183687686920166,3.668311595916748,0.29291874170303345
1690900121269525601,,40586,,1690900121,269471886,"""world""",,,3.7186219692230225,3.667637348175049,0.29255950450897217
1690900121279572731,,40587,,1690900121,279487876,"""world""",,,3.7187225818634033,3.6669275760650635,0.29232364892959595
1690900121289578802,,40588,,1690900121,289495478,"""world""",,,3.718801736831665,3.6661691665649414,0.29211539030075073
1690900121299505842,,40589,,1690900121,299448355,"""world""",,,3.718949556350708,3.6654789447784424,0.2918272614479065
1690900121309618024,,40590,,1690900121,309469171,"""world""",,,3.7188656330108643,3.6646602153778076,0.29171130061149597
1690900121319566086,,40591,,1690900121,319490482,"""world""",,,3.7193942070007324,3.664449691772461,0.2910856008529663
1690900121329578620,,40592,,1690900121,329496510,"""world""",,,3.7188079357147217,3.6632237434387207,0.29131874442100525
1690900121339609785,,40593,,1690900121,339482022,"""world""",,,3.718886375427246,3.66245174407959,0.29099082946777344
1690900121349557108,,40594,,1690900121,349485434,"""world""",,,3.718860387802124,3.661555528640747,0.2907783091068268
1690900121359549905,,40595,,1690900121,359487386,"""world""",,,3.7188377380371094,3.660691499710083,0.2904355823993683
1690900121369647679,,40596,,1690900121,369505584,"""world""",,,3.718759775161743,3.659832239151001,0.290130078792572
1690900121379624941,,40597,,1690900121,379525690,"""world""",,,3.7186858654022217,3.6590495109558105,0.2897596061229706
1690900121389562754,,40598,,1690900121,389487109,"""world""",,,3.718660831451416,3.6581218242645264,0.28947287797927856
1690900121399543268,,40599,,1690900121,399479704,"""world""",,,3.7186570167541504,3.657245397567749,0.2892419695854187
1690900121409576699,,40600,,1690900121,409487258,"""world""",,,3.718614101409912,3.656416416168213,0.2889801263809204
1690900121419555873,,40601,,1690900121,419486665,"""world""",,,3.7184865474700928,3.655540704727173,0.2888719439506531
1690900121429565124,,40602,,1690900121,429489477,"""world""",,,3.719330310821533,3.654620885848999,0.28858682513237
1690900121439686024,,40603,,1690900121,439505977,"""world""",,,3.7183258533477783,3.6537060737609863,0.28843480348587036
1690900121449555117,,40604,,1690900121,449490932,"""world""",,,3.7184977531433105,3.653146505355835,0.2881009578704834
1690900121459579745,,40605,,1690900121,459516343,"""world""",,,3.718712568283081,3.652215003967285,0.28746771812438965
1690900121469567018,,40606,,1690900121,469487791,"""world""",,,3.7183640003204346,3.651515483856201,0.2873774468898773
1690900121479602879,,40607,,1690900121,479509658,"""world""",,,3.717980146408081,3.6504065990448,0.28749364614486694
1690900121489571907,,40608,,1690900121,489490490,"""world""",,,3.7172422409057617,3.64943790435791,0.28745996952056885
1690900121499588277,,40609,,1690900121,499491460,"""world""",,,3.716794013977051,3.6485958099365234,0.28738531470298767
1690900121509583025,,40610,,1690900121,509490732,"""world""",,,3.7165045738220215,3.6478021144866943,0.2871405780315399
1690900121519549316,,40611,,1690900121,519477424,"""world""",,,3.716094970703125,3.6468002796173096,0.2871360182762146
1690900121529685451,,40612,,1690900121,529513756,"""world""",,,3.7158257961273193,3.6459670066833496,0.28699010610580444
1690900121539551588,,40613,,1690900121,539466780,"""world""",,,3.7151777744293213,3.6449687480926514,0.28707489371299744
1690900121549549860,,40614,,1690900121,549486715,"""world""",,,3.714769124984741,3.6441924571990967,0.28692448139190674
1690900121559564221,,40615,,1690900121,559497642,"""world""",,,3.7153077125549316,3.643706798553467,0.28643837571144104
1690900121569551247,,40616,,1690900121,569490626,"""world""",,,3.7141237258911133,3.6426424980163574,0.2867700755596161
1690900121579563006,,40617,,1690900121,579498357,"""world""",,,3.713386297225952,3.641819477081299,0.2868433892726898
1690900121589619741,,40618,,1690900121,589507915,"""world""",,,3.7138004302978516,3.6412534713745117,0.2865661680698395
1690900121599596114,,40619,,1690900121,599493071,"""world""",,,3.7134006023406982,3.64040207862854,0.28665223717689514
1690900121609564194,,40620,,1690900121,609486561,"""world""",,,3.713015079498291,3.6396548748016357,0.2866247296333313
1690900121619549433,,40621,,1690900121,619486314,"""world""",,,3.7121076583862305,3.6390304565429688,0.2867516875267029
1690900121629654791,,40622,,1690900121,629509451,"""world""",,,3.711383104324341,3.6384384632110596,0.2866465449333191
1690900121639572872,,40623,,1690900121,639491023,"""world""",,,3.7102291584014893,3.6376612186431885,0.28688353300094604
1690900121649564289,,40624,,1690900121,649485181,"""world""",,,3.7105941772460938,3.637061357498169,0.2867029905319214
1690900121659547856,,40625,,1690900121,659475117,"""world""",,,3.7095577716827393,3.6364126205444336,0.286924809217453
1690900121669548089,,40626,,1690900121,669484170,"""world""",,,3.7085509300231934,3.6358213424682617,0.2870146632194519
1690900121679602024,,40627,,1690900121,679505381,"""world""",,,3.70853590965271,3.6351683139801025,0.28691306710243225
1690900121689604067,,40628,,1690900121,689499733,"""world""",,,3.7075045108795166,3.634848117828369,0.286742627620697
1690900121699533539,,40629,,1690900121,699467915,"""world""",,,3.706655979156494,3.634072780609131,0.28685659170150757
1690900121709585628,,40630,,1690900121,709499018,"""world""",,,3.7070653438568115,3.633666515350342,0.28657427430152893
1690900121719578100,,40631,,1690900121,719498138,"""world""",,,3.705521821975708,3.6329541206359863,0.28723955154418945
1690900121729548748,,40632,,1690900121,729465314,"""world""",,,3.7057430744171143,3.6325650215148926,0.2870556116104126
1690900121739570450,,40633,,1690900121,739497651,"""world""",,,3.70430326461792,3.6317665576934814,0.28749722242355347
1690900121749553042,,40634,,1690900121,749486583,"""world""",,,3.7037713527679443,3.6312150955200195,0.2875106632709503
1690900121759601370,,40635,,1690900121,759493074,"""world""",,,3.703329563140869,3.630722761154175,0.2874067723751068
1690900121769527767,,40636,,1690900121,769477108,"""world""",,,3.7028400897979736,3.6302781105041504,0.2873871922492981
1690900121779630127,,40637,,1690900121,779524162,"""world""",,,3.7030951976776123,3.6297850608825684,0.28732582926750183
1690900121789585021,,40638,,1690900121,789494527,"""world""",,,3.70169734954834,3.6292948722839355,0.287421315908432
1690900121799578213,,40639,,1690900121,799519209,"""world""",,,3.701141357421875,3.6286981105804443,0.28747689723968506
1690900121809533495,,40640,,1690900121,809457243,"""world""",,,3.7007362842559814,3.6281280517578125,0.2873445749282837
1690900121819585418,,40641,,1690900121,819491894,"""world""",,,3.700119972229004,3.6277525424957275,0.28726881742477417
1690900121829571699,,40642,,1690900121,829497447,"""world""",,,3.6995091438293457,3.6271321773529053,0.2874566316604614
1690900121839569159,,40643,,1690900121,839505395,"""world""",,,3.6988277435302734,3.6265316009521484,0.28751569986343384
1690900121849572243,,40644,,1690900121,849496766,"""world""",,,3.698265790939331,3.62618350982666,0.2873174548149109
1690900121859553961,,40645,,1690900121,859487211,"""world""",,,3.6977338790893555,3.6259825229644775,0.2870963513851166
1690900121869520159,,40646,,1690900121,869470346,"""world""",,,3.6981923580169678,3.6254985332489014,0.2867124080657959
1690900121879640986,,40647,,1690900121,879524374,"""world""",,,3.6970226764678955,3.624847650527954,0.2872222363948822
1690900121889619373,,40648,,1690900121,889503126,"""world""",,,3.6960837841033936,3.6243417263031006,0.28733864426612854
1690900121899518932,,40649,,1690900121,899460891,"""world""",,,3.6954116821289062,3.6238749027252197,0.2873266935348511
1690900121909563814,,40650,,1690900121,909483635,"""world""",,,3.694791555404663,3.623414993286133,0.28744345903396606
1690900121919578650,,40651,,1690900121,919493569,"""world""",,,3.694735527038574,3.6230978965759277,0.28728675842285156
1690900121929538267,,40652,,1690900121,929455838,"""world""",,,3.6936585903167725,3.6222176551818848,0.28783732652664185
1690900121939567224,,40653,,1690900121,939491828,"""world""",,,3.6930434703826904,3.6218433380126953,0.28785163164138794
1690900121949630935,,40654,,1690900121,949485522,"""world""",,,3.692561149597168,3.621438980102539,0.28783002495765686
1690900121959561765,,40655,,1690900121,959496248,"""world""",,,3.6920857429504395,3.62117600440979,0.2876565158367157
1690900121969515566,,40656,,1690900121,969468949,"""world""",,,3.691394805908203,3.620781421661377,0.2877751588821411
1690900121979754359,,40657,,1690900121,979529523,"""world""",,,3.690765142440796,3.6202447414398193,0.28799036145210266
1690900121989581006,,40658,,1690900121,989494222,"""world""",,,3.6901514530181885,3.6198647022247314,0.28822270035743713
1690900121999539050,,40659,,1690900121,999483607,"""world""",,,3.690025806427002,3.6189305782318115,0.2879861891269684
1690900122009582052,,40660,,1690900122,9488956,"""world""",,,3.689434766769409,3.6187987327575684,0.2879234552383423
1690900122019601246,,40661,,1690900122,19492853,"""world""",,,3.6885340213775635,3.618586301803589,0.2880937159061432
1690900122029662048,,40662,,1690900122,29492810,"""world""",,,3.6877992153167725,3.617915630340576,0.28833645582199097
1690900122040719790,,40663,,1690900122,40515111,"""world""",,,3.6874406337738037,3.617598056793213,0.28816625475883484
1690900122049574191,,40664,,1690900122,49485623,"""world""",,,3.687229633331299,3.617344617843628,0.28774821758270264
1690900122059552051,,40665,,1690900122,59485974,"""world""",,,3.6866495609283447,3.616896390914917,0.2878566086292267
1690900122069523090,,40666,,1690900122,69471008,"""world""",,,3.68601393699646,3.615993022918701,0.2885366976261139
1690900122079597466,,40667,,1690900122,79503248,"""world""",,,3.685609817504883,3.615598201751709,0.28854307532310486
1690900122089567262,,40668,,1690900122,89488006,"""world""",,,3.6850767135620117,3.615095615386963,0.2886618375778198
1690900122099515559,,40669,,1690900122,99452684,"""world""",,,3.684718132019043,3.614929676055908,0.28863194584846497
1690900122109669708,,40670,,1690900122,109508409,"""world""",,,3.684537887573242,3.6144826412200928,0.28856751322746277
1690900122119555715,,40671,,1690900122,119488108,"""world""",,,3.6845526695251465,3.6143033504486084,0.2882252335548401
1690900122129546894,,40672,,1690900122,129484925,"""world""",,,3.6836042404174805,3.613828420639038,0.2885812819004059
1690900122139667018,,40673,,1690900122,139518318,"""world""",,,3.6838836669921875,3.6137750148773193,0.2881041467189789
1690900122149556404,,40674,,1690900122,149482088,"""world""",,,3.683583974838257,3.613518476486206,0.28804323077201843
1690900122159547249,,40675,,1690900122,159486827,"""world""",,,3.6832573413848877,3.613206148147583,0.28788283467292786
1690900122169582745,,40676,,1690900122,169487412,"""world""",,,3.6829473972320557,3.613011598587036,0.287715882062912
1690900122179580123,,40677,,1690900122,179498701,"""world""",,,3.6827027797698975,3.612698554992676,0.2877291142940521
1690900122189566309,,40678,,1690900122,189484014,"""world""",,,3.6823019981384277,3.6123573780059814,0.2877388000488281
1690900122199540577,,40679,,1690900122,199481047,"""world""",,,3.6819956302642822,3.6121554374694824,0.2877582311630249
1690900122209584949,,40680,,1690900122,209494549,"""world""",,,3.680471420288086,3.611523151397705,0.28877708315849304
1690900122219551570,,40681,,1690900122,219487137,"""world""",,,3.680267572402954,3.611290216445923,0.28839829564094543
1690900122229569455,,40682,,1690900122,229499400,"""world""",,,3.6799662113189697,3.6111247539520264,0.2883428633213043
1690900122239582714,,40683,,1690900122,239501531,"""world""",,,3.679776668548584,3.610753059387207,0.28816115856170654
1690900122249547673,,40684,,1690900122,249486579,"""world""",,,3.67956805229187,3.6103851795196533,0.288177490234375
1690900122259557173,,40685,,1690900122,259485372,"""world""",,,3.679042100906372,3.6100285053253174,0.288418173789978
1690900122269620636,,40686,,1690900122,269496144,"""world""",,,3.6790530681610107,3.6098082065582275,0.28822481632232666
1690900122279640957,,40687,,1690900122,279517644,"""world""",,,3.67870831489563,3.6095025539398193,0.2882484495639801
1690900122289565810,,40688,,1690900122,289486009,"""world""",,,3.678459882736206,3.6092333793640137,0.2882288098335266
1690900122299580036,,40689,,1690900122,299483490,"""world""",,,3.677927255630493,3.609037399291992,0.28839343786239624
1690900122309572123,,40690,,1690900122,309487203,"""world""",,,3.6777572631835938,3.6087841987609863,0.28824931383132935
1690900122319598269,,40691,,1690900122,319466575,"""world""",,,3.6784825325012207,3.6087093353271484,0.2877957224845886
1690900122329624507,,40692,,1690900122,329502630,"""world""",,,3.677138328552246,3.6082639694213867,0.2882919907569885
1690900122339586410,,40693,,1690900122,339490908,"""world""",,,3.676887035369873,3.607994556427002,0.2882794439792633
1690900122349559211,,40694,,1690900122,349482638,"""world""",,,3.6768674850463867,3.6077237129211426,0.28804194927215576
1690900122359511497,,40695,,1690900122,359444057,"""world""",,,3.6778244972229004,3.6080374717712402,0.2871708869934082
1690900122369547005,,40696,,1690900122,369484584,"""world""",,,3.6775615215301514,3.607802391052246,0.2870989739894867
1690900122379654421,,40697,,1690900122,379528370,"""world""",,,3.6770753860473633,3.607468366622925,0.28733110427856445
1690900122389572697,,40698,,1690900122,389488271,"""world""",,,3.677053689956665,3.607300043106079,0.2872592806816101
1690900122399603399,,40699,,1690900122,399493313,"""world""",,,3.6768548488616943,3.607065200805664,0.28727269172668457
1690900122409571111,,40700,,1690900122,409485442,"""world""",,,3.676675796508789,3.6068036556243896,0.2873368561267853
1690900122419556420,,40701,,1690900122,419486695,"""world""",,,3.6764068603515625,3.6065614223480225,0.2874232828617096
1690900122429647665,,40702,,1690900122,429505193,"""world""",,,3.6760787963867188,3.606339454650879,0.2875315248966217
1690900122439558692,,40703,,1690900122,439488602,"""world""",,,3.675816059112549,3.6062023639678955,0.2875975966453552
1690900122449552595,,40704,,1690900122,449491963,"""world""",,,3.674952507019043,3.6059489250183105,0.2882242500782013
1690900122459575106,,40705,,1690900122,459502629,"""world""",,,3.6757702827453613,3.6062843799591064,0.2873736023902893
1690900122469539183,,40706,,1690900122,469483475,"""world""",,,3.675389528274536,3.606170892715454,0.2875930368900299
1690900122479595179,,40707,,1690900122,479500679,"""world""",,,3.67537522315979,3.6061606407165527,0.2875116765499115
1690900122489645574,,40708,,1690900122,489506548,"""world""",,,3.6751880645751953,3.6061596870422363,0.28754347562789917
1690900122499558741,,40709,,1690900122,499488767,"""world""",,,3.675145149230957,3.606088638305664,0.2874074876308441
1690900122509570449,,40710,,1690900122,509485689,"""world""",,,3.674909830093384,3.606140375137329,0.287616491317749
1690900122519562804,,40711,,1690900122,519491689,"""world""",,,3.674762725830078,3.606144428253174,0.28769397735595703
1690900122529569956,,40712,,1690900122,529495301,"""world""",,,3.674516201019287,3.6061642169952393,0.2877573072910309
1690900122539559758,,40713,,1690900122,539489198,"""world""",,,3.6746273040771484,3.606210470199585,0.28780603408813477
1690900122549544657,,40714,,1690900122,549481267,"""world""",,,3.6741812229156494,3.606231927871704,0.2880350649356842
1690900122559588046,,40715,,1690900122,559488894,"""world""",,,3.674030303955078,3.6062910556793213,0.2881903350353241
1690900122569523939,,40716,,1690900122,569471452,"""world""",,,3.6738176345825195,3.6062440872192383,0.28829002380371094
1690900122579606505,,40717,,1690900122,579502286,"""world""",,,3.673074245452881,3.606228828430176,0.2886706292629242
1690900122589608283,,40718,,1690900122,589502461,"""world""",,,3.672858476638794,3.6062731742858887,0.2887854278087616
1690900122599558267,,40719,,1690900122,599486608,"""world""",,,3.6727192401885986,3.606326103210449,0.2888466417789459
1690900122609601001,,40720,,1690900122,609489808,"""world""",,,3.672576427459717,3.6063392162323,0.28886526823043823
1690900122619749590,,40721,,1690900122,619505716,"""world""",,,3.672248125076294,3.60658860206604,0.28896936774253845
1690900122629572411,,40722,,1690900122,629472007,"""world""",,,3.672549247741699,3.6067168712615967,0.28900668025016785
1690900122639559654,,40723,,1690900122,639486756,"""world""",,,3.67279052734375,3.6066858768463135,0.2889344096183777
1690900122649571821,,40724,,1690900122,649489562,"""world""",,,3.671982765197754,3.6068544387817383,0.2896479368209839
1690900122659558323,,40725,,1690900122,659484499,"""world""",,,3.671717882156372,3.606961727142334,0.2896009385585785
1690900122669478144,,40726,,1690900122,669429935,"""world""",,,3.6714417934417725,3.6069421768188477,0.2899772822856903
1690900122679609624,,40727,,1690900122,679508925,"""world""",,,3.67148494720459,3.6071360111236572,0.2899932861328125
1690900122689669818,,40728,,1690900122,689514249,"""world""",,,3.6711745262145996,3.607222557067871,0.29027289152145386
1690900122699545497,,40729,,1690900122,699483791,"""world""",,,3.6709728240966797,3.6073997020721436,0.2903408408164978
1690900122709575972,,40730,,1690900122,709499514,"""world""",,,3.670865297317505,3.6074516773223877,0.29052916169166565
1690900122719580736,,40731,,1690900122,719494399,"""world""",,,3.6706056594848633,3.607492446899414,0.2906615734100342
1690900122729571186,,40732,,1690900122,729497113,"""world""",,,3.6706011295318604,3.6077842712402344,0.2906985878944397
1690900122739547391,,40733,,1690900122,739485667,"""world""",,,3.6704277992248535,3.6076948642730713,0.29081618785858154
1690900122749657450,,40734,,1690900122,749494859,"""world""",,,3.6702468395233154,3.607729434967041,0.29113930463790894
1690900122759547003,,40735,,1690900122,759484069,"""world""",,,3.6701958179473877,3.607844591140747,0.2910555899143219
1690900122769523462,,40736,,1690900122,769473543,"""world""",,,3.6701700687408447,3.6078755855560303,0.29126599431037903
1690900122779672217,,40737,,1690900122,779522176,"""world""",,,3.6701574325561523,3.6080572605133057,0.2912164628505707
1690900122789573784,,40738,,1690900122,789490782,"""world""",,,3.6702146530151367,3.608060836791992,0.2913205623626709
1690900122799545209,,40739,,1690900122,799482057,"""world""",,,3.6700191497802734,3.608124256134033,0.29154035449028015
1690900122809636404,,40740,,1690900122,809490209,"""world""",,,3.6701362133026123,3.6082029342651367,0.2914624810218811
1690900122819587656,,40741,,1690900122,819501310,"""world""",,,3.670253038406372,3.6081926822662354,0.29146111011505127
1690900122829577491,,40742,,1690900122,829499610,"""world""",,,3.6703083515167236,3.6083970069885254,0.29106876254081726
1690900122839573829,,40743,,1690900122,839494008,"""world""",,,3.6700456142425537,3.6083827018737793,0.29169073700904846
1690900122849579185,,40744,,1690900122,849492687,"""world""",,,3.670058488845825,3.608430862426758,0.29174715280532837
1690900122859553416,,40745,,1690900122,859491889,"""world""",,,3.6699464321136475,3.6084375381469727,0.29180702567100525
1690900122869522454,,40746,,1690900122,869475296,"""world""",,,3.670060634613037,3.608506917953491,0.2918685972690582
1690900122879586414,,40747,,1690900122,879503921,"""world""",,,3.6698813438415527,3.608715057373047,0.29189950227737427
1690900122889570669,,40748,,1690900122,889499461,"""world""",,,3.6697559356689453,3.6087658405303955,0.2920876741409302
1690900122899548076,,40749,,1690900122,899487085,"""world""",,,3.669626235961914,3.608853340148926,0.29218974709510803
1690900122909640547,,40750,,1690900122,909474383,"""world""",,,3.6696395874023438,3.609003782272339,0.29226037859916687
1690900122919561998,,40751,,1690900122,919492483,"""world""",,,3.6696975231170654,3.609118938446045,0.292237251996994
1690900122929550812,,40752,,1690900122,929485491,"""world""",,,3.6696672439575195,3.6092491149902344,0.2923312187194824
1690900122939607018,,40753,,1690900122,939503123,"""world""",,,3.669555187225342,3.609363317489624,0.2924131155014038
1690900122949566198,,40754,,1690900122,949495487,"""world""",,,3.669374704360962,3.6094727516174316,0.29262053966522217
1690900122959602218,,40755,,1690900122,959513550,"""world""",,,3.670398235321045,3.6102073192596436,0.29165029525756836
1690900122969621979,,40756,,1690900122,969504756,"""world""",,,3.66924786567688,3.609790563583374,0.292772114276886
1690900122979582219,,40757,,1690900122,979506200,"""world""",,,3.669255495071411,3.6098265647888184,0.29288625717163086
1690900122989562067,,40758,,1690900122,989489315,"""world""",,,3.669170618057251,3.61000657081604,0.2929333746433258
1690900122999527787,,40759,,1690900122,999463737,"""world""",,,3.669161081314087,3.6101536750793457,0.2930331230163574
1690900123009617543,,40760,,1690900123,9507068,"""world""",,,3.6691012382507324,3.6102964878082275,0.2931485176086426
1690900123019551267,,40761,,1690900123,19484234,"""world""",,,3.669088125228882,3.610384702682495,0.2932395040988922
1690900123029560739,,40762,,1690900123,29492672,"""world""",,,3.6690406799316406,3.6104490756988525,0.29332801699638367
1690900123039556760,,40763,,1690900123,39486836,"""world""",,,3.669045925140381,3.6105730533599854,0.29336440563201904
1690900123049582026,,40764,,1690900123,49503098,"""world""",,,3.6691277027130127,3.610765218734741,0.2933956980705261
1690900123059578861,,40765,,1690900123,59508382,"""world""",,,3.6697657108306885,3.6114342212677,0.2925804555416107
