rosbagTimestamp,header,seq,stamp,secs,nsecs,frame_id,pose,position,x,y,z
1691260598261013764,,17703,,1691260598,260921699,"""world""",,,4.927812099456787,-3.0341203212738037,0.3083535432815552
1691260598271801409,,17704,,1691260598,270951363,"""world""",,,4.92793607711792,-3.034121036529541,0.30837059020996094
1691260598280981806,,17705,,1691260598,280894522,"""world""",,,4.927741527557373,-3.034022569656372,0.3084533214569092
1691260598290962377,,17706,,1691260598,290880724,"""world""",,,4.927730083465576,-3.0340356826782227,0.30838945508003235
1691260598300935231,,17707,,1691260598,300873380,"""world""",,,4.927706241607666,-3.0340116024017334,0.30852094292640686
1691260598310932405,,17708,,1691260598,310875956,"""world""",,,4.926000595092773,-3.032926082611084,0.3085966408252716
1691260598320966279,,17709,,1691260598,320880983,"""world""",,,4.927698612213135,-3.0340678691864014,0.3086061477661133
1691260598330992442,,17710,,1691260598,330907889,"""world""",,,4.9277496337890625,-3.034059524536133,0.30842968821525574
1691260598340941510,,17711,,1691260598,340869778,"""world""",,,4.927781581878662,-3.0340936183929443,0.3083127439022064
1691260598350952201,,17712,,1691260598,350869047,"""world""",,,4.927790641784668,-3.034057140350342,0.3085627257823944
1691260598360994097,,17713,,1691260598,360914005,"""world""",,,4.927955627441406,-3.0341737270355225,0.30803635716438293
1691260598370957556,,17714,,1691260598,370890291,"""world""",,,4.927746772766113,-3.0341527462005615,0.30865100026130676
1691260598380932560,,17715,,1691260598,380870241,"""world""",,,4.927736759185791,-3.0340373516082764,0.3084854781627655
1691260598391024131,,17716,,1691260598,390946048,"""world""",,,4.9277448654174805,-3.0340113639831543,0.3082418739795685
1691260598400973263,,17717,,1691260598,400909089,"""world""",,,4.927755832672119,-3.0340142250061035,0.3085520267486572
1691260598410939624,,17718,,1691260598,410873143,"""world""",,,4.927796840667725,-3.0341131687164307,0.30855774879455566
1691260598420992396,,17719,,1691260598,420907415,"""world""",,,4.927833557128906,-3.0340843200683594,0.3083522319793701
1691260598430945993,,17720,,1691260598,430877591,"""world""",,,4.928177356719971,-3.03452205657959,0.307635098695755
1691260598441072122,,17721,,1691260598,440956083,"""world""",,,4.927662372589111,-3.0340325832366943,0.30865350365638733
1691260598450995252,,17722,,1691260598,450912705,"""world""",,,4.927746772766113,-3.0340993404388428,0.30833691358566284
1691260598461012924,,17723,,1691260598,460910172,"""world""",,,4.927839756011963,-3.0341389179229736,0.30831217765808105
1691260598470976258,,17724,,1691260598,470882787,"""world""",,,4.927823543548584,-3.0340960025787354,0.3084169626235962
1691260598480959272,,17725,,1691260598,480880590,"""world""",,,4.927773952484131,-3.034064292907715,0.3084784746170044
1691260598490991369,,17726,,1691260598,490896277,"""world""",,,4.927826881408691,-3.034126043319702,0.3083103895187378
1691260598500955677,,17727,,1691260598,500871552,"""world""",,,4.927865505218506,-3.0341789722442627,0.30809763073921204
1691260598510960176,,17728,,1691260598,510886045,"""world""",,,4.927838325500488,-3.0340962409973145,0.3083803355693817
1691260598521105049,,17729,,1691260598,520879464,"""world""",,,4.927448749542236,-3.0335121154785156,0.30869123339653015
1691260598531082959,,17730,,1691260598,530940334,"""world""",,,4.928044319152832,-3.0343222618103027,0.3079163134098053
1691260598540962152,,17731,,1691260598,540890327,"""world""",,,4.928098678588867,-3.034334659576416,0.3079614043235779
1691260598550991465,,17732,,1691260598,550906054,"""world""",,,4.927709579467773,-3.034071207046509,0.30872642993927
1691260598561006677,,17733,,1691260598,560931306,"""world""",,,4.927886486053467,-3.034088134765625,0.30866557359695435
1691260598571010875,,17734,,1691260598,570897077,"""world""",,,4.927741050720215,-3.034026861190796,0.3085809350013733
1691260598581017933,,17735,,1691260598,580902957,"""world""",,,4.927797794342041,-3.0340209007263184,0.30854901671409607
1691260598590984136,,17736,,1691260598,590872825,"""world""",,,4.927828788757324,-3.0340516567230225,0.3085275888442993
1691260598601011184,,17737,,1691260598,600913051,"""world""",,,4.927984237670898,-3.034161329269409,0.30847567319869995
1691260598610962093,,17738,,1691260598,610871596,"""world""",,,4.927783012390137,-3.034039258956909,0.30849689245224
1691260598621070963,,17739,,1691260598,620932011,"""world""",,,4.9278411865234375,-3.034060478210449,0.30864065885543823
1691260598630999454,,17740,,1691260598,630898708,"""world""",,,4.927855014801025,-3.0340752601623535,0.308562308549881
1691260598641028798,,17741,,1691260598,640906645,"""world""",,,4.927883148193359,-3.034109354019165,0.3084741532802582
1691260598650938114,,17742,,1691260598,650872863,"""world""",,,4.927865505218506,-3.034151554107666,0.3082868754863739
1691260598661018028,,17743,,1691260598,660890862,"""world""",,,4.92793607711792,-3.0341897010803223,0.30825281143188477
1691260598671181265,,17744,,1691260598,670912116,"""world""",,,4.927951335906982,-3.034135580062866,0.3085613250732422
1691260598680977552,,17745,,1691260598,680877582,"""world""",,,4.927824974060059,-3.0341899394989014,0.30876147747039795
1691260598690971601,,17746,,1691260598,690884129,"""world""",,,4.9280781745910645,-3.0342113971710205,0.3083988428115845
1691260598700991290,,17747,,1691260598,700914153,"""world""",,,4.92824649810791,-3.0344865322113037,0.3078101873397827
1691260598711049290,,17748,,1691260598,710903817,"""world""",,,4.928142070770264,-3.0341997146606445,0.30837059020996094
1691260598720964603,,17749,,1691260598,720888069,"""world""",,,4.927961826324463,-3.034207582473755,0.30820271372795105
1691260598730937887,,17750,,1691260598,730870425,"""world""",,,4.9279255867004395,-3.0341029167175293,0.30854469537734985
1691260598740953502,,17751,,1691260598,740876498,"""world""",,,4.927896022796631,-3.034114360809326,0.30852431058883667
1691260598750978362,,17752,,1691260598,750872126,"""world""",,,4.927949905395508,-3.0342047214508057,0.30810096859931946
1691260598760945185,,17753,,1691260598,760875173,"""world""",,,4.92779541015625,-3.0340921878814697,0.30832821130752563
1691260598771089132,,17754,,1691260598,770920039,"""world""",,,4.927854537963867,-3.03411865234375,0.3084336817264557
1691260598780975436,,17755,,1691260598,780901423,"""world""",,,4.927816867828369,-3.0341317653656006,0.3083992302417755
1691260598790957483,,17756,,1691260598,790877863,"""world""",,,4.928466320037842,-3.034723997116089,0.30721569061279297
1691260598800949501,,17757,,1691260598,800887757,"""world""",,,4.927826881408691,-3.0341293811798096,0.3085351586341858
1691260598811028767,,17758,,1691260598,810917596,"""world""",,,4.927918910980225,-3.0341246128082275,0.30850285291671753
1691260598820956263,,17759,,1691260598,820878067,"""world""",,,4.927975177764893,-3.0342464447021484,0.308157354593277
1691260598830956708,,17760,,1691260598,830888063,"""world""",,,4.9279584884643555,-3.0341737270355225,0.3083989918231964
1691260598840949963,,17761,,1691260598,840882837,"""world""",,,4.928046703338623,-3.0342235565185547,0.3084441125392914
1691260598850925498,,17762,,1691260598,850864647,"""world""",,,4.928159713745117,-3.034390449523926,0.30783411860466003
1691260598860945852,,17763,,1691260598,860874247,"""world""",,,4.927896976470947,-3.0341100692749023,0.3085632026195526
1691260598871216803,,17764,,1691260598,870926117,"""world""",,,4.927946090698242,-3.0341408252716064,0.30865541100502014
1691260598880954577,,17765,,1691260598,880878873,"""world""",,,4.927855014801025,-3.034062385559082,0.3088277280330658
1691260598890958584,,17766,,1691260598,890880273,"""world""",,,4.927894592285156,-3.0342020988464355,0.3085006773471832
1691260598901034290,,17767,,1691260598,900900248,"""world""",,,4.9277448654174805,-3.0339670181274414,0.30887293815612793
1691260598911013903,,17768,,1691260598,910919072,"""world""",,,4.927906513214111,-3.0341615676879883,0.30858004093170166
1691260598921042124,,17769,,1691260598,920877446,"""world""",,,4.927996635437012,-3.0342283248901367,0.3086939752101898
1691260598930980605,,17770,,1691260598,930895447,"""world""",,,4.927851676940918,-3.034198045730591,0.30891332030296326
1691260598941070673,,17771,,1691260598,940939037,"""world""",,,4.928011894226074,-3.0342085361480713,0.30853837728500366
1691260598951006194,,17772,,1691260598,950882617,"""world""",,,4.927950859069824,-3.0341506004333496,0.30850955843925476
1691260598961038624,,17773,,1691260598,960896856,"""world""",,,4.927937984466553,-3.0340964794158936,0.308745414018631
1691260598970978556,,17774,,1691260598,970890126,"""world""",,,4.928351879119873,-3.0344512462615967,0.30805447697639465
1691260598981002044,,17775,,1691260598,980898007,"""world""",,,4.928004741668701,-3.034151792526245,0.3089611232280731
1691260598991070704,,17776,,1691260598,990954834,"""world""",,,4.928110122680664,-3.034189224243164,0.30878254771232605
1691260599000961811,,17777,,1691260599,880653,"""world""",,,4.928677082061768,-3.034822940826416,0.3073384165763855
1691260599010951391,,17778,,1691260599,10883792,"""world""",,,4.9280314445495605,-3.034165382385254,0.3089379370212555
1691260599021028503,,17779,,1691260599,20884716,"""world""",,,4.928068161010742,-3.034214496612549,0.308767706155777
1691260599040997874,,17780,,1691260599,40887297,"""world""",,,4.928142070770264,-3.0342679023742676,0.30885711312294006
1691260599050935064,,17781,,1691260599,50864982,"""world""",,,4.9281463623046875,-3.034266710281372,0.30865761637687683
1691260599060985019,,17782,,1691260599,60904524,"""world""",,,4.92775297164917,-3.0340051651000977,0.30903151631355286
1691260599070988890,,17783,,1691260599,70909626,"""world""",,,4.9281005859375,-3.034250259399414,0.3089546263217926
1691260599080950836,,17784,,1691260599,80891057,"""world""",,,4.928115367889404,-3.0342509746551514,0.3088243007659912
1691260599090941409,,17785,,1691260599,90884577,"""world""",,,4.928171634674072,-3.034330368041992,0.3085283935070038
1691260599101119008,,17786,,1691260599,100947793,"""world""",,,4.928247451782227,-3.0344510078430176,0.30817458033561707
1691260599110959272,,17787,,1691260599,110885802,"""world""",,,4.92862606048584,-3.034651279449463,0.3074600100517273
1691260599121030384,,17788,,1691260599,120908370,"""world""",,,4.92812442779541,-3.034289598464966,0.30854904651641846
1691260599130962166,,17789,,1691260599,130884273,"""world""",,,4.928539276123047,-3.0346763134002686,0.3074403703212738
1691260599140969289,,17790,,1691260599,140897259,"""world""",,,4.928142547607422,-3.0341999530792236,0.3085085153579712
1691260599151075404,,17791,,1691260599,150907375,"""world""",,,4.928482532501221,-3.0345253944396973,0.307974249124527
1691260599160959645,,17792,,1691260599,160887755,"""world""",,,4.92838716506958,-3.0344929695129395,0.30793747305870056
1691260599171143088,,17793,,1691260599,170957407,"""world""",,,4.928229808807373,-3.034348487854004,0.30848753452301025
1691260599181021910,,17794,,1691260599,180877112,"""world""",,,4.928378105163574,-3.0344369411468506,0.3082256615161896
1691260599190982650,,17795,,1691260599,190898292,"""world""",,,4.928557872772217,-3.0345470905303955,0.3079703152179718
1691260599201041700,,17796,,1691260599,200889264,"""world""",,,4.928567409515381,-3.034574508666992,0.3081134557723999
1691260599210982830,,17797,,1691260599,210884425,"""world""",,,4.928557872772217,-3.0346319675445557,0.30819374322891235
1691260599221023373,,17798,,1691260599,220931449,"""world""",,,4.928370952606201,-3.034456253051758,0.3088932931423187
1691260599231251345,,17799,,1691260599,231005789,"""world""",,,4.9283857345581055,-3.0347259044647217,0.3086363971233368
1691260599241075455,,17800,,1691260599,240904418,"""world""",,,4.928261756896973,-3.0347769260406494,0.3084830939769745
1691260599250976114,,17801,,1691260599,250866722,"""world""",,,4.92890739440918,-3.0353493690490723,0.30751878023147583
1691260599260969561,,17802,,1691260599,260883976,"""world""",,,4.928456783294678,-3.035013198852539,0.30863475799560547
1691260599270985555,,17803,,1691260599,270893292,"""world""",,,4.928466796875,-3.0352776050567627,0.30811890959739685
1691260599281023237,,17804,,1691260599,280903464,"""world""",,,4.927696228027344,-3.0351691246032715,0.3094773590564728
1691260599291017735,,17805,,1691260599,290897351,"""world""",,,4.927430152893066,-3.035367488861084,0.3101428747177124
1691260599300967403,,17806,,1691260599,300883998,"""world""",,,4.926927089691162,-3.034651041030884,0.3096041679382324
1691260599311016835,,17807,,1691260599,310925793,"""world""",,,4.927331924438477,-3.036081552505493,0.3106835186481476
1691260599320980901,,17808,,1691260599,320880964,"""world""",,,4.927152156829834,-3.0363473892211914,0.31072038412094116
1691260599330989177,,17809,,1691260599,330905078,"""world""",,,4.927169322967529,-3.0365166664123535,0.31039634346961975
1691260599341007286,,17810,,1691260599,340911855,"""world""",,,4.927526473999023,-3.036386728286743,0.3092552125453949
1691260599351017247,,17811,,1691260599,350917759,"""world""",,,4.927082061767578,-3.036524772644043,0.31054994463920593
1691260599360957434,,17812,,1691260599,360881076,"""world""",,,4.927033424377441,-3.0366568565368652,0.31046006083488464
1691260599371056100,,17813,,1691260599,370954658,"""world""",,,4.927183628082275,-3.0369670391082764,0.3099713921546936
1691260599381032612,,17814,,1691260599,380922352,"""world""",,,4.927167892456055,-3.037086248397827,0.31037452816963196
1691260599390992531,,17815,,1691260599,390889305,"""world""",,,4.927237510681152,-3.0371859073638916,0.3104798495769501
1691260599400954558,,17816,,1691260599,400884702,"""world""",,,4.927245616912842,-3.037376880645752,0.31063851714134216
1691260599410937768,,17817,,1691260599,410874186,"""world""",,,4.927305698394775,-3.0375280380249023,0.3107321560382843
1691260599420992253,,17818,,1691260599,420899713,"""world""",,,4.927083492279053,-3.037600517272949,0.31074273586273193
1691260599430982574,,17819,,1691260599,430875733,"""world""",,,4.927205562591553,-3.037768840789795,0.31077298521995544
1691260599441042667,,17820,,1691260599,440929535,"""world""",,,4.926965236663818,-3.0378150939941406,0.31092122197151184
1691260599450977963,,17821,,1691260599,450875425,"""world""",,,4.927032947540283,-3.037977457046509,0.3109839856624603
1691260599460972631,,17822,,1691260599,460887950,"""world""",,,4.927081108093262,-3.0381085872650146,0.31111380457878113
1691260599471004175,,17823,,1691260599,470933194,"""world""",,,4.927010536193848,-3.038227081298828,0.31114867329597473
1691260599480983667,,17824,,1691260599,480891007,"""world""",,,4.927108287811279,-3.038461685180664,0.31136444211006165
1691260599491018598,,17825,,1691260599,490911780,"""world""",,,4.927196502685547,-3.0387134552001953,0.3112111985683441
1691260599500957878,,17826,,1691260599,500886535,"""world""",,,4.927321434020996,-3.038879156112671,0.3113071620464325
1691260599511027249,,17827,,1691260599,510922065,"""world""",,,4.927242755889893,-3.0388855934143066,0.31127798557281494
1691260599520919097,,17828,,1691260599,520862368,"""world""",,,4.927196979522705,-3.038982391357422,0.3112215995788574
1691260599531105862,,17829,,1691260599,530937217,"""world""",,,4.927365779876709,-3.0391926765441895,0.3113209009170532
1691260599541071618,,17830,,1691260599,540928871,"""world""",,,4.9275288581848145,-3.0393877029418945,0.311186283826828
1691260599550948135,,17831,,1691260599,550869683,"""world""",,,4.927679538726807,-3.039576768875122,0.3112347424030304
1691260599560975480,,17832,,1691260599,560888066,"""world""",,,4.927865505218506,-3.039762258529663,0.3112388253211975
1691260599571073907,,17833,,1691260599,570913845,"""world""",,,4.9279375076293945,-3.040091037750244,0.31064462661743164
1691260599580951230,,17834,,1691260599,580892941,"""world""",,,4.928153991699219,-3.0405495166778564,0.3107947111129761
1691260599590987106,,17835,,1691260599,590894561,"""world""",,,4.92807674407959,-3.040466547012329,0.31064948439598083
1691260599600941830,,17836,,1691260599,600877446,"""world""",,,4.928253173828125,-3.0407681465148926,0.31037279963493347
1691260599610956980,,17837,,1691260599,610884938,"""world""",,,4.928075313568115,-3.0408170223236084,0.3106803894042969
1691260599620989293,,17838,,1691260599,620889461,"""world""",,,4.927980422973633,-3.0409257411956787,0.3110983073711395
1691260599631013743,,17839,,1691260599,630913846,"""world""",,,4.928164005279541,-3.041250705718994,0.3104557693004608
1691260599640973647,,17840,,1691260599,640903155,"""world""",,,4.928116321563721,-3.0414774417877197,0.3102463185787201
1691260599651005305,,17841,,1691260599,650909221,"""world""",,,4.928084850311279,-3.041597843170166,0.31058457493782043
1691260599660927189,,17842,,1691260599,660869742,"""world""",,,4.928118705749512,-3.041797637939453,0.3106338679790497
1691260599671052726,,17843,,1691260599,670906859,"""world""",,,4.928042888641357,-3.041963577270508,0.31070172786712646
1691260599681024170,,17844,,1691260599,680899630,"""world""",,,4.928218364715576,-3.0421643257141113,0.31093037128448486
1691260599690940949,,17845,,1691260599,690873008,"""world""",,,4.928195476531982,-3.042362689971924,0.31113630533218384
1691260599701016860,,17846,,1691260599,700904503,"""world""",,,4.927547931671143,-3.0422356128692627,0.31230607628822327
1691260599710975916,,17847,,1691260599,710891272,"""world""",,,4.927504539489746,-3.042454957962036,0.3125467896461487
1691260599720964818,,17848,,1691260599,720884847,"""world""",,,4.927483081817627,-3.042576551437378,0.31328311562538147
1691260599730944764,,17849,,1691260599,730872287,"""world""",,,4.927553176879883,-3.0427815914154053,0.31338071823120117
1691260599740946196,,17850,,1691260599,740869352,"""world""",,,4.927584171295166,-3.0430214405059814,0.31361123919487
1691260599750954923,,17851,,1691260599,750861658,"""world""",,,4.927530765533447,-3.043243885040283,0.31371620297431946
1691260599760991622,,17852,,1691260599,760893651,"""world""",,,4.9275126457214355,-3.0434718132019043,0.31389734148979187
1691260599771030328,,17853,,1691260599,770894910,"""world""",,,4.927577495574951,-3.043691396713257,0.314098984003067
1691260599781042074,,17854,,1691260599,780893987,"""world""",,,4.927637100219727,-3.0439140796661377,0.31426090002059937
1691260599790933757,,17855,,1691260599,790870310,"""world""",,,4.927577495574951,-3.044090509414673,0.31436440348625183
1691260599801004857,,17856,,1691260599,800904366,"""world""",,,4.927634239196777,-3.0444352626800537,0.31445080041885376
1691260599811009671,,17857,,1691260599,810886977,"""world""",,,4.927753925323486,-3.044712781906128,0.3147294521331787
1691260599820984172,,17858,,1691260599,820904836,"""world""",,,4.927524566650391,-3.0446643829345703,0.31480419635772705
1691260599830996580,,17859,,1691260599,830895272,"""world""",,,4.927096366882324,-3.045161485671997,0.3144758939743042
1691260599840992268,,17860,,1691260599,840895441,"""world""",,,4.927126884460449,-3.045592784881592,0.3143109381198883
1691260599850942754,,17861,,1691260599,850867195,"""world""",,,4.926713466644287,-3.045720338821411,0.3143918216228485
1691260599861007620,,17862,,1691260599,860896208,"""world""",,,4.92681884765625,-3.0461266040802,0.3146964907646179
1691260599871008514,,17863,,1691260599,870913930,"""world""",,,4.92667818069458,-3.046419858932495,0.3150019645690918
1691260599881050519,,17864,,1691260599,880908323,"""world""",,,4.926390171051025,-3.0466763973236084,0.3153490126132965
1691260599890985551,,17865,,1691260599,890899695,"""world""",,,4.926527976989746,-3.047194480895996,0.3156031370162964
1691260599901019032,,17866,,1691260599,900904443,"""world""",,,4.926420211791992,-3.047607183456421,0.3157283663749695
1691260599910993241,,17867,,1691260599,910907197,"""world""",,,4.926577568054199,-3.0480663776397705,0.3161238729953766
1691260599921037261,,17868,,1691260599,920947494,"""world""",,,4.92678689956665,-3.048598527908325,0.3164961040019989
1691260599931075388,,17869,,1691260599,930901905,"""world""",,,4.926848888397217,-3.0491104125976562,0.3168694078922272
1691260599940986232,,17870,,1691260599,940889246,"""world""",,,4.926708221435547,-3.049482583999634,0.31714460253715515
1691260599951011989,,17871,,1691260599,950899507,"""world""",,,4.9265947341918945,-3.0498874187469482,0.31726357340812683
1691260599960962745,,17872,,1691260599,960879533,"""world""",,,4.926527500152588,-3.0501720905303955,0.3171854019165039
1691260599971097042,,17873,,1691260599,970937139,"""world""",,,4.92619514465332,-3.0506234169006348,0.3173976242542267
1691260599980962206,,17874,,1691260599,980883090,"""world""",,,4.92594575881958,-3.050977945327759,0.3175436854362488
1691260599991072140,,17875,,1691260599,990887864,"""world""",,,4.9252705574035645,-3.0509934425354004,0.31855446100234985
1691260600000983356,,17876,,1691260600,884991,"""world""",,,4.925584316253662,-3.051623821258545,0.3187108635902405
1691260600010975406,,17877,,1691260600,10895217,"""world""",,,4.925440788269043,-3.052002429962158,0.31903091073036194
1691260600020952488,,17878,,1691260600,20872165,"""world""",,,4.924813270568848,-3.0521578788757324,0.3192335367202759
1691260600030959907,,17879,,1691260600,30880874,"""world""",,,4.924661159515381,-3.0525245666503906,0.31945955753326416
1691260600041093126,,17880,,1691260600,40976036,"""world""",,,4.9241485595703125,-3.052616834640503,0.3197607696056366
1691260600050969148,,17881,,1691260600,50896331,"""world""",,,4.924012660980225,-3.05299973487854,0.3200608491897583
1691260600060984369,,17882,,1691260600,60890565,"""world""",,,4.924017906188965,-3.053553342819214,0.3204154670238495
1691260600070950352,,17883,,1691260600,70877431,"""world""",,,4.9238786697387695,-3.0538902282714844,0.3206959366798401
1691260600080945956,,17884,,1691260600,80871450,"""world""",,,4.924025535583496,-3.0545027256011963,0.3211682438850403
1691260600090940829,,17885,,1691260600,90873284,"""world""",,,4.924274444580078,-3.055087089538574,0.32150161266326904
1691260600100995085,,17886,,1691260600,100899515,"""world""",,,4.9244513511657715,-3.055610179901123,0.3219420313835144
1691260600110994778,,17887,,1691260600,110910811,"""world""",,,4.924586296081543,-3.0557546615600586,0.322372168302536
1691260600120953582,,17888,,1691260600,120866919,"""world""",,,4.924620151519775,-3.0560436248779297,0.32277271151542664
1691260600130990764,,17889,,1691260600,130869236,"""world""",,,4.924497604370117,-3.0562684535980225,0.32308125495910645
1691260600140934830,,17890,,1691260600,140871119,"""world""",,,4.924325942993164,-3.0565567016601562,0.32345911860466003
1691260600150975104,,17891,,1691260600,150873909,"""world""",,,4.924180030822754,-3.0568809509277344,0.3237835168838501
1691260600160962225,,17892,,1691260600,160895183,"""world""",,,4.923656463623047,-3.0569777488708496,0.32409700751304626
1691260600171013424,,17893,,1691260600,170896023,"""world""",,,4.923346519470215,-3.057142972946167,0.32447245717048645
1691260600181005130,,17894,,1691260600,180896153,"""world""",,,4.923544406890869,-3.0573368072509766,0.32495900988578796
1691260600190973575,,17895,,1691260600,190891117,"""world""",,,4.9231719970703125,-3.0574560165405273,0.3253253996372223
1691260600200932429,,17896,,1691260600,200874435,"""world""",,,4.923052787780762,-3.057546615600586,0.32570746541023254
1691260600211002571,,17897,,1691260600,210932811,"""world""",,,4.922765731811523,-3.057634115219116,0.3261117935180664
1691260600221079820,,17898,,1691260600,220946319,"""world""",,,4.9223480224609375,-3.0577075481414795,0.32655155658721924
1691260600230954450,,17899,,1691260600,230879876,"""world""",,,4.922108173370361,-3.0579423904418945,0.3269772529602051
1691260600241003743,,17900,,1691260600,240903569,"""world""",,,4.92218542098999,-3.05808687210083,0.3276345729827881
1691260600250951641,,17901,,1691260600,250876054,"""world""",,,4.922060012817383,-3.0581679344177246,0.32825711369514465
1691260600260967359,,17902,,1691260600,260874309,"""world""",,,4.922346115112305,-3.058471441268921,0.32903608679771423
1691260600270994990,,17903,,1691260600,270880992,"""world""",,,4.922153949737549,-3.0584702491760254,0.3296991288661957
1691260600281052576,,17904,,1691260600,280913511,"""world""",,,4.92160701751709,-3.058415412902832,0.3303524851799011
1691260600290958105,,17905,,1691260600,290865594,"""world""",,,4.9214887619018555,-3.0584940910339355,0.33121559023857117
1691260600300939069,,17906,,1691260600,300874191,"""world""",,,4.921429634094238,-3.058471202850342,0.3320777714252472
1691260600310993533,,17907,,1691260600,310902071,"""world""",,,4.921511650085449,-3.0586795806884766,0.3330298066139221
1691260600321222470,,17908,,1691260600,320990364,"""world""",,,4.921550750732422,-3.058784008026123,0.33399510383605957
1691260600331087326,,17909,,1691260600,330966462,"""world""",,,4.921713829040527,-3.0589325428009033,0.33523029088974
1691260600340992747,,17910,,1691260600,340903715,"""world""",,,4.921284198760986,-3.058723211288452,0.3362062871456146
1691260600350944774,,17911,,1691260600,350875659,"""world""",,,4.92098331451416,-3.058673620223999,0.33717021346092224
1691260600360963141,,17912,,1691260600,360884079,"""world""",,,4.9210004806518555,-3.0586190223693848,0.3382191061973572
1691260600370976814,,17913,,1691260600,370894436,"""world""",,,4.921304225921631,-3.058624505996704,0.33949488401412964
1691260600380952774,,17914,,1691260600,380880048,"""world""",,,4.921204090118408,-3.058528184890747,0.34072306752204895
1691260600390941072,,17915,,1691260600,390869772,"""world""",,,4.9208855628967285,-3.0583508014678955,0.34209108352661133
1691260600400935882,,17916,,1691260600,400871770,"""world""",,,4.920933723449707,-3.0586116313934326,0.34338775277137756
1691260600410939269,,17917,,1691260600,410872463,"""world""",,,4.92075777053833,-3.058211088180542,0.34443220496177673
1691260600420954692,,17918,,1691260600,420880360,"""world""",,,4.920344829559326,-3.0579020977020264,0.3458468019962311
1691260600430992582,,17919,,1691260600,430912899,"""world""",,,4.920170783996582,-3.0577094554901123,0.3471876084804535
1691260600441020953,,17920,,1691260600,440917545,"""world""",,,4.920042514801025,-3.057443380355835,0.3487057387828827
1691260600450984806,,17921,,1691260600,450873933,"""world""",,,4.920261859893799,-3.0572187900543213,0.35017403960227966
1691260600461011556,,17922,,1691260600,460894627,"""world""",,,4.919744491577148,-3.0568931102752686,0.35147255659103394
1691260600471055526,,17923,,1691260600,470933373,"""world""",,,4.919551849365234,-3.0565850734710693,0.3529335856437683
1691260600481042000,,17924,,1691260600,480896497,"""world""",,,4.919431686401367,-3.056302070617676,0.3544950485229492
1691260600491009134,,17925,,1691260600,490914514,"""world""",,,4.919654846191406,-3.0559017658233643,0.356195867061615
1691260600501036121,,17926,,1691260600,500915038,"""world""",,,4.919332027435303,-3.0554535388946533,0.3577369451522827
1691260600510938393,,17927,,1691260600,510872625,"""world""",,,4.9191484451293945,-3.054917097091675,0.35933712124824524
1691260600521006301,,17928,,1691260600,520882743,"""world""",,,4.919570446014404,-3.054899215698242,0.3610055446624756
1691260600530944072,,17929,,1691260600,530877326,"""world""",,,4.91920280456543,-3.0544116497039795,0.36268848180770874
1691260600540982016,,17930,,1691260600,540879431,"""world""",,,4.919402599334717,-3.0540106296539307,0.3645361661911011
1691260600550940150,,17931,,1691260600,550870979,"""world""",,,4.919437408447266,-3.053565502166748,0.3663787841796875
1691260600560947340,,17932,,1691260600,560871120,"""world""",,,4.91937255859375,-3.05322265625,0.3682143986225128
1691260600571074743,,17933,,1691260600,570893600,"""world""",,,4.919270038604736,-3.052736759185791,0.3699909448623657
1691260600581002793,,17934,,1691260600,580905577,"""world""",,,4.919272422790527,-3.052138328552246,0.3721047043800354
1691260600590911705,,17935,,1691260600,590859577,"""world""",,,4.919439315795898,-3.0516889095306396,0.37424716353416443
1691260600601000398,,17936,,1691260600,600881692,"""world""",,,4.919128894805908,-3.051189661026001,0.3761642277240753
1691260600610973792,,17937,,1691260600,610875458,"""world""",,,4.918808460235596,-3.0504493713378906,0.378121942281723
1691260600620981505,,17938,,1691260600,620889606,"""world""",,,4.9187774658203125,-3.0497918128967285,0.3802664577960968
1691260600631152369,,17939,,1691260600,630967804,"""world""",,,4.9186320304870605,-3.0492258071899414,0.3824969530105591
1691260600640956200,,17940,,1691260600,640880168,"""world""",,,4.9187469482421875,-3.048685312271118,0.38475221395492554
1691260600650932726,,17941,,1691260600,650870511,"""world""",,,4.918415546417236,-3.0479347705841064,0.3868757486343384
1691260600660967805,,17942,,1691260600,660880552,"""world""",,,4.9192214012146,-3.0477728843688965,0.38937538862228394
1691260600670950004,,17943,,1691260600,670876187,"""world""",,,4.91843318939209,-3.0469017028808594,0.3917739987373352
1691260600680994108,,17944,,1691260600,680905622,"""world""",,,4.918993949890137,-3.0464625358581543,0.3941771686077118
1691260600690939321,,17945,,1691260600,690866270,"""world""",,,4.918251037597656,-3.0456972122192383,0.3967426121234894
1691260600701027741,,17946,,1691260600,700935931,"""world""",,,4.91898775100708,-3.045217990875244,0.39960697293281555
1691260600710944726,,17947,,1691260600,710887461,"""world""",,,4.918145656585693,-3.044193983078003,0.4020654261112213
1691260600721044881,,17948,,1691260600,720914327,"""world""",,,4.918414115905762,-3.04382061958313,0.40495482087135315
1691260600731047158,,17949,,1691260600,730886848,"""world""",,,4.917911529541016,-3.0430150032043457,0.4076937735080719
1691260600741044179,,17950,,1691260600,740923471,"""world""",,,4.917964458465576,-3.0422632694244385,0.4104121923446655
1691260600750977153,,17951,,1691260600,750902849,"""world""",,,4.918094158172607,-3.0413684844970703,0.41361311078071594
1691260600760961246,,17952,,1691260600,760877200,"""world""",,,4.918049335479736,-3.040712594985962,0.41652315855026245
1691260600770950047,,17953,,1691260600,770874981,"""world""",,,4.918253421783447,-3.0398783683776855,0.4196123480796814
1691260600780939070,,17954,,1691260600,780870726,"""world""",,,4.917915344238281,-3.039165496826172,0.42256706953048706
1691260600790955990,,17955,,1691260600,790873886,"""world""",,,4.918014049530029,-3.0383145809173584,0.4256540536880493
1691260600800955235,,17956,,1691260600,800881484,"""world""",,,4.917680740356445,-3.0376696586608887,0.4284370541572571
1691260600810960533,,17957,,1691260600,810869940,"""world""",,,4.917963981628418,-3.0363426208496094,0.43214425444602966
1691260600821047169,,17958,,1691260600,820926327,"""world""",,,4.918540000915527,-3.035573959350586,0.4352709650993347
1691260600831007484,,17959,,1691260600,830891501,"""world""",,,4.918396949768066,-3.034639835357666,0.438533216714859
1691260600840950240,,17960,,1691260600,840875651,"""world""",,,4.918241500854492,-3.0335898399353027,0.441925585269928
1691260600850980933,,17961,,1691260600,850902181,"""world""",,,4.918433666229248,-3.032712936401367,0.44514596462249756
1691260600861007400,,17962,,1691260600,860922547,"""world""",,,4.917848587036133,-3.032036304473877,0.44835329055786133
1691260600870942428,,17963,,1691260600,870867219,"""world""",,,4.918423175811768,-3.0308244228363037,0.4520949125289917
1691260600881016923,,17964,,1691260600,880929850,"""world""",,,4.918107509613037,-3.0297436714172363,0.4554736316204071
1691260600890984103,,17965,,1691260600,890892943,"""world""",,,4.918355941772461,-3.028790235519409,0.4590698480606079
1691260600900977857,,17966,,1691260600,900887609,"""world""",,,4.9181013107299805,-3.0277397632598877,0.4625481367111206
1691260600911004860,,17967,,1691260600,910942298,"""world""",,,4.918329238891602,-3.026625156402588,0.4661611318588257
1691260600921001513,,17968,,1691260600,920899232,"""world""",,,4.918146133422852,-3.0260651111602783,0.46931296586990356
1691260600930986515,,17969,,1691260600,930887068,"""world""",,,4.918144226074219,-3.0245347023010254,0.4734422266483307
1691260600940968540,,17970,,1691260600,940882227,"""world""",,,4.91898775100708,-3.023709774017334,0.4774761199951172
1691260601071094785,,17971,,1691260601,70917778,"""world""",,,4.919272422790527,-3.022759437561035,0.4812232255935669
1691260601071100359,,17972,,1691260601,70971057,"""world""",,,4.919048309326172,-3.0214953422546387,0.48503378033638
1691260601071154086,,17973,,1691260601,70999080,"""world""",,,4.918659687042236,-3.0205750465393066,0.4887177646160126
1691260601071161582,,17978,,1691260601,71052175,"""world""",,,4.919028282165527,-3.0156548023223877,0.5079154372215271
1691260601071189058,,17979,,1691260601,71081095,"""world""",,,4.9192938804626465,-3.014331340789795,0.5120168328285217
1691260601071194859,,17982,,1691260601,71114085,"""world""",,,4.919931411743164,-3.010861873626709,0.5246205925941467
1691260601071200752,,17983,,1691260601,71134295,"""world""",,,4.920072555541992,-3.0099587440490723,0.5289032459259033
1691260601080964032,,17984,,1691260601,80877142,"""world""",,,4.919464588165283,-3.0086896419525146,0.532799482345581
1691260601090957507,,17985,,1691260601,90866048,"""world""",,,4.920421600341797,-3.008126735687256,0.5372314453125
1691260601150975165,,17986,,1691260601,150868637,"""world""",,,4.920188903808594,-3.006875991821289,0.5413435101509094
1691260601150986628,,17987,,1691260601,150881356,"""world""",,,4.920948028564453,-3.0058631896972656,0.5459045767784119
1691260601150995694,,17988,,1691260601,150894560,"""world""",,,4.920584678649902,-3.0048224925994873,0.5501089692115784
1691260601151000767,,17991,,1691260601,150909146,"""world""",,,4.921061038970947,-3.0016298294067383,0.5632060766220093
1691260601161032303,,17992,,1691260601,160929742,"""world""",,,4.921499252319336,-3.0006470680236816,0.5676633715629578
1691260601221096439,,17993,,1691260601,220897199,"""world""",,,4.921925067901611,-2.999650716781616,0.5722431540489197
1691260601221104165,,17994,,1691260601,220912090,"""world""",,,4.921566009521484,-2.998677968978882,0.5765629410743713
1691260601221107888,,17995,,1691260601,220949713,"""world""",,,4.921913146972656,-2.9974915981292725,0.5811484456062317
1691260601221116846,,17998,,1691260601,220981918,"""world""",,,4.922569274902344,-2.994497060775757,0.595045268535614
1691260601230942446,,17999,,1691260601,230873728,"""world""",,,4.92221736907959,-2.993213415145874,0.5993939638137817
1691260601350954907,,18000,,1691260601,350876087,"""world""",,,4.9229912757873535,-2.992495059967041,0.6042570471763611
1691260601350964607,,18001,,1691260601,350892851,"""world""",,,4.922858715057373,-2.99123477935791,0.6088940501213074
1691260601350979032,,18002,,1691260601,350908365,"""world""",,,4.923396587371826,-2.9901816844940186,0.6136875748634338
1691260601350981694,,18007,,1691260601,350934356,"""world""",,,4.925472736358643,-2.9857356548309326,0.6381475925445557
1691260601351025458,,18008,,1691260601,350947431,"""world""",,,4.924918174743652,-2.9845662117004395,0.6428351402282715
1691260601351032900,,18011,,1691260601,350963861,"""world""",,,4.925237655639648,-2.9815194606781006,0.6573642492294312
1691260601360946554,,18012,,1691260601,360873479,"""world""",,,4.925835132598877,-2.9806020259857178,0.6624415516853333
1691260601380973214,,18013,,1691260601,380881040,"""world""",,,4.9252705574035645,-2.9794626235961914,0.66703200340271
1691260601380976360,,18014,,1691260601,380896051,"""world""",,,4.925229072570801,-2.9785213470458984,0.671570360660553
1691260601391043677,,18015,,1691260601,390919836,"""world""",,,4.9255523681640625,-2.9778451919555664,0.6762561798095703
1691260601401074781,,18016,,1691260601,400932576,"""world""",,,4.925623416900635,-2.976846218109131,0.6807546615600586
1691260601510970313,,18017,,1691260601,510898679,"""world""",,,4.926473140716553,-2.9756767749786377,0.685610294342041
1691260601510990143,,18018,,1691260601,510912443,"""world""",,,4.9269700050354,-2.9748024940490723,0.6899548768997192
1691260601511037263,,18019,,1691260601,510928463,"""world""",,,4.927002906799316,-2.9739105701446533,0.6943408846855164
1691260601511042211,,18024,,1691260601,510954272,"""world""",,,4.928218841552734,-2.9692180156707764,0.7146045565605164
1691260601511124685,,18025,,1691260601,511059613,"""world""",,,4.928378105163574,-2.9684057235717773,0.7183064818382263
1691260601511128058,,18026,,1691260601,511066614,"""world""",,,4.928343772888184,-2.967489719390869,0.7216283679008484
1691260601511169631,,18027,,1691260601,511079407,"""world""",,,4.929164886474609,-2.9664580821990967,0.7254887223243713
1691260601520978899,,18028,,1691260601,520898520,"""world""",,,4.929393768310547,-2.965435743331909,0.7288370728492737
1691260601530969553,,18029,,1691260601,530882427,"""world""",,,4.929462909698486,-2.9645209312438965,0.7321939468383789
1691260601540991359,,18030,,1691260601,540875899,"""world""",,,4.92982292175293,-2.963595390319824,0.7352127432823181
1691260601550957899,,18031,,1691260601,550900063,"""world""",,,4.930379867553711,-2.962846517562866,0.7384765148162842
1691260601560956401,,18032,,1691260601,560876133,"""world""",,,4.930931568145752,-2.9621388912200928,0.7414165735244751
1691260601570957752,,18033,,1691260601,570885061,"""world""",,,4.931418418884277,-2.96134090423584,0.7445352077484131
1691260601691039283,,18034,,1691260601,690929339,"""world""",,,4.931196212768555,-2.9603917598724365,0.7472187280654907
1691260601691047378,,18035,,1691260601,690943217,"""world""",,,4.9312310218811035,-2.959566354751587,0.7500806450843811
1691260601691057230,,18036,,1691260601,690961160,"""world""",,,4.931433200836182,-2.9587695598602295,0.7528377175331116
1691260601691073594,,18040,,1691260601,690981511,"""world""",,,4.932390213012695,-2.9559879302978516,0.7639480829238892
1691260601691081970,,18041,,1691260601,690994935,"""world""",,,4.932626724243164,-2.954890251159668,0.7666937708854675
1691260601691089595,,18042,,1691260601,691029601,"""world""",,,4.932814121246338,-2.9541163444519043,0.7694193124771118
1691260601691093674,,18043,,1691260601,691044318,"""world""",,,4.933276176452637,-2.95355486869812,0.7722563743591309
1691260601691124689,,18044,,1691260601,691060804,"""world""",,,4.933858394622803,-2.952700138092041,0.7751746773719788
1691260601691130504,,18045,,1691260601,691069107,"""world""",,,4.933696269989014,-2.9517648220062256,0.7779358625411987
1691260601700980670,,18046,,1691260601,700873390,"""world""",,,4.934264659881592,-2.9513566493988037,0.7807061672210693
1691260601710988231,,18047,,1691260601,710875471,"""world""",,,4.934001922607422,-2.9506025314331055,0.7834545373916626
1691260601721088368,,18048,,1691260601,720930424,"""world""",,,4.934386253356934,-2.950071334838867,0.7862812280654907
1691260601730981719,,18049,,1691260601,730874137,"""world""",,,4.934473991394043,-2.9496817588806152,0.7890620231628418
1691260601740944438,,18050,,1691260601,740876862,"""world""",,,4.934508800506592,-2.9487223625183105,0.7920379638671875
1691260601750996534,,18051,,1691260601,750880796,"""world""",,,4.935245037078857,-2.9482052326202393,0.7952415943145752
1691260601760991518,,18052,,1691260601,760890431,"""world""",,,4.93510103225708,-2.947542905807495,0.798038899898529
1691260601770996262,,18053,,1691260601,770893107,"""world""",,,4.9352898597717285,-2.946923017501831,0.8010614514350891
1691260601900975503,,18054,,1691260601,900890386,"""world""",,,4.935302257537842,-2.946537733078003,0.8040462732315063
1691260601901000495,,18055,,1691260601,900904607,"""world""",,,4.935361862182617,-2.946139335632324,0.8071807622909546
1691260601901033986,,18056,,1691260601,900923415,"""world""",,,4.93562126159668,-2.9450788497924805,0.8106038570404053
1691260601901039012,,18061,,1691260601,900954634,"""world""",,,4.937211990356445,-2.9425485134124756,0.8273788094520569
1691260601901114389,,18062,,1691260601,900971078,"""world""",,,4.936779975891113,-2.9419710636138916,0.8305490612983704
1691260601901118387,,18065,,1691260601,901019575,"""world""",,,4.936935901641846,-2.9402527809143066,0.8410025238990784
1691260601901127946,,18066,,1691260601,901039312,"""world""",,,4.937406063079834,-2.940203905105591,0.8447050452232361
1691260601910947716,,18067,,1691260601,910880657,"""world""",,,4.937534809112549,-2.9396812915802,0.848181962966919
1691260601921051276,,18068,,1691260601,920921157,"""world""",,,4.937819004058838,-2.939436912536621,0.8518828749656677
1691260601930976683,,18069,,1691260601,930876861,"""world""",,,4.93832540512085,-2.939009189605713,0.8556109070777893
1691260601941061361,,18070,,1691260601,940907651,"""world""",,,4.93809700012207,-2.9386305809020996,0.8594826459884644
1691260601951034628,,18071,,1691260601,950922460,"""world""",,,4.938195705413818,-2.9381349086761475,0.8630848526954651
1691260601961015031,,18072,,1691260601,960880304,"""world""",,,4.938305377960205,-2.9380006790161133,0.8670334815979004
1691260601970950584,,18073,,1691260601,970881309,"""world""",,,4.937837600708008,-2.937418222427368,0.8707136511802673
1691260601980941416,,18074,,1691260601,980874253,"""world""",,,4.937865257263184,-2.936854839324951,0.8747382164001465
1691260602100984318,,18075,,1691260602,100889449,"""world""",,,4.9381608963012695,-2.9368653297424316,0.8786935806274414
1691260602100992672,,18076,,1691260602,100910322,"""world""",,,4.938048362731934,-2.9365551471710205,0.882740318775177
1691260602101023869,,18077,,1691260602,100935692,"""world""",,,4.937899589538574,-2.9362430572509766,0.8868227601051331
1691260602101049117,,18080,,1691260602,100961867,"""world""",,,4.9379401206970215,-2.935197591781616,0.8992999792098999
1691260602101053710,,18081,,1691260602,100976423,"""world""",,,4.938248157501221,-2.9353365898132324,0.9034906029701233
1691260602101068715,,18082,,1691260602,100986063,"""world""",,,4.938444137573242,-2.9350473880767822,0.9079129695892334
1691260602101102222,,18083,,1691260602,101002250,"""world""",,,4.937989234924316,-2.934572458267212,0.9119341969490051
1691260602101107973,,18086,,1691260602,101046798,"""world""",,,4.937862396240234,-2.9342947006225586,0.9251471757888794
1691260602110961849,,18087,,1691260602,110890849,"""world""",,,4.938109874725342,-2.9340713024139404,0.9297473430633545
1691260602120982634,,18088,,1691260602,120881260,"""world""",,,4.937807083129883,-2.933849334716797,0.9340443015098572
1691260602131067824,,18089,,1691260602,130936790,"""world""",,,4.937362194061279,-2.9335296154022217,0.9384443163871765
1691260602140962601,,18090,,1691260602,140871912,"""world""",,,4.937906265258789,-2.933598279953003,0.9432517886161804
1691260602150943949,,18091,,1691260602,150867800,"""world""",,,4.937238693237305,-2.9334347248077393,0.9474892020225525
1691260602160976886,,18092,,1691260602,160907307,"""world""",,,4.937016487121582,-2.933091402053833,0.9522097706794739
1691260602170963051,,18093,,1691260602,170884173,"""world""",,,4.937082767486572,-2.932960033416748,0.9570260643959045
1691260602181030741,,18094,,1691260602,180889422,"""world""",,,4.936738014221191,-2.9328348636627197,0.9616676568984985
1691260602281028006,,18095,,1691260602,280899259,"""world""",,,4.9369330406188965,-2.932929515838623,0.9663734436035156
1691260602290949348,,18096,,1691260602,290865426,"""world""",,,4.937051773071289,-2.9327640533447266,0.9712806344032288
1691260602290957711,,18097,,1691260602,290878088,"""world""",,,4.936925411224365,-2.9328155517578125,0.975896954536438
1691260602291050935,,18098,,1691260602,290899018,"""world""",,,4.9365715980529785,-2.932626724243164,0.9806132316589355
1691260602291059323,,18101,,1691260602,290922376,"""world""",,,4.9366326332092285,-2.932764768600464,0.9953562617301941
1691260602291066181,,18102,,1691260602,290937363,"""world""",,,4.936454772949219,-2.932724714279175,1.0002204179763794
1691260602291069504,,18105,,1691260602,290966301,"""world""",,,4.935763835906982,-2.9327232837677,1.0152134895324707
1691260602300950641,,18106,,1691260602,300884260,"""world""",,,4.935390472412109,-2.932668924331665,1.0202070474624634
1691260602310995674,,18107,,1691260602,310907007,"""world""",,,4.935267448425293,-2.932718276977539,1.0252223014831543
1691260602321069254,,18108,,1691260602,320969202,"""world""",,,4.935029983520508,-2.9329347610473633,1.0303058624267578
1691260602330997827,,18109,,1691260602,330909274,"""world""",,,4.934789180755615,-2.9325830936431885,1.0356327295303345
1691260602340978319,,18110,,1691260602,340882091,"""world""",,,4.934797286987305,-2.9328393936157227,1.0407164096832275
1691260602350959600,,18111,,1691260602,350872069,"""world""",,,4.9348673820495605,-2.9329397678375244,1.0459895133972168
1691260602361083175,,18112,,1691260602,360930832,"""world""",,,4.934879302978516,-2.933016061782837,1.051393985748291
1691260602371075591,,18113,,1691260602,370938726,"""world""",,,4.934759616851807,-2.9333672523498535,1.0566493272781372
1691260602380984663,,18114,,1691260602,380875375,"""world""",,,4.934028625488281,-2.933093786239624,1.0620030164718628
1691260602390969740,,18115,,1691260602,390879567,"""world""",,,4.933814525604248,-2.9331953525543213,1.0672607421875
1691260602510982933,,18116,,1691260602,510874406,"""world""",,,4.933416843414307,-2.933354377746582,1.0725653171539307
1691260602510992651,,18118,,1691260602,510893170,"""world""",,,4.933499813079834,-2.9346187114715576,1.0831167697906494
1691260602511019840,,18119,,1691260602,510911094,"""world""",,,4.932422161102295,-2.9337639808654785,1.0889028310775757
1691260602511029475,,18125,,1691260602,510940270,"""world""",,,4.932172775268555,-2.935030221939087,1.122497797012329
1691260602511034783,,18126,,1691260602,510985226,"""world""",,,4.931894302368164,-2.9351272583007812,1.1281466484069824
1691260602511039570,,18127,,1691260602,510993991,"""world""",,,4.931542873382568,-2.9353315830230713,1.1338019371032715
1691260602520969893,,18128,,1691260602,520879118,"""world""",,,4.930703639984131,-2.934617280960083,1.139373779296875
1691260602530997909,,18129,,1691260602,530901075,"""world""",,,4.930825233459473,-2.935574769973755,1.1452916860580444
1691260602541019878,,18130,,1691260602,540914991,"""world""",,,4.930079460144043,-2.935914993286133,1.1507768630981445
1691260602550971405,,18131,,1691260602,550889059,"""world""",,,4.929792404174805,-2.93626070022583,1.1566413640975952
1691260602560966679,,18132,,1691260602,560875028,"""world""",,,4.9298624992370605,-2.9363722801208496,1.162697434425354
1691260602571083775,,18133,,1691260602,570941221,"""world""",,,4.930233955383301,-2.93648099899292,1.1686750650405884
1691260602581019778,,18134,,1691260602,580902890,"""world""",,,4.929923057556152,-2.936849594116211,1.1745679378509521
1691260602590977599,,18135,,1691260602,590868904,"""world""",,,4.928946018218994,-2.9370107650756836,1.1802583932876587
1691260602710980475,,18136,,1691260602,710890136,"""world""",,,4.92885160446167,-2.9373834133148193,1.1862236261367798
1691260602721059849,,18137,,1691260602,720921473,"""world""",,,4.928365707397461,-2.9382526874542236,1.1916519403457642
1691260602721091659,,18138,,1691260602,720958821,"""world""",,,4.927414417266846,-2.937373161315918,1.198104739189148
1691260602721122286,,18141,,1691260602,720985137,"""world""",,,4.927237510681152,-2.938528060913086,1.2163584232330322
1691260602721164338,,18142,,1691260602,721019445,"""world""",,,4.926639556884766,-2.9387223720550537,1.222366213798523
1691260602721172858,,18145,,1691260602,721069709,"""world""",,,4.925484657287598,-2.9402124881744385,1.2466514110565186
1691260602721190839,,18146,,1691260602,721087532,"""world""",,,4.925569534301758,-2.9403798580169678,1.25294029712677
1691260602721235974,,18147,,1691260602,721096246,"""world""",,,4.925541400909424,-2.9412097930908203,1.2591948509216309
1691260602730972684,,18148,,1691260602,730874661,"""world""",,,4.924631595611572,-2.940950393676758,1.2653330564498901
1691260602740954606,,18149,,1691260602,740874278,"""world""",,,4.92401123046875,-2.941389560699463,1.2713816165924072
1691260602750973103,,18150,,1691260602,750889384,"""world""",,,4.924132823944092,-2.9423093795776367,1.277256727218628
1691260602770956048,,18151,,1691260602,770880515,"""world""",,,4.923701286315918,-2.9436614513397217,1.2893844842910767
1691260602780956130,,18152,,1691260602,780874599,"""world""",,,4.922580718994141,-2.9426093101501465,1.295949935913086
1691260602791035599,,18153,,1691260602,790869911,"""world""",,,4.92219877243042,-2.942919969558716,1.3021913766860962
1691260602920974539,,18154,,1691260602,920886588,"""world""",,,4.922009468078613,-2.9433681964874268,1.308273434638977
1691260602920983055,,18155,,1691260602,920902939,"""world""",,,4.921922206878662,-2.943791627883911,1.3142563104629517
1691260602920988540,,18156,,1691260602,920922356,"""world""",,,4.921288967132568,-2.944159507751465,1.3202458620071411
1691260602920993623,,18160,,1691260602,920945864,"""world""",,,4.92024564743042,-2.9452247619628906,1.3434460163116455
1691260602921055742,,18161,,1691260602,920957809,"""world""",,,4.920597553253174,-2.9461324214935303,1.3492910861968994
1691260602921063780,,18163,,1691260602,920975483,"""world""",,,4.919073581695557,-2.947187662124634,1.3599624633789062
1691260602921071056,,18164,,1691260602,920992900,"""world""",,,4.918686866760254,-2.94769549369812,1.3650357723236084
1691260602921077620,,18165,,1691260602,921003539,"""world""",,,4.9181671142578125,-2.9475417137145996,1.3704919815063477
1691260602921106807,,18166,,1691260602,921012266,"""world""",,,4.918009281158447,-2.9481849670410156,1.375325322151184
1691260602930996887,,18167,,1691260602,930886507,"""world""",,,4.917757511138916,-2.948577880859375,1.3804547786712646
1691260602940944728,,18168,,1691260602,940881403,"""world""",,,4.917513370513916,-2.9487898349761963,1.3852660655975342
1691260602960985029,,18169,,1691260602,960904932,"""world""",,,4.917238235473633,-2.9491798877716064,1.3899728059768677
1691260602960997467,,18170,,1691260602,960917574,"""world""",,,4.917296886444092,-2.9496662616729736,1.3945493698120117
1691260602971004263,,18171,,1691260602,970875837,"""world""",,,4.916713237762451,-2.9501399993896484,1.3988901376724243
1691260602980945213,,18172,,1691260602,980880381,"""world""",,,4.916492462158203,-2.950692653656006,1.4029505252838135
1691260602991032320,,18173,,1691260602,990933238,"""world""",,,4.916314125061035,-2.951138734817505,1.4069797992706299
1691260603000966821,,18174,,1691260603,877298,"""world""",,,4.916128635406494,-2.951521158218384,1.4111554622650146
1691260603141039204,,18175,,1691260603,140884422,"""world""",,,4.9159770011901855,-2.951997756958008,1.414965033531189
1691260603141049370,,18180,,1691260603,140967355,"""world""",,,4.914205074310303,-2.954648971557617,1.4316259622573853
1691260603141099933,,18181,,1691260603,140991717,"""world""",,,4.9144182205200195,-2.956922769546509,1.4403859376907349
1691260603141112398,,18185,,1691260603,141011406,"""world""",,,4.912046432495117,-2.957608699798584,1.4541456699371338
1691260603150965933,,18186,,1691260603,150870498,"""world""",,,4.9116411209106445,-2.957812547683716,1.4565843343734741
1691260603170961682,,18187,,1691260603,170884696,"""world""",,,4.9114580154418945,-2.959467649459839,1.4585161209106445
1691260603170972383,,18188,,1691260603,170899090,"""world""",,,4.911301136016846,-2.9599709510803223,1.4609718322753906
1691260603180934218,,18189,,1691260603,180872579,"""world""",,,4.911365032196045,-2.9606828689575195,1.4631237983703613
1691260603190980662,,18190,,1691260603,190887207,"""world""",,,4.911710262298584,-2.9616425037384033,1.465639352798462
1691260603200937190,,18191,,1691260603,200869951,"""world""",,,4.911654949188232,-2.9620509147644043,1.4681260585784912
1691260603331004725,,18192,,1691260603,330911534,"""world""",,,4.910411834716797,-2.9612739086151123,1.4727954864501953
1691260603331028992,,18193,,1691260603,330948937,"""world""",,,4.910584449768066,-2.9619340896606445,1.4752209186553955
1691260603331038377,,18195,,1691260603,330973559,"""world""",,,4.9081339836120605,-2.9636850357055664,1.4869163036346436
1691260603340969654,,18196,,1691260603,340905524,"""world""",,,4.907142162322998,-2.966980457305908,1.501847743988037
1691260603391004004,,18197,,1691260603,390908542,"""world""",,,4.906447887420654,-2.9699342250823975,1.5148591995239258
1691260603550997039,,18198,,1691260603,550883609,"""world""",,,4.906198024749756,-2.9716074466705322,1.5293209552764893
1691260603551003413,,18199,,1691260603,550911848,"""world""",,,4.904969215393066,-2.9738876819610596,1.533440113067627
1691260603551048926,,18200,,1691260603,550926752,"""world""",,,4.904512405395508,-2.9740359783172607,1.536306619644165
1691260603551055991,,18201,,1691260603,550964037,"""world""",,,4.903670787811279,-2.9783029556274414,1.5507198572158813
1691260603551109555,,18203,,1691260603,550980667,"""world""",,,4.902799129486084,-2.9787535667419434,1.5556882619857788
1691260603620962222,,18204,,1691260603,620887499,"""world""",,,4.903134346008301,-2.9840166568756104,1.570529580116272
1691260603631041388,,18205,,1691260603,630927544,"""world""",,,4.902757167816162,-2.984053611755371,1.5729297399520874
1691260603640966814,,18206,,1691260603,640880004,"""world""",,,4.903839111328125,-2.983910322189331,1.5756151676177979
1691260603680969868,,18207,,1691260603,680873691,"""world""",,,4.903834819793701,-2.986631155014038,1.5837883949279785
1691260603691054695,,18208,,1691260603,690900777,"""world""",,,4.9028096199035645,-2.988373041152954,1.5847824811935425
1691260603700952417,,18209,,1691260603,700875091,"""world""",,,4.903140068054199,-2.9889907836914062,1.5869874954223633
1691260603710976684,,18210,,1691260603,710898180,"""world""",,,4.902344226837158,-2.9882383346557617,1.5897823572158813
1691260603740959966,,18211,,1691260603,740877722,"""world""",,,4.903330326080322,-2.98992919921875,1.594854474067688
1691260603751011397,,18212,,1691260603,750869006,"""world""",,,4.903554916381836,-2.9907474517822266,1.5964666604995728
1691260603760942707,,18213,,1691260603,760878973,"""world""",,,4.903701305389404,-2.9916326999664307,1.5981230735778809
1691260603780997219,,18214,,1691260603,780881284,"""world""",,,4.902438640594482,-2.9921340942382812,1.6012266874313354
1691260603791054058,,18215,,1691260603,790895442,"""world""",,,4.903202533721924,-2.9931390285491943,1.6025700569152832
1691260603800985759,,18216,,1691260603,800895008,"""world""",,,4.902876853942871,-2.9943246841430664,1.6038295030593872
1691260603810979662,,18217,,1691260603,810880151,"""world""",,,4.902487754821777,-2.9942779541015625,1.6053524017333984
1691260603820980983,,18218,,1691260603,820889822,"""world""",,,4.9019775390625,-2.995513439178467,1.6060024499893188
1691260603850969914,,18219,,1691260603,850869957,"""world""",,,4.903172016143799,-2.9966516494750977,1.6104503870010376
1691260603860968402,,18220,,1691260603,860879248,"""world""",,,4.903410911560059,-2.9975497722625732,1.6116893291473389
1691260603871038887,,18221,,1691260603,870908815,"""world""",,,4.903835773468018,-2.998453140258789,1.6130430698394775
1691260603880968618,,18222,,1691260603,880869092,"""world""",,,4.902894496917725,-2.999917984008789,1.6133770942687988
1691260603890973207,,18223,,1691260603,890868911,"""world""",,,4.902705669403076,-2.9997289180755615,1.6154224872589111
1691260603910958597,,18224,,1691260603,910867617,"""world""",,,4.903687477111816,-3.000577926635742,1.61785089969635
1691260603920979717,,18225,,1691260603,920891093,"""world""",,,4.903802394866943,-3.0012011528015137,1.6189674139022827
1691260603930985635,,18226,,1691260603,930889016,"""world""",,,4.903934001922607,-3.0016977787017822,1.6202256679534912
1691260603940939067,,18227,,1691260603,940871871,"""world""",,,4.904260158538818,-3.002187967300415,1.6218689680099487
1691260603950963237,,18228,,1691260603,950867378,"""world""",,,4.9051899909973145,-3.005167007446289,1.6220518350601196
1691260603960960767,,18229,,1691260603,960894923,"""world""",,,4.9043755531311035,-3.005497455596924,1.6235079765319824
1691260603970969439,,18230,,1691260603,970894372,"""world""",,,4.904647350311279,-3.004516124725342,1.6253284215927124
1691260603981002939,,18231,,1691260603,980903533,"""world""",,,4.90514612197876,-3.0055038928985596,1.6266744136810303
1691260603991019257,,18232,,1691260603,990893120,"""world""",,,4.905146598815918,-3.0060806274414062,1.6279444694519043
1691260604000939805,,18233,,1691260604,872828,"""world""",,,4.9053425788879395,-3.006577968597412,1.629482626914978
1691260604010941078,,18234,,1691260604,10868628,"""world""",,,4.904781818389893,-3.008563995361328,1.629900336265564
1691260604021110623,,18235,,1691260604,20894257,"""world""",,,4.904097080230713,-3.0086984634399414,1.6316066980361938
1691260604230953228,,18236,,1691260604,230882908,"""world""",,,4.88420295715332,-3.015197515487671,1.6243308782577515
1691260604341027599,,18237,,1691260604,340937504,"""world""",,,4.904173851013184,-3.0096185207366943,1.6378231048583984
1691260604341064610,,18238,,1691260604,340978955,"""world""",,,4.906669616699219,-3.0125856399536133,1.63832688331604
1691260604341074505,,18241,,1691260604,341007386,"""world""",,,4.906421661376953,-3.0128417015075684,1.643311858177185
1691260604341147629,,18242,,1691260604,341020860,"""world""",,,4.906290531158447,-3.0132322311401367,1.6448161602020264
1691260604341155786,,18247,,1691260604,341050633,"""world""",,,4.907334804534912,-3.017530918121338,1.6553630828857422
1691260604341226280,,18248,,1691260604,341076713,"""world""",,,4.9071269035339355,-3.01835036277771,1.657017707824707
1691260604341237671,,18257,,1691260604,341165870,"""world""",,,4.908746719360352,-3.0247933864593506,1.6714503765106201
1691260604341303692,,18258,,1691260604,341184660,"""world""",,,4.908360958099365,-3.0256309509277344,1.673117756843567
1691260604341310936,,18261,,1691260604,341202282,"""world""",,,4.890615940093994,-3.034640073776245,1.6671733856201172
1691260604350955767,,18262,,1691260604,350886827,"""world""",,,4.910729885101318,-3.028477430343628,1.6782869100570679
1691260604360910709,,18263,,1691260604,360858562,"""world""",,,4.91037130355835,-3.0287084579467773,1.6790556907653809
1691260604421064231,,18264,,1691260604,420899177,"""world""",,,4.910669803619385,-3.0291895866394043,1.6798533201217651
1691260604421106516,,18265,,1691260604,420953360,"""world""",,,4.911167144775391,-3.029859781265259,1.6806279420852661
1691260604421111668,,18268,,1691260604,421012047,"""world""",,,4.909733772277832,-3.031087875366211,1.6823792457580566
1691260604490983692,,18269,,1691260604,490866400,"""world""",,,4.9149580001831055,-3.0354480743408203,1.6832592487335205
1691260604490995491,,18270,,1691260604,490895565,"""world""",,,4.914717674255371,-3.0358974933624268,1.6828083992004395
1691260604491016450,,18271,,1691260604,490912185,"""world""",,,4.914446830749512,-3.0363497734069824,1.6823004484176636
1691260604491022222,,18273,,1691260604,490922644,"""world""",,,4.914796829223633,-3.03743577003479,1.681437373161316
1691260604500965349,,18274,,1691260604,500886488,"""world""",,,4.915140628814697,-3.0381362438201904,1.6808750629425049
1691260604510979601,,18275,,1691260604,510888420,"""world""",,,4.914890289306641,-3.038499593734741,1.680142879486084
1691260604630977857,,18276,,1691260604,630875511,"""world""",,,4.915519714355469,-3.039905309677124,1.678518295288086
1691260604640972617,,18277,,1691260604,640881484,"""world""",,,4.915767192840576,-3.040496826171875,1.677733063697815
1691260604640981702,,18278,,1691260604,640899206,"""world""",,,4.901206016540527,-3.048201560974121,1.6697378158569336
