rosbagTimestamp,header,seq,stamp,secs,nsecs,frame_id,pose,position,x,y,z
1691260356621012707,,11519,,1691260356,620915857,"""world""",,,2.1251158714294434,-2.327777862548828,0.30567666888237
1691260356670964558,,11520,,1691260356,670871517,"""world""",,,2.1232357025146484,-2.3329827785491943,0.30593520402908325
1691260356670977744,,11521,,1691260356,670885677,"""world""",,,2.121615409851074,-2.335055351257324,0.30420759320259094
1691260356680953153,,11522,,1691260356,680878396,"""world""",,,2.1209988594055176,-2.3361642360687256,0.3032144606113434
1691260356690968940,,11523,,1691260356,690865459,"""world""",,,2.1211113929748535,-2.3362860679626465,0.30335742235183716
1691260356700941636,,11524,,1691260356,700881477,"""world""",,,2.1204309463500977,-2.337726354598999,0.30259230732917786
1691260356710958299,,11525,,1691260356,710865826,"""world""",,,2.120105028152466,-2.3393707275390625,0.3020363450050354
1691260356721040565,,11526,,1691260356,720888136,"""world""",,,2.1198177337646484,-2.3396453857421875,0.3021497428417206
1691260356731000860,,11527,,1691260356,730903528,"""world""",,,2.1197447776794434,-2.3403778076171875,0.302272230386734
1691260356741098609,,11528,,1691260356,740917645,"""world""",,,2.1192121505737305,-2.3412110805511475,0.30214861035346985
1691260356800939552,,11529,,1691260356,800874937,"""world""",,,2.1071553230285645,-2.3514041900634766,0.29649877548217773
1691260356811035188,,11530,,1691260356,810865933,"""world""",,,2.1266961097717285,-2.3389463424682617,0.3121851980686188
1691260356820992103,,11531,,1691260356,820891923,"""world""",,,2.123506546020508,-2.339545726776123,0.3100740611553192
1691260356831028712,,11532,,1691260356,830913922,"""world""",,,2.123239755630493,-2.339477777481079,0.31066614389419556
1691260356841048208,,11533,,1691260356,840911923,"""world""",,,2.1228339672088623,-2.339284658432007,0.3109975755214691
1691260356850963881,,11534,,1691260356,850868613,"""world""",,,2.1234097480773926,-2.3380942344665527,0.3128768801689148
1691260356861060679,,11535,,1691260356,860914187,"""world""",,,2.1237380504608154,-2.3378257751464844,0.31398940086364746
1691260356871137430,,11536,,1691260356,870923570,"""world""",,,2.1123218536376953,-2.3508665561676025,0.30209457874298096
1691260356881093007,,11537,,1691260356,880896883,"""world""",,,2.123305320739746,-2.3381357192993164,0.31458473205566406
1691260356891001767,,11538,,1691260356,890917010,"""world""",,,2.123627185821533,-2.335970878601074,0.31727728247642517
1691260356900948329,,11539,,1691260356,900878311,"""world""",,,2.1234731674194336,-2.3389313220977783,0.31544020771980286
1691260356960963168,,11540,,1691260356,960887844,"""world""",,,2.1150243282318115,-2.3495569229125977,0.3086622357368469
1691260356970957542,,11541,,1691260356,970876296,"""world""",,,2.11677622795105,-2.3483314514160156,0.3106028437614441
1691260356980980818,,11542,,1691260356,980896066,"""world""",,,2.1224894523620605,-2.338207960128784,0.31997278332710266
1691260356991046534,,11543,,1691260356,990892900,"""world""",,,2.122650623321533,-2.337559223175049,0.32116758823394775
1691260357000908353,,11544,,1691260357,838434,"""world""",,,2.1236932277679443,-2.3361730575561523,0.3236101269721985
1691260357010942816,,11545,,1691260357,10862504,"""world""",,,2.12372088432312,-2.335639476776123,0.32473331689834595
1691260357020970446,,11546,,1691260357,20872109,"""world""",,,2.1235387325286865,-2.338928699493408,0.32249322533607483
1691260357040982063,,11547,,1691260357,40869843,"""world""",,,2.110266923904419,-2.3513522148132324,0.31060269474983215
1691260357070957197,,11548,,1691260357,70891792,"""world""",,,2.1239383220672607,-2.3439972400665283,0.32282599806785583
1691260357081675031,,11549,,1691260357,81016727,"""world""",,,2.1158151626586914,-2.3452236652374268,0.31786081194877625
1691260357090994110,,11550,,1691260357,90897373,"""world""",,,2.115638017654419,-2.345043420791626,0.31850457191467285
1691260357101101760,,11551,,1691260357,100896073,"""world""",,,2.1157383918762207,-2.3449509143829346,0.3192322850227356
1691260357110949058,,11552,,1691260357,110873486,"""world""",,,2.1159470081329346,-2.3450231552124023,0.3200380504131317
1691260357120940040,,11553,,1691260357,120873349,"""world""",,,2.1235222816467285,-2.339519739151001,0.3286784291267395
1691260357130974430,,11554,,1691260357,130891609,"""world""",,,2.1164820194244385,-2.344517469406128,0.32166001200675964
1691260357140965514,,11555,,1691260357,140876235,"""world""",,,2.116562604904175,-2.344468593597412,0.3226053714752197
1691260357150975008,,11556,,1691260357,150870993,"""world""",,,2.116236448287964,-2.3440630435943604,0.32347747683525085
1691260357160935443,,11557,,1691260357,160870045,"""world""",,,2.1177897453308105,-2.3438713550567627,0.3252842128276825
1691260357170958044,,11558,,1691260357,170880151,"""world""",,,2.120039463043213,-2.343498945236206,0.32732295989990234
1691260357180983856,,11559,,1691260357,180879303,"""world""",,,2.1164307594299316,-2.3437952995300293,0.3264242112636566
1691260357190986024,,11560,,1691260357,190869047,"""world""",,,2.1191184520721436,-2.3422069549560547,0.32984086871147156
1691260357200982842,,11561,,1691260357,200882561,"""world""",,,2.1248297691345215,-2.3374927043914795,0.33714422583580017
1691260357220988700,,11562,,1691260357,220886111,"""world""",,,2.1155636310577393,-2.3504092693328857,0.3288079798221588
1691260357241007651,,11563,,1691260357,240906858,"""world""",,,2.119631052017212,-2.341667413711548,0.3358317017555237
1691260357250969672,,11564,,1691260357,250896228,"""world""",,,2.119328737258911,-2.3416216373443604,0.3366405963897705
1691260357260941225,,11565,,1691260357,260873203,"""world""",,,2.120792865753174,-2.3426411151885986,0.33847576379776
1691260357270948120,,11566,,1691260357,270872831,"""world""",,,2.117969274520874,-2.342970609664917,0.3385946452617645
1691260357281027950,,11567,,1691260357,280878521,"""world""",,,2.1176199913024902,-2.3425803184509277,0.33987581729888916
1691260357291048217,,11568,,1691260357,290890820,"""world""",,,2.11763858795166,-2.342400074005127,0.3412642478942871
1691260357300967619,,11569,,1691260357,300883555,"""world""",,,2.1205573081970215,-2.3419320583343506,0.3442568778991699
1691260357310933752,,11570,,1691260357,310871474,"""world""",,,2.1213338375091553,-2.3421788215637207,0.34636953473091125
1691260357321065399,,11571,,1691260357,320954620,"""world""",,,2.1202163696289062,-2.3411271572113037,0.3482825458049774
1691260357331001079,,11572,,1691260357,330897550,"""world""",,,2.1206812858581543,-2.3414103984832764,0.3497234284877777
1691260357340962051,,11573,,1691260357,340883322,"""world""",,,2.1177234649658203,-2.3410205841064453,0.34942564368247986
1691260357350981121,,11574,,1691260357,350896323,"""world""",,,2.120140790939331,-2.340209484100342,0.35301467776298523
1691260357360957552,,11575,,1691260357,360883845,"""world""",,,2.121056318283081,-2.3405702114105225,0.3553735017776489
1691260357371086171,,11576,,1691260357,370904190,"""world""",,,2.1209192276000977,-2.3395771980285645,0.3571871221065521
1691260357410955004,,11577,,1691260357,410871737,"""world""",,,2.1242618560791016,-2.340027093887329,0.3652227520942688
1691260357441042644,,11578,,1691260357,440921185,"""world""",,,2.1186351776123047,-2.336770534515381,0.3694622218608856
1691260357450989004,,11579,,1691260357,450896399,"""world""",,,2.125854969024658,-2.3367795944213867,0.3755493760108948
1691260357500982755,,11580,,1691260357,500885359,"""world""",,,2.1260855197906494,-2.334522247314453,0.38460302352905273
1691260357681027848,,11581,,1691260357,680879005,"""world""",,,2.1278634071350098,-2.318469524383545,0.4309731423854828
1691260357760943742,,11582,,1691260357,760874282,"""world""",,,2.1284806728363037,-2.311817169189453,0.45479145646095276
1691260358231105240,,11583,,1691260358,230921426,"""world""",,,2.125397205352783,-2.2732343673706055,0.6038219928741455
1691260358261015154,,11584,,1691260358,260904647,"""world""",,,2.125385046005249,-2.2577004432678223,0.6665565371513367
1691260358470967201,,11585,,1691260358,470901777,"""world""",,,2.1302313804626465,-2.2428369522094727,0.7892352938652039
1691260358490942621,,11586,,1691260358,490877410,"""world""",,,2.1304962635040283,-2.242710828781128,0.7952157258987427
1691260358641015314,,11587,,1691260358,640923908,"""world""",,,2.1345694065093994,-2.2398550510406494,0.8824175596237183
1691260358641019407,,11588,,1691260358,640966611,"""world""",,,2.132751941680908,-2.236382484436035,0.9039275050163269
1691260358800968107,,11589,,1691260358,800872190,"""world""",,,2.134361505508423,-2.2361316680908203,0.9323278665542603
1691260358800976923,,11592,,1691260358,800898466,"""world""",,,2.1351006031036377,-2.2358126640319824,0.983271598815918
1691260358801083921,,11593,,1691260358,800929359,"""world""",,,2.1361773014068604,-2.2349467277526855,1.0137909650802612
1691260358831048806,,11594,,1691260358,830921888,"""world""",,,2.1361403465270996,-2.2341344356536865,1.0442897081375122
1691260358870956945,,11595,,1691260358,870877921,"""world""",,,2.137047529220581,-2.2345986366271973,1.0758811235427856
1691260359401010503,,11596,,1691260359,400890989,"""world""",,,2.1295807361602783,-2.2390849590301514,1.4259657859802246
1691260359620991816,,11597,,1691260359,620888199,"""world""",,,2.1236839294433594,-2.2462902069091797,1.4256850481033325
1691260359651003601,,11598,,1691260359,650873045,"""world""",,,2.1172380447387695,-2.2531750202178955,1.401821255683899
1691260359671002248,,11599,,1691260359,670876043,"""world""",,,2.1189165115356445,-2.2446439266204834,1.4040424823760986
1691260359820968161,,11600,,1691260359,820866428,"""world""",,,2.11356782913208,-2.2464890480041504,1.37885320186615
1691260359820982978,,11601,,1691260359,820880587,"""world""",,,2.1109731197357178,-2.251735210418701,1.3659007549285889
1691260359820990964,,11602,,1691260359,820898355,"""world""",,,2.1105740070343018,-2.2539708614349365,1.3621243238449097
1691260359831077131,,11603,,1691260359,830935680,"""world""",,,2.091352939605713,-2.271310806274414,1.3380883932113647
1691260360040952641,,11604,,1691260360,40876467,"""world""",,,2.098522424697876,-2.2587244510650635,1.3280155658721924
1691260360080957046,,11605,,1691260360,80879401,"""world""",,,2.0918025970458984,-2.2649028301239014,1.329167127609253
1691260360091048872,,11606,,1691260360,90922783,"""world""",,,2.0914840698242188,-2.2634027004241943,1.3319119215011597
1691260360231028863,,11607,,1691260360,230914459,"""world""",,,2.0889432430267334,-2.268596649169922,1.3346673250198364
1691260360231049598,,11608,,1691260360,230962599,"""world""",,,2.0893704891204834,-2.2673404216766357,1.3391040563583374
1691260360231053264,,11610,,1691260360,230976428,"""world""",,,2.0850090980529785,-2.271078586578369,1.347419261932373
1691260360270955533,,11611,,1691260360,270873253,"""world""",,,2.0801310539245605,-2.2764453887939453,1.3844538927078247
1691260360441021598,,11612,,1691260360,440901286,"""world""",,,2.0721476078033447,-2.2881743907928467,1.447892427444458
1691260360821008160,,11613,,1691260360,820898955,"""world""",,,2.0635812282562256,-2.3333780765533447,1.5963733196258545
1691260361051003630,,11614,,1691260361,50871419,"""world""",,,2.0714869499206543,-2.343533515930176,1.622969150543213
1691260361051012381,,11615,,1691260361,50885600,"""world""",,,2.070491075515747,-2.3551294803619385,1.6171046495437622
1691260361060953063,,11616,,1691260361,60886223,"""world""",,,2.0693085193634033,-2.3350555896759033,1.6376368999481201
1691260361070931330,,11617,,1691260361,70872120,"""world""",,,2.068169116973877,-2.3345253467559814,1.638619303703308
1691260361120998799,,11618,,1691260361,120892269,"""world""",,,2.0734753608703613,-2.3643391132354736,1.6180554628372192
1691260361131163624,,11619,,1691260361,130929633,"""world""",,,2.073282241821289,-2.364995002746582,1.6180956363677979
1691260361331151913,,11620,,1691260361,330985335,"""world""",,,2.072972297668457,-2.365230083465576,1.6180319786071777
1691260361331200163,,11621,,1691260361,331055689,"""world""",,,2.0783586502075195,-2.3575751781463623,1.6267637014389038
1691260361331208691,,11622,,1691260361,331103166,"""world""",,,2.0784552097320557,-2.358579397201538,1.6270934343338013
1691260361331244189,,11623,,1691260361,331128122,"""world""",,,2.0780532360076904,-2.3633360862731934,1.6244404315948486
1691260361331249352,,11626,,1691260361,331164374,"""world""",,,2.078972101211548,-2.3717312812805176,1.6247189044952393
1691260361410957133,,11627,,1691260361,410866562,"""world""",,,2.080695152282715,-2.3883121013641357,1.6275776624679565
1691260361410965680,,11628,,1691260361,410879186,"""world""",,,2.0804362297058105,-2.389146566390991,1.6278411149978638
1691260361410998170,,11629,,1691260361,410896320,"""world""",,,2.0831542015075684,-2.3980674743652344,1.6335123777389526
1691260361521037625,,11630,,1691260361,520901924,"""world""",,,2.0848052501678467,-2.402632713317871,1.636908769607544
1691260361521075530,,11632,,1691260361,520931120,"""world""",,,2.0922765731811523,-2.412153720855713,1.6430870294570923
1691260361521142271,,11633,,1691260361,520954521,"""world""",,,2.086483955383301,-2.4143226146698,1.6405781507492065
1691260361531032333,,11634,,1691260361,530914512,"""world""",,,2.0937583446502686,-2.408245801925659,1.6505637168884277
1691260361540998217,,11635,,1691260361,540915927,"""world""",,,2.093743085861206,-2.4093806743621826,1.6514203548431396
1691260361680973108,,11636,,1691260361,680879917,"""world""",,,2.09208345413208,-2.422191858291626,1.6435229778289795
1691260361680977433,,11637,,1691260361,680896453,"""world""",,,2.0890448093414307,-2.420508623123169,1.6429531574249268
1691260361680992380,,11638,,1691260361,680915265,"""world""",,,2.089756488800049,-2.420821189880371,1.6455590724945068
1691260361681005201,,11642,,1691260361,680936390,"""world""",,,2.096426486968994,-2.4401488304138184,1.6532511711120605
1691260361731002449,,11643,,1691260361,730899169,"""world""",,,2.0998342037200928,-2.4438774585723877,1.6567639112472534
1691260361731006599,,11644,,1691260361,730943666,"""world""",,,2.1010613441467285,-2.449526071548462,1.6566673517227173
1691260361741032323,,11645,,1691260361,740901229,"""world""",,,2.1005756855010986,-2.4498097896575928,1.6577318906784058
1691260361841016936,,11646,,1691260361,840911999,"""world""",,,2.100059747695923,-2.4591116905212402,1.6575678586959839
1691260361841022241,,11647,,1691260361,840930586,"""world""",,,2.1058902740478516,-2.449282169342041,1.66773521900177
1691260361841025079,,11648,,1691260361,840950969,"""world""",,,2.1052005290985107,-2.4586853981018066,1.6627956628799438
1691260361841039316,,11650,,1691260361,840962080,"""world""",,,2.106623888015747,-2.4599194526672363,1.665543556213379
1691260361851019327,,11651,,1691260361,850889686,"""world""",,,2.1072604656219482,-2.4682486057281494,1.6652566194534302
1691260361860957150,,11652,,1691260361,860888653,"""world""",,,2.1067237854003906,-2.4684157371520996,1.6661406755447388
1691260361890978103,,11653,,1691260361,890871728,"""world""",,,2.1088156700134277,-2.4749832153320312,1.6678144931793213
1691260361900975655,,11654,,1691260361,900890512,"""world""",,,2.111041307449341,-2.477407932281494,1.6686017513275146
1691260361920979939,,11655,,1691260361,920896165,"""world""",,,2.1147472858428955,-2.473667621612549,1.6757307052612305
1691260361931038268,,11656,,1691260361,930900800,"""world""",,,2.115190029144287,-2.4742045402526855,1.6768263578414917
1691260362070983125,,11657,,1691260362,70899779,"""world""",,,2.1134800910949707,-2.4854695796966553,1.6719835996627808
1691260362080977272,,11658,,1691260362,80883842,"""world""",,,2.1129190921783447,-2.4924566745758057,1.6712181568145752
1691260362080983937,,11659,,1691260362,80899498,"""world""",,,2.111417293548584,-2.4945249557495117,1.6703672409057617
1691260362080987613,,11660,,1691260362,80915946,"""world""",,,2.115222215652466,-2.4919023513793945,1.673336386680603
1691260362081010768,,11664,,1691260362,80942499,"""world""",,,2.120229482650757,-2.502722978591919,1.6766493320465088
1691260362081021459,,11665,,1691260362,80963133,"""world""",,,2.119903087615967,-2.5054852962493896,1.676466464996338
1691260362111001277,,11666,,1691260362,110869659,"""world""",,,2.1251914501190186,-2.504091262817383,1.682620882987976
1691260362111018491,,11667,,1691260362,110903235,"""world""",,,2.1245388984680176,-2.5116539001464844,1.6785794496536255
1691260362130995532,,11668,,1691260362,130902075,"""world""",,,2.127206802368164,-2.5095016956329346,1.6841483116149902
1691260362140933084,,11669,,1691260362,140869345,"""world""",,,2.1230907440185547,-2.5138957500457764,1.6789506673812866
1691260362150968486,,11670,,1691260362,150911287,"""world""",,,2.1260826587677,-2.513883590698242,1.68235445022583
1691260362290951586,,11671,,1691260362,290876477,"""world""",,,2.1254754066467285,-2.518855571746826,1.6810468435287476
1691260362291000394,,11672,,1691260362,290907661,"""world""",,,2.126880407333374,-2.520587682723999,1.681671142578125
1691260362291011219,,11675,,1691260362,290933126,"""world""",,,2.1331019401550293,-2.5243191719055176,1.6873438358306885
1691260362291054714,,11676,,1691260362,290946673,"""world""",,,2.1305785179138184,-2.530244827270508,1.6844403743743896
1691260362291062720,,11681,,1691260362,290984754,"""world""",,,2.132830858230591,-2.5393519401550293,1.6881779432296753
1691260362291087635,,11682,,1691260362,291007612,"""world""",,,2.134305953979492,-2.5397608280181885,1.6900030374526978
1691260362300996929,,11683,,1691260362,300885404,"""world""",,,2.1343588829040527,-2.5413293838500977,1.6903072595596313
1691260362310967017,,11684,,1691260362,310869697,"""world""",,,2.1326353549957275,-2.5435631275177,1.6895816326141357
1691260362340988710,,11685,,1691260362,340885814,"""world""",,,2.14237904548645,-2.5435545444488525,1.7001603841781616
1691260362361067899,,11686,,1691260362,360914618,"""world""",,,2.1243908405303955,-2.5599052906036377,1.6854180097579956
1691260362371071834,,11687,,1691260362,370929014,"""world""",,,2.1404402256011963,-2.5564346313476562,1.6943473815917969
1691260362380984982,,11688,,1691260362,380885377,"""world""",,,2.14102840423584,-2.5592877864837646,1.695307970046997
1691260362391011917,,11689,,1691260362,390903283,"""world""",,,2.138313055038452,-2.558297634124756,1.695449948310852
1691260362401039421,,11690,,1691260362,400922814,"""world""",,,2.138627290725708,-2.559904098510742,1.696099877357483
1691260362410938246,,11691,,1691260362,410873590,"""world""",,,2.139585256576538,-2.5617923736572266,1.6971920728683472
1691260362450995752,,11692,,1691260362,450908737,"""world""",,,2.1475369930267334,-2.565056800842285,1.7064528465270996
1691260362460966225,,11693,,1691260362,460877522,"""world""",,,2.147230625152588,-2.5672409534454346,1.7062442302703857
1691260362470970936,,11694,,1691260362,470899904,"""world""",,,2.143549680709839,-2.573429584503174,1.7019141912460327
1691260362480997586,,11695,,1691260362,480884808,"""world""",,,2.146674871444702,-2.5773351192474365,1.703152060508728
1691260362490996842,,11696,,1691260362,490895794,"""world""",,,2.14593243598938,-2.5774762630462646,1.7037872076034546
1691260362500955891,,11697,,1691260362,500887645,"""world""",,,2.144623279571533,-2.578994035720825,1.7040135860443115
1691260362510946032,,11698,,1691260362,510874429,"""world""",,,2.145146608352661,-2.5807549953460693,1.7046228647232056
1691260362520978626,,11699,,1691260362,520879170,"""world""",,,2.145021438598633,-2.5818963050842285,1.7060167789459229
1691260362531029378,,11700,,1691260362,530912760,"""world""",,,2.147143840789795,-2.585366725921631,1.706433892250061
1691260362540974360,,11701,,1691260362,540891917,"""world""",,,2.149951457977295,-2.588832378387451,1.7084977626800537
1691260362560955443,,11702,,1691260362,560868557,"""world""",,,2.148210287094116,-2.5899298191070557,1.707576036453247
1691260362591006531,,11703,,1691260362,590891272,"""world""",,,2.1504998207092285,-2.5964250564575195,1.7111386060714722
1691260362600986159,,11704,,1691260362,600870962,"""world""",,,2.153745412826538,-2.599825143814087,1.7115195989608765
1691260362611007609,,11705,,1691260362,610899381,"""world""",,,2.153402090072632,-2.6011319160461426,1.7122167348861694
1691260362621095879,,11706,,1691260362,620914645,"""world""",,,2.1530423164367676,-2.601412773132324,1.713085651397705
1691260362631133411,,11707,,1691260362,631011752,"""world""",,,2.1541574001312256,-2.604931354522705,1.7132928371429443
1691260362641117895,,11708,,1691260362,640946772,"""world""",,,2.1547365188598633,-2.607088565826416,1.7142289876937866
1691260362650967272,,11709,,1691260362,650892802,"""world""",,,2.1519572734832764,-2.6070241928100586,1.7145349979400635
1691260362660940563,,11710,,1691260362,660876580,"""world""",,,2.1452720165252686,-2.6151435375213623,1.709362268447876
1691260362670950507,,11711,,1691260362,670874907,"""world""",,,2.1509957313537598,-2.6154966354370117,1.7124567031860352
1691260362681042885,,11712,,1691260362,680951109,"""world""",,,2.155841827392578,-2.614492893218994,1.7160372734069824
1691260362690979613,,11713,,1691260362,690885788,"""world""",,,2.157928228378296,-2.6182336807250977,1.7168614864349365
1691260362701018820,,11714,,1691260362,700895501,"""world""",,,2.154212713241577,-2.616546869277954,1.7167701721191406
1691260362711093078,,11715,,1691260362,710928166,"""world""",,,2.157327651977539,-2.6188876628875732,1.718826174736023
1691260362720943933,,11716,,1691260362,720873937,"""world""",,,2.1584649085998535,-2.621211051940918,1.7198466062545776
1691260362731830263,,11717,,1691260362,730993865,"""world""",,,2.153716802597046,-2.625903844833374,1.715413212776184
1691260362751000395,,11718,,1691260362,750895064,"""world""",,,2.164262056350708,-2.622231960296631,1.7266573905944824
1691260362760962655,,11719,,1691260362,760880371,"""world""",,,2.1661648750305176,-2.619617223739624,1.7313941717147827
1691260362770993301,,11720,,1691260362,770877949,"""world""",,,2.1659748554229736,-2.6264407634735107,1.7283415794372559
1691260362780966811,,11721,,1691260362,780876695,"""world""",,,2.1641693115234375,-2.632613182067871,1.7242300510406494
1691260362800983087,,11722,,1691260362,800893164,"""world""",,,2.1629507541656494,-2.6355440616607666,1.7247744798660278
1691260362810950256,,11723,,1691260362,810876388,"""world""",,,2.1603035926818848,-2.6405298709869385,1.7217098474502563
1691260362820993448,,11724,,1691260362,820910130,"""world""",,,2.1604151725769043,-2.642202377319336,1.7220362424850464
1691260362831068959,,11725,,1691260362,830922095,"""world""",,,2.168727397918701,-2.6394803524017334,1.7306944131851196
1691260362840956996,,11726,,1691260362,840881777,"""world""",,,2.1702897548675537,-2.643267869949341,1.7310762405395508
1691260362850937550,,11727,,1691260362,850867337,"""world""",,,2.1699228286743164,-2.6453630924224854,1.7313666343688965
1691260362861006559,,11728,,1691260362,860874430,"""world""",,,2.1690332889556885,-2.6480677127838135,1.7301510572433472
1691260362871035720,,11729,,1691260362,870908635,"""world""",,,2.164419174194336,-2.6538968086242676,1.7251228094100952
1691260362880997569,,11730,,1691260362,880895996,"""world""",,,2.1649022102355957,-2.6567370891571045,1.7256369590759277
1691260362910992791,,11731,,1691260362,910908092,"""world""",,,2.1713483333587646,-2.6610400676727295,1.7313979864120483
1691260362921027009,,11732,,1691260362,920886156,"""world""",,,2.1741957664489746,-2.6598567962646484,1.7361805438995361
1691260362931130111,,11733,,1691260362,930982499,"""world""",,,2.172826051712036,-2.6647229194641113,1.7334965467453003
1691260362950980990,,11734,,1691260362,950867930,"""world""",,,2.167917490005493,-2.6731832027435303,1.7287782430648804
1691260362960947551,,11735,,1691260362,960868267,"""world""",,,2.1697919368743896,-2.68245267868042,1.7282577753067017
1691260362980970208,,11736,,1691260362,980888925,"""world""",,,2.175446033477783,-2.6792092323303223,1.7345600128173828
1691260362990971190,,11737,,1691260362,990881218,"""world""",,,2.177105665206909,-2.677070379257202,1.7390632629394531
1691260363001015204,,11738,,1691260363,908071,"""world""",,,2.1763229370117188,-2.68387770652771,1.7354487180709839
1691260363010959647,,11739,,1691260363,10867378,"""world""",,,2.1791577339172363,-2.684483289718628,1.7394884824752808
1691260363021052070,,11740,,1691260363,20897110,"""world""",,,2.175062656402588,-2.6874210834503174,1.7361177206039429
1691260363031150200,,11741,,1691260363,30971715,"""world""",,,2.1695711612701416,-2.6945860385894775,1.7303944826126099
1691260363040986579,,11742,,1691260363,40901010,"""world""",,,2.1814637184143066,-2.6907553672790527,1.742798924446106
1691260363050948037,,11743,,1691260363,50872027,"""world""",,,2.1821913719177246,-2.693413496017456,1.7418134212493896
1691260363061029490,,11744,,1691260363,60881159,"""world""",,,2.1813175678253174,-2.6959753036499023,1.7419723272323608
1691260363070970318,,11745,,1691260363,70893946,"""world""",,,2.1830289363861084,-2.6998918056488037,1.7422599792480469
1691260363081000931,,11746,,1691260363,80901687,"""world""",,,2.1758217811584473,-2.7071449756622314,1.734755516052246
1691260363090957517,,11747,,1691260363,90871979,"""world""",,,2.175837993621826,-2.7092862129211426,1.735360860824585
1691260363100961879,,11748,,1691260363,100877268,"""world""",,,2.1582698822021484,-2.7203705310821533,1.7262768745422363
1691260363111026528,,11749,,1691260363,110913802,"""world""",,,2.1851539611816406,-2.709395408630371,1.744843602180481
1691260363120962209,,11750,,1691260363,120866574,"""world""",,,2.1864144802093506,-2.709369659423828,1.748266339302063
1691260363131396399,,11751,,1691260363,131051549,"""world""",,,2.174506187438965,-2.7241103649139404,1.733180284500122
1691260363151115096,,11752,,1691260363,150900159,"""world""",,,2.188018798828125,-2.7231645584106445,1.7449615001678467
1691260363160953826,,11753,,1691260363,160874730,"""world""",,,2.1794915199279785,-2.730720281600952,1.7369343042373657
1691260363171065149,,11754,,1691260363,170889145,"""world""",,,2.1851255893707275,-2.7307612895965576,1.7421441078186035
1691260363191060277,,11755,,1691260363,190911520,"""world""",,,2.191471815109253,-2.734926700592041,1.747480869293213
1691260363201035835,,11756,,1691260363,200881796,"""world""",,,2.184178352355957,-2.742147445678711,1.7402575016021729
1691260363211113170,,11757,,1691260363,210881663,"""world""",,,2.1910147666931152,-2.7446627616882324,1.7450611591339111
1691260363221024824,,11758,,1691260363,220873113,"""world""",,,2.18633770942688,-2.752474546432495,1.739917278289795
1691260363231237473,,11759,,1691260363,230968786,"""world""",,,2.1800081729888916,-2.7580833435058594,1.7362751960754395
1691260363241086762,,11760,,1691260363,240923930,"""world""",,,2.1764156818389893,-2.762371301651001,1.7346023321151733
1691260363340973140,,11761,,1691260363,340883894,"""world""",,,2.1921751499176025,-2.791259765625,1.743507981300354
1691260363361002267,,11762,,1691260363,360880616,"""world""",,,2.203988790512085,-2.792982339859009,1.7535815238952637
1691260363370992686,,11763,,1691260363,370895211,"""world""",,,2.203768253326416,-2.7941415309906006,1.7548130750656128
1691260363381048150,,11764,,1691260363,380897580,"""world""",,,2.199414014816284,-2.803237199783325,1.7471997737884521
1691260363390983796,,11765,,1691260363,390874976,"""world""",,,2.1980578899383545,-2.8079097270965576,1.7466615438461304
1691260363431427096,,11766,,1691260363,430899552,"""world""",,,2.2096099853515625,-2.815427303314209,1.7577953338623047
1691260363451060989,,11767,,1691260363,450913987,"""world""",,,2.2097246646881104,-2.8252904415130615,1.7538093328475952
1691260363461009558,,11768,,1691260363,460893297,"""world""",,,2.212150812149048,-2.8260080814361572,1.7572026252746582
1691260363471175143,,11769,,1691260363,470935067,"""world""",,,2.2070388793945312,-2.8340489864349365,1.750424861907959
1691260363480985376,,11770,,1691260363,480892870,"""world""",,,2.2050633430480957,-2.8366899490356445,1.7503546476364136
1691260363490977656,,11771,,1691260363,490869134,"""world""",,,2.2092058658599854,-2.841141939163208,1.7513177394866943
1691260363500962708,,11772,,1691260363,500881048,"""world""",,,2.208491563796997,-2.843559980392456,1.7515299320220947
1691260363511115242,,11773,,1691260363,510921551,"""world""",,,2.2080323696136475,-2.8462231159210205,1.7513524293899536
1691260363521018837,,11774,,1691260363,520900099,"""world""",,,2.212705373764038,-2.8521921634674072,1.7527886629104614
1691260363531163683,,11775,,1691260363,531004116,"""world""",,,2.2108542919158936,-2.8538570404052734,1.7524784803390503
1691260363541041350,,11776,,1691260363,540924980,"""world""",,,2.211172103881836,-2.8564095497131348,1.7531529664993286
1691260363551053633,,11777,,1691260363,550868376,"""world""",,,2.2126574516296387,-2.860607385635376,1.7538210153579712
1691260363560991400,,11778,,1691260363,560899946,"""world""",,,2.2177159786224365,-2.86409592628479,1.7564892768859863
1691260363571084956,,11779,,1691260363,570919050,"""world""",,,2.212862014770508,-2.865138530731201,1.7549951076507568
1691260363581441642,,11780,,1691260363,581004151,"""world""",,,2.213921308517456,-2.8687872886657715,1.755690097808838
1691260363611009568,,11781,,1691260363,610885567,"""world""",,,2.2156715393066406,-2.877664804458618,1.756335973739624
1691260363620982946,,11782,,1691260363,620871690,"""world""",,,2.216681957244873,-2.8806135654449463,1.756911277770996
1691260363670958312,,11783,,1691260363,670882591,"""world""",,,2.2196521759033203,-2.8918001651763916,1.7601444721221924
1691260363681047766,,11784,,1691260363,680932105,"""world""",,,2.21927547454834,-2.893935203552246,1.7605056762695312
1691260363711017117,,11785,,1691260363,710876297,"""world""",,,2.231689691543579,-2.890241861343384,1.7720929384231567
1691260363720978209,,11786,,1691260363,720859898,"""world""",,,2.2229292392730713,-2.9091241359710693,1.7610511779785156
1691260363891053422,,11787,,1691260363,890887690,"""world""",,,2.235139846801758,-2.910092353820801,1.7760190963745117
1691260363891063904,,11788,,1691260363,890928033,"""world""",,,2.2329134941101074,-2.9164252281188965,1.773261547088623
1691260364031155901,,11789,,1691260364,30964173,"""world""",,,2.2328994274139404,-2.8956735134124756,1.7864327430725098
1691260364031172147,,11790,,1691260364,31014376,"""world""",,,2.231187343597412,-2.8965539932250977,1.7856087684631348
1691260364031193825,,11791,,1691260364,31053008,"""world""",,,2.2191996574401855,-2.8990588188171387,1.7799861431121826
1691260364050952682,,11792,,1691260364,50872593,"""world""",,,2.2249937057495117,-2.890174388885498,1.7847015857696533
1691260364081031350,,11793,,1691260364,80871965,"""world""",,,2.226794719696045,-2.8733510971069336,1.790604591369629
1691260364101015046,,11794,,1691260364,100877709,"""world""",,,2.224419593811035,-2.865147590637207,1.7919256687164307
1691260364132767906,,11795,,1691260364,131037252,"""world""",,,2.223957061767578,-2.8607239723205566,1.7929075956344604
1691260364191060223,,11796,,1691260364,190889882,"""world""",,,2.221572160720825,-2.8308889865875244,1.799545407295227
1691260364201030348,,11797,,1691260364,200922767,"""world""",,,2.2210564613342285,-2.8267478942871094,1.8002541065216064
1691260364210998936,,11798,,1691260364,210889186,"""world""",,,2.221388101577759,-2.8228800296783447,1.8006792068481445
1691260364231441559,,11799,,1691260364,230985074,"""world""",,,2.2227606773376465,-2.814896821975708,1.8021113872528076
1691260364240977354,,11800,,1691260364,240886559,"""world""",,,2.219622850418091,-2.809906482696533,1.803971767425537
1691260364250985462,,11801,,1691260364,250889558,"""world""",,,2.2192130088806152,-2.8060224056243896,1.8046833276748657
1691260364260958822,,11802,,1691260364,260877247,"""world""",,,2.2185401916503906,-2.8014795780181885,1.8053630590438843
1691260364280960240,,11803,,1691260364,280882690,"""world""",,,2.2215685844421387,-2.795168161392212,1.8074226379394531
1691260364291032517,,11804,,1691260364,290916686,"""world""",,,2.220055341720581,-2.7896218299865723,1.8083051443099976
1691260364300968365,,11805,,1691260364,300879910,"""world""",,,2.219024658203125,-2.785618782043457,1.8094520568847656
1691260364310965455,,11806,,1691260364,310886186,"""world""",,,2.2161507606506348,-2.779212236404419,1.8094141483306885
1691260364321055214,,11807,,1691260364,320899739,"""world""",,,2.219456434249878,-2.7779722213745117,1.8108859062194824
1691260364331022983,,11808,,1691260364,330899765,"""world""",,,2.218813896179199,-2.772803544998169,1.811510682106018
1691260364341023957,,11809,,1691260364,340909970,"""world""",,,2.217527151107788,-2.767244815826416,1.8120595216751099
1691260364351050743,,11810,,1691260364,350898705,"""world""",,,2.2144970893859863,-2.761186122894287,1.8128976821899414
1691260364361046910,,11811,,1691260364,360898664,"""world""",,,2.2145791053771973,-2.757014274597168,1.8131967782974243
1691260364371077526,,11812,,1691260364,370935061,"""world""",,,2.2115139961242676,-2.7504160404205322,1.8140877485275269
1691260364380978076,,11813,,1691260364,380889920,"""world""",,,2.210836410522461,-2.754326820373535,1.8101013898849487
1691260364390939291,,11814,,1691260364,390871343,"""world""",,,2.2130000591278076,-2.7424652576446533,1.815046787261963
1691260364400960636,,11815,,1691260364,400881010,"""world""",,,2.213869333267212,-2.737854480743408,1.8160656690597534
1691260364431188516,,11816,,1691260364,430962637,"""world""",,,2.2148797512054443,-2.7262706756591797,1.8166289329528809
1691260364441078510,,11817,,1691260364,440907259,"""world""",,,2.216153144836426,-2.7176623344421387,1.8193870782852173
1691260364451017926,,11818,,1691260364,450875223,"""world""",,,2.215656042098999,-2.7101197242736816,1.821533203125
1691260364471061506,,11819,,1691260364,470917568,"""world""",,,2.2144601345062256,-2.7033162117004395,1.8195254802703857
1691260364481009319,,11820,,1691260364,480905626,"""world""",,,2.207461357116699,-2.702605962753296,1.8123829364776611
1691260364491059241,,11821,,1691260364,490925916,"""world""",,,2.2077248096466064,-2.6962954998016357,1.8127361536026
1691260364501004016,,11822,,1691260364,500885837,"""world""",,,2.2098100185394287,-2.6934938430786133,1.8125571012496948
1691260364510970093,,11823,,1691260364,510880317,"""world""",,,2.2077486515045166,-2.688081979751587,1.8117307424545288
1691260364520947686,,11824,,1691260364,520874900,"""world""",,,2.206719160079956,-2.6834137439727783,1.811599850654602
1691260364531376095,,11825,,1691260364,531032416,"""world""",,,2.2076566219329834,-2.6784963607788086,1.81186044216156
1691260364541123907,,11826,,1691260364,541026190,"""world""",,,2.2065203189849854,-2.6757235527038574,1.8103572130203247
1691260364551024943,,11827,,1691260364,550904537,"""world""",,,2.1924514770507812,-2.677665948867798,1.801491379737854
1691260364561009372,,11828,,1691260364,560900215,"""world""",,,2.2064526081085205,-2.666609048843384,1.809951901435852
1691260364571132747,,11829,,1691260364,570973586,"""world""",,,2.206907033920288,-2.6660213470458984,1.8081320524215698
1691260364581105911,,11830,,1691260364,580917410,"""world""",,,2.207019329071045,-2.6582415103912354,1.8087120056152344
1691260364591099627,,11831,,1691260364,590900632,"""world""",,,2.203237771987915,-2.6583406925201416,1.8055164813995361
1691260364601000541,,11832,,1691260364,600887964,"""world""",,,2.2032816410064697,-2.6483309268951416,1.8076281547546387
1691260364610951049,,11833,,1691260364,610877077,"""world""",,,2.2048909664154053,-2.6460869312286377,1.8072178363800049
1691260364620970662,,11834,,1691260364,620895488,"""world""",,,2.2011678218841553,-2.6461215019226074,1.8033883571624756
1691260364631090005,,11835,,1691260364,630933916,"""world""",,,2.2042574882507324,-2.63722562789917,1.806479573249817
1691260364641013547,,11836,,1691260364,640881194,"""world""",,,2.2055411338806152,-2.634734869003296,1.8065910339355469
1691260364670985830,,11837,,1691260364,670888846,"""world""",,,2.201630115509033,-2.6195619106292725,1.805009365081787
1691260364680960884,,11838,,1691260364,680877617,"""world""",,,2.200551986694336,-2.6146976947784424,1.8042410612106323
1691260364691069896,,11839,,1691260364,690889437,"""world""",,,2.2014405727386475,-2.611626625061035,1.8042646646499634
1691260364700981435,,11840,,1691260364,700883518,"""world""",,,2.202014923095703,-2.6079041957855225,1.804230809211731
1691260364711138039,,11841,,1691260364,710926567,"""world""",,,2.2002036571502686,-2.6028037071228027,1.8041001558303833
1691260364731282945,,11842,,1691260364,730961265,"""world""",,,2.199719190597534,-2.5939788818359375,1.80447518825531
1691260364780950840,,11843,,1691260364,780874176,"""world""",,,2.1978328227996826,-2.5751888751983643,1.8038767576217651
1691260364791027096,,11844,,1691260364,790881133,"""world""",,,2.19659686088562,-2.569733142852783,1.8038121461868286
1691260364800957879,,11845,,1691260364,800874400,"""world""",,,2.1965324878692627,-2.566969633102417,1.8037703037261963
1691260364810941896,,11846,,1691260364,810871625,"""world""",,,2.19282603263855,-2.561023235321045,1.8036366701126099
1691260364851011267,,11847,,1691260364,850909924,"""world""",,,2.193753719329834,-2.544748306274414,1.8042911291122437
1691260364870998872,,11848,,1691260364,870886032,"""world""",,,2.1959893703460693,-2.5373735427856445,1.8065659999847412
1691260364921015828,,11849,,1691260364,920879117,"""world""",,,2.1884613037109375,-2.521458148956299,1.802233099937439
1691260364940980800,,11850,,1691260364,940884426,"""world""",,,2.1918911933898926,-2.510390281677246,1.8056514263153076
1691260365000964805,,11851,,1691260365,876769,"""world""",,,2.191563367843628,-2.475792169570923,1.8120840787887573
1691260365020948788,,11852,,1691260365,20872472,"""world""",,,2.1911070346832275,-2.465914011001587,1.8135430812835693
1691260365061025722,,11853,,1691260365,60904980,"""world""",,,2.1871321201324463,-2.4560961723327637,1.8082081079483032
1691260365131082244,,11854,,1691260365,130914744,"""world""",,,2.1837472915649414,-2.425057888031006,1.8076993227005005
1691260365150952112,,11855,,1691260365,150874220,"""world""",,,2.176025390625,-2.418022632598877,1.8032734394073486
1691260365180971212,,11856,,1691260365,180883606,"""world""",,,2.1804661750793457,-2.3966104984283447,1.8102859258651733
1691260365221096572,,11857,,1691260365,220911346,"""world""",,,2.178928852081299,-2.3750076293945312,1.8111695051193237
1691260365251044791,,11858,,1691260365,250892837,"""world""",,,2.1734323501586914,-2.3658254146575928,1.8066045045852661
1691260365271033278,,11859,,1691260365,270908616,"""world""",,,2.1712894439697266,-2.355942726135254,1.8065814971923828
1691260365300993129,,11860,,1691260365,300884020,"""world""",,,2.171473741531372,-2.3343546390533447,1.8112648725509644
1691260365370963988,,11861,,1691260365,370886194,"""world""",,,2.157829999923706,-2.3087754249572754,1.8028100728988647
1691260365391240071,,11862,,1691260365,390985866,"""world""",,,2.1526715755462646,-2.299957513809204,1.800846815109253
1691260365421041516,,11863,,1691260365,420896586,"""world""",,,2.1530611515045166,-2.279149293899536,1.8037256002426147
1691260365961049409,,11864,,1691260365,960909944,"""world""",,,2.0773720741271973,-1.9102979898452759,1.8208930492401123
1691260365980955447,,11865,,1691260365,980882918,"""world""",,,2.0719070434570312,-1.8938982486724854,1.8214538097381592
1691260365991019618,,11866,,1691260365,990871332,"""world""",,,2.069643020629883,-1.889748215675354,1.818829894065857
1691260366000953719,,11867,,1691260366,884833,"""world""",,,2.0681352615356445,-1.8836524486541748,1.8182522058486938
1691260366031026740,,11868,,1691260366,30911252,"""world""",,,2.0603978633880615,-1.8630963563919067,1.8157777786254883
1691260366140989828,,11869,,1691260366,140886292,"""world""",,,2.037815570831299,-1.7754427194595337,1.8193113803863525
1691260366151022838,,11870,,1691260366,150936199,"""world""",,,2.0372581481933594,-1.7793350219726562,1.8118444681167603
1691260366351091384,,11871,,1691260366,350876511,"""world""",,,1.998603105545044,-1.6468253135681152,1.8181452751159668
1691260366351120500,,11872,,1691260366,350893089,"""world""",,,1.9979619979858398,-1.6363672018051147,1.8205416202545166
1691260367081000513,,11873,,1691260367,80877475,"""world""",,,1.7674565315246582,-0.9401939511299133,1.8323314189910889
1691260367100993861,,11874,,1691260367,100885160,"""world""",,,1.7612470388412476,-0.9234921932220459,1.8313167095184326
1691260367361019190,,11875,,1691260367,360938145,"""world""",,,1.697043776512146,-0.7656719088554382,1.8077876567840576
1691260367891007253,,11876,,1691260367,890914520,"""world""",,,1.544231653213501,-0.4385969340801239,1.8021104335784912
1691260367891019996,,11877,,1691260367,890931236,"""world""",,,1.5296809673309326,-0.4127819240093231,1.8013734817504883
1691260367900985432,,11878,,1691260367,900887211,"""world""",,,1.5231971740722656,-0.40953710675239563,1.8012921810150146
1691260367910936504,,11879,,1691260367,910878270,"""world""",,,1.5238094329833984,-0.4027804732322693,1.8006423711776733
1691260367931246496,,11880,,1691260367,930955092,"""world""",,,1.5151416063308716,-0.39372774958610535,1.8004807233810425
1691260367941045675,,11881,,1691260367,940920420,"""world""",,,1.5125033855438232,-0.3888568580150604,1.8003801107406616
1691260367951006860,,11882,,1691260367,950888979,"""world""",,,1.5104526281356812,-0.3830900192260742,1.7991353273391724
1691260367961038755,,11883,,1691260367,960921104,"""world""",,,1.509398102760315,-0.37780362367630005,1.7998155355453491
1691260367991048930,,11884,,1691260367,990952231,"""world""",,,1.5007513761520386,-0.35993584990501404,1.7992252111434937
1691260368011136378,,11885,,1691260368,10906038,"""world""",,,1.4925062656402588,-0.3534497022628784,1.7991265058517456
1691260368031052461,,11886,,1691260368,30961342,"""world""",,,1.4896296262741089,-0.34123489260673523,1.7983243465423584
1691260368080968666,,11887,,1691260368,80888222,"""world""",,,1.4747917652130127,-0.3160017132759094,1.797950029373169
1691260368090958969,,11888,,1691260368,90892343,"""world""",,,1.4718804359436035,-0.31165382266044617,1.796840786933899
1691260368111114907,,11889,,1691260368,110949889,"""world""",,,1.4667547941207886,-0.29846376180648804,1.797478199005127
1691260368131176806,,11890,,1691260368,130925045,"""world""",,,1.4604240655899048,-0.2899031937122345,1.7972990274429321
1691260368141046321,,11891,,1691260368,140927090,"""world""",,,1.4573266506195068,-0.28393179178237915,1.7956453561782837
1691260368150977084,,11892,,1691260368,150880331,"""world""",,,1.4528769254684448,-0.28020480275154114,1.7955844402313232
1691260368160993905,,11893,,1691260368,160898095,"""world""",,,1.4500560760498047,-0.274941086769104,1.7957878112792969
1691260368171004138,,11894,,1691260368,170904700,"""world""",,,1.4483885765075684,-0.26766103506088257,1.7947349548339844
1691260368181010078,,11895,,1691260368,180928229,"""world""",,,1.4447336196899414,-0.26433265209198,1.7942640781402588
1691260368191012482,,11896,,1691260368,190910103,"""world""",,,1.4409408569335938,-0.25806498527526855,1.793779730796814
1691260368201173904,,11897,,1691260368,200954667,"""world""",,,1.438202977180481,-0.2534273564815521,1.7939610481262207
1691260368231137811,,11898,,1691260368,230957252,"""world""",,,1.4304206371307373,-0.23436883091926575,1.7929307222366333
1691260368250975554,,11899,,1691260368,250889624,"""world""",,,1.4234126806259155,-0.22740036249160767,1.7932778596878052
1691260368261076807,,11900,,1691260368,260975476,"""world""",,,1.4224271774291992,-0.22053304314613342,1.7931866645812988
1691260368281607050,,11901,,1691260368,280962753,"""world""",,,1.4132038354873657,-0.21162696182727814,1.791351318359375
1691260368291027101,,11902,,1691260368,290915190,"""world""",,,1.4111570119857788,-0.2064390778541565,1.792223334312439
1691260368320991499,,11903,,1691260368,320896559,"""world""",,,1.401867389678955,-0.19002565741539001,1.7909997701644897
1691260368331038608,,11904,,1691260368,330947271,"""world""",,,1.399141550064087,-0.18506991863250732,1.7913013696670532
1691260368350992825,,11905,,1691260368,350890994,"""world""",,,1.3953626155853271,-0.17128098011016846,1.7900134325027466
1691260368361002168,,11906,,1691260368,360883954,"""world""",,,1.3919074535369873,-0.1684272438287735,1.7900900840759277
1691260368371007283,,11907,,1691260368,370901914,"""world""",,,1.3879315853118896,-0.16326016187667847,1.789943814277649
1691260368391003304,,11908,,1691260368,390888117,"""world""",,,1.3817626237869263,-0.15048931539058685,1.7894401550292969
1691260368400987845,,11909,,1691260368,400916842,"""world""",,,1.378825306892395,-0.14581671357154846,1.7896004915237427
1691260368411015742,,11910,,1691260368,410887030,"""world""",,,1.3731181621551514,-0.14334440231323242,1.7904893159866333
1691260368431000709,,11911,,1691260368,430907372,"""world""",,,1.369394302368164,-0.1301792860031128,1.7897934913635254
1691260368470997964,,11912,,1691260368,470890187,"""world""",,,1.3564857244491577,-0.10888533294200897,1.7896541357040405
1691260368501029387,,11913,,1691260368,500932035,"""world""",,,1.347815990447998,-0.09241136908531189,1.7900868654251099
1691260368510998492,,11914,,1691260368,510892118,"""world""",,,1.3472813367843628,-0.09040708094835281,1.789264440536499
1691260368520959407,,11915,,1691260368,520875499,"""world""",,,1.3407983779907227,-0.08240262418985367,1.7900669574737549
1691260368570944624,,11916,,1691260368,570875167,"""world""",,,1.3268975019454956,-0.06037803739309311,1.7897859811782837
1691260368621081528,,11917,,1691260368,620918164,"""world""",,,1.3089468479156494,-0.03563137352466583,1.7901036739349365
1691260368651062917,,11918,,1691260368,650893337,"""world""",,,1.2939871549606323,-0.018994148820638657,1.7898049354553223
1691260368690957535,,11919,,1691260368,690879563,"""world""",,,1.2795352935791016,3.8098543882369995e-05,1.790300726890564
1691260368701006860,,11920,,1691260368,700900576,"""world""",,,1.275385856628418,0.004529587924480438,1.7904374599456787
1691260368711114911,,11921,,1691260368,710970842,"""world""",,,1.2689841985702515,0.007684238255023956,1.789002537727356
1691260368760997065,,11922,,1691260368,760893124,"""world""",,,1.2515729665756226,0.03138062730431557,1.7897685766220093
1691260368810971101,,11923,,1691260368,810890959,"""world""",,,1.2295074462890625,0.05268073454499245,1.790098786354065
1691260368861009614,,11924,,1691260368,860882700,"""world""",,,1.2065247297286987,0.07323084771633148,1.7907408475875854
1691260369511070838,,11925,,1691260369,510928912,"""world""",,,0.7544776797294617,0.27886027097702026,1.7905582189559937
1691260369781222693,,11926,,1691260369,780989327,"""world""",,,0.4764710068702698,0.3476746678352356,1.7722442150115967
1691260369801022428,,11927,,1691260369,800893266,"""world""",,,0.4524008631706238,0.35307323932647705,1.7703611850738525
1691260369811010105,,11928,,1691260369,810890345,"""world""",,,0.4395974278450012,0.3543033003807068,1.7705339193344116
1691260369820945714,,11929,,1691260369,820875498,"""world""",,,0.43072015047073364,0.3569490611553192,1.7724040746688843
1691260369831111718,,11930,,1691260369,830909737,"""world""",,,0.4187086522579193,0.3600125312805176,1.7713059186935425
1691260369841039789,,11931,,1691260369,840932340,"""world""",,,0.4032961428165436,0.3620607256889343,1.7684394121170044
1691260369850991999,,11932,,1691260369,850907249,"""world""",,,0.3935047686100006,0.36564984917640686,1.769105315208435
1691260369861073625,,11933,,1691260369,860939110,"""world""",,,0.38198572397232056,0.3687588572502136,1.7689542770385742
1691260369870939651,,11934,,1691260369,870875876,"""world""",,,0.36910727620124817,0.37146812677383423,1.7670152187347412
1691260369880965732,,11935,,1691260369,880891836,"""world""",,,0.3570617139339447,0.3738428056240082,1.7673113346099854
1691260369890945747,,11936,,1691260369,890866871,"""world""",,,0.3424161672592163,0.3745349645614624,1.766517162322998
1691260369900958315,,11937,,1691260369,900884325,"""world""",,,0.33188867568969727,0.3789784908294678,1.7662619352340698
1691260369911011455,,11938,,1691260369,910908804,"""world""",,,0.3194648325443268,0.38211920857429504,1.7663562297821045
1691260369920999668,,11939,,1691260369,920904022,"""world""",,,0.3067556917667389,0.3846839666366577,1.7658512592315674
1691260369931191099,,11940,,1691260369,930955405,"""world""",,,0.29462483525276184,0.3862351179122925,1.7662689685821533
1691260369941015652,,11941,,1691260369,940920297,"""world""",,,0.2816508412361145,0.38895636796951294,1.7659895420074463
1691260369950997529,,11942,,1691260369,950878698,"""world""",,,0.2681582570075989,0.392311692237854,1.763901948928833
1691260369961009769,,11943,,1691260369,960884110,"""world""",,,0.25455284118652344,0.3953012526035309,1.7645312547683716
1691260369970972725,,11944,,1691260369,970873254,"""world""",,,0.24209974706172943,0.3969523310661316,1.7649180889129639
1691260369981034263,,11945,,1691260369,980927243,"""world""",,,0.22831301391124725,0.3995572328567505,1.761828899383545
1691260369990982490,,11946,,1691260369,990871989,"""world""",,,0.21221503615379333,0.40089356899261475,1.76217782497406
1691260370000976838,,11947,,1691260370,898995,"""world""",,,0.20108532905578613,0.40616047382354736,1.7632108926773071
1691260370011076765,,11948,,1691260370,10923076,"""world""",,,0.18816685676574707,0.40799108147621155,1.7638238668441772
1691260370020946508,,11949,,1691260370,20874550,"""world""",,,0.17192739248275757,0.40960371494293213,1.7617061138153076
1691260370031084056,,11950,,1691260370,30931951,"""world""",,,0.16049037873744965,0.41440168023109436,1.7620718479156494
1691260370040989331,,11951,,1691260370,40887156,"""world""",,,0.14616598188877106,0.4171847999095917,1.7622668743133545
1691260370051011905,,11952,,1691260370,50936041,"""world""",,,0.1328030824661255,0.418992817401886,1.7627842426300049
1691260370060966543,,11953,,1691260370,60881990,"""world""",,,0.11882022023200989,0.4222157597541809,1.7624597549438477
1691260370070995706,,11954,,1691260370,70899769,"""world""",,,0.10431335866451263,0.4252758026123047,1.7622350454330444
1691260370081122508,,11955,,1691260370,80922864,"""world""",,,0.08942724019289017,0.42886582016944885,1.7613674402236938
1691260370091084649,,11956,,1691260370,90897576,"""world""",,,0.0757632702589035,0.4307231903076172,1.7621376514434814
1691260370101069621,,11957,,1691260370,100942762,"""world""",,,0.060851700603961945,0.43341755867004395,1.762007713317871
1691260370110987315,,11958,,1691260370,110876983,"""world""",,,0.0462377667427063,0.43651890754699707,1.7616117000579834
1691260370120958986,,11959,,1691260370,120863705,"""world""",,,0.03222072869539261,0.4404376745223999,1.7612148523330688
1691260370131009469,,11960,,1691260370,130907612,"""world""",,,0.01752365194261074,0.4435192346572876,1.761006236076355
1691260370141097515,,11961,,1691260370,140935055,"""world""",,,-0.0008473871275782585,0.4452243149280548,1.7589852809906006
1691260370151006036,,11962,,1691260370,150920159,"""world""",,,-0.01614902913570404,0.44889387488365173,1.7579420804977417
1691260370160971088,,11963,,1691260370,160889304,"""world""",,,-0.03150535374879837,0.4512563645839691,1.7583327293395996
1691260370170994214,,11964,,1691260370,170896263,"""world""",,,-0.04704500362277031,0.4542869031429291,1.7580121755599976
1691260370181012317,,11965,,1691260370,180919146,"""world""",,,-0.062113285064697266,0.4577520787715912,1.7577778100967407
1691260370190990987,,11966,,1691260370,190923049,"""world""",,,-0.07793542742729187,0.4608241617679596,1.7573177814483643
1691260370200994936,,11967,,1691260370,200904300,"""world""",,,-0.09283864498138428,0.4652133882045746,1.756585717201233
1691260370210973885,,11968,,1691260370,210892206,"""world""",,,-0.10376685857772827,0.46878042817115784,1.759027361869812
1691260370221005714,,11969,,1691260370,220927651,"""world""",,,-0.11914302408695221,0.47213923931121826,1.7586908340454102
1691260370231152262,,11970,,1691260370,230934169,"""world""",,,-0.13442015647888184,0.47545507550239563,1.758455753326416
1691260370241570901,,11971,,1691260370,241272002,"""world""",,,-0.14963892102241516,0.4790393114089966,1.7581194639205933
1691260370251010438,,11972,,1691260370,250899958,"""world""",,,-0.16523297131061554,0.4824179708957672,1.757821798324585
1691260370261288460,,11973,,1691260370,261055862,"""world""",,,-0.18075275421142578,0.48624786734580994,1.7574321031570435
1691260370270955951,,11974,,1691260370,270884123,"""world""",,,-0.19703951478004456,0.4908277690410614,1.756590485572815
1691260370281015887,,11975,,1691260370,280893028,"""world""",,,-0.2122545689344406,0.4929893910884857,1.7570372819900513
1691260370291014108,,11976,,1691260370,290933299,"""world""",,,-0.228654146194458,0.4976729154586792,1.7560057640075684
1691260370301086828,,11977,,1691260370,300896670,"""world""",,,-0.24453839659690857,0.5012046098709106,1.7557551860809326
1691260370311034242,,11978,,1691260370,310916776,"""world""",,,-0.25974133610725403,0.5038074254989624,1.756120204925537
1691260370321018257,,11979,,1691260370,320927275,"""world""",,,-0.27597182989120483,0.5074947476387024,1.7557824850082397
1691260370331220162,,11980,,1691260370,330956806,"""world""",,,-0.29209133982658386,0.511104166507721,1.7555196285247803
1691260370341014031,,11981,,1691260370,340890904,"""world""",,,-0.3081111013889313,0.514615535736084,1.7552655935287476
1691260370351029293,,11982,,1691260370,350911234,"""world""",,,-0.324232816696167,0.5184982419013977,1.7549197673797607
1691260370361068701,,11983,,1691260370,360919965,"""world""",,,-0.3403104543685913,0.5224153399467468,1.7546254396438599
1691260370400955731,,11984,,1691260370,400882453,"""world""",,,-0.4147047698497772,0.5344105362892151,1.7499573230743408
1691260370410990049,,11985,,1691260370,410874930,"""world""",,,-0.4214291572570801,0.5430218577384949,1.752445936203003
1691260370420951777,,11986,,1691260370,420878379,"""world""",,,-0.4386078417301178,0.5464608669281006,1.7528029680252075
1691260370431081306,,11987,,1691260370,430916181,"""world""",,,-0.45553070306777954,0.5503204464912415,1.7527110576629639
1691260370441081684,,11988,,1691260370,440886550,"""world""",,,-0.47213077545166016,0.5544010400772095,1.7525882720947266
1691260370451085805,,11989,,1691260370,450970623,"""world""",,,-0.48880597949028015,0.5588098168373108,1.7522095441818237
1691260370460982151,,11990,,1691260370,460897371,"""world""",,,-0.5054545998573303,0.5632519721984863,1.7517883777618408
1691260370470956550,,11991,,1691260370,470886149,"""world""",,,-0.5219117999076843,0.5678190588951111,1.7515206336975098
1691260370481076839,,11992,,1691260370,480908646,"""world""",,,-0.5397143363952637,0.5719718337059021,1.7504595518112183
1691260370491095918,,11993,,1691260370,490955706,"""world""",,,-0.5569564700126648,0.5773783922195435,1.7497233152389526
1691260370500977449,,11994,,1691260370,500881778,"""world""",,,-0.573699414730072,0.5819888710975647,1.7496466636657715
1691260370511063258,,11995,,1691260370,510915638,"""world""",,,-0.5896313190460205,0.5869269967079163,1.7494007349014282
1691260370521077216,,11996,,1691260370,520894305,"""world""",,,-0.605822741985321,0.5907672047615051,1.750260591506958
1691260370531575873,,11997,,1691260370,530982426,"""world""",,,-0.6229251027107239,0.5954852104187012,1.75019109249115
1691260370540961816,,11998,,1691260370,540877379,"""world""",,,-0.6400903463363647,0.6001191735267639,1.750088095664978
1691260370551152350,,11999,,1691260370,550968390,"""world""",,,-0.6571309566497803,0.6048809289932251,1.7499878406524658
1691260370561014040,,12000,,1691260370,560907041,"""world""",,,-0.6740490198135376,0.6099204421043396,1.7496956586837769
1691260370571015659,,12001,,1691260370,570901922,"""world""",,,-0.6910748481750488,0.6149688959121704,1.7492276430130005
1691260370581107286,,12002,,1691260370,580944759,"""world""",,,-0.7082687020301819,0.6200119256973267,1.7489155530929565
1691260370591016507,,12003,,1691260370,590897894,"""world""",,,-0.725244402885437,0.6251532435417175,1.7488268613815308
1691260370600952596,,12004,,1691260370,600888101,"""world""",,,-0.7422565221786499,0.6301155090332031,1.74918794631958
1691260370611069858,,12005,,1691260370,610918663,"""world""",,,-0.7594014406204224,0.6353189945220947,1.7493014335632324
1691260370620963269,,12006,,1691260370,620903018,"""world""",,,-0.7766145467758179,0.6406688094139099,1.7488818168640137
1691260370631043307,,12007,,1691260370,630908025,"""world""",,,-0.7937367558479309,0.6461777687072754,1.749045968055725
1691260370651048241,,12008,,1691260370,650891728,"""world""",,,-0.8324873447418213,0.6552390456199646,1.7446460723876953
1691260370661037538,,12009,,1691260370,660914577,"""world""",,,-0.8497452139854431,0.6611983180046082,1.7448043823242188
1691260370681103969,,12010,,1691260370,680955475,"""world""",,,-0.8804434537887573,0.6732735633850098,1.7497919797897339
1691260370820944226,,12011,,1691260370,820872711,"""world""",,,-1.135059118270874,0.7548180818557739,1.747255802154541
1691260370861005399,,12012,,1691260370,860897024,"""world""",,,-1.2032084465026855,0.7833433151245117,1.7488008737564087
1691260370901072775,,12013,,1691260370,900929436,"""world""",,,-1.2746661901474,0.8117477297782898,1.7505580186843872
1691260371081047296,,12014,,1691260371,80931740,"""world""",,,-1.5325217247009277,0.9302136898040771,1.7583956718444824
1691260371571003764,,12015,,1691260371,570896078,"""world""",,,-2.460423707962036,1.3973113298416138,1.7867525815963745
1691260371620990951,,12016,,1691260371,620913573,"""world""",,,-2.5489985942840576,1.4451802968978882,1.7904555797576904
1691260371631055142,,12017,,1691260371,630906091,"""world""",,,-2.567011833190918,1.4549177885055542,1.7906984090805054
1691260371721038186,,12018,,1691260371,720875923,"""world""",,,-2.7248423099517822,1.5414594411849976,1.7959036827087402
1691260371731013830,,12019,,1691260371,730909567,"""world""",,,-2.7414846420288086,1.5511640310287476,1.7960188388824463
1691260371781118109,,12020,,1691260371,780942577,"""world""",,,-2.8325002193450928,1.5977447032928467,1.8014887571334839
1691260371911032511,,12021,,1691260371,910905129,"""world""",,,-2.877202272415161,1.610783338546753,1.7952097654342651
1691260371911067198,,12022,,1691260371,910939787,"""world""",,,-2.8848001956939697,1.6259804964065552,1.8037561178207397
1691260371911074785,,12023,,1691260371,910965755,"""world""",,,-2.950106382369995,1.6623685359954834,1.8037177324295044
1691260372061013496,,12024,,1691260372,60878692,"""world""",,,-3.311418056488037,1.8404570817947388,1.825144648551941
1691260372131010591,,12025,,1691260372,130895105,"""world""",,,-3.368720769882202,1.8594238758087158,1.8190349340438843
1691260372131014059,,12026,,1691260372,130917447,"""world""",,,-3.3758134841918945,1.8725022077560425,1.82640540599823
1691260373061033568,,12027,,1691260373,60894662,"""world""",,,-4.611750602722168,2.0536916255950928,1.850466251373291
1691260373071105133,,12028,,1691260373,70884184,"""world""",,,-4.636211395263672,2.047881603240967,1.850049614906311
1691260373071113613,,12029,,1691260373,70902086,"""world""",,,-4.660938262939453,2.041928768157959,1.8503016233444214
1691260373071120110,,12030,,1691260373,70927694,"""world""",,,-4.672564506530762,2.0389060974121094,1.8503341674804688
1691260373071129194,,12031,,1691260373,70961476,"""world""",,,-4.697455406188965,2.032799482345581,1.8502471446990967
