rosbagTimestamp,header,seq,stamp,secs,nsecs,frame_id,pose,position,x,y,z
1690467244314818248,,103733,,1690467244,314715709,"""world""",,,3.3115930557250977,13.163529396057129,0.2013048678636551
1690467244324920538,,103734,,1690467244,324778226,"""world""",,,3.311575412750244,13.163551330566406,0.2012692242860794
1690467244336067811,,103735,,1690467244,334743313,"""world""",,,3.311573028564453,13.163498878479004,0.2013029307126999
1690467244344872067,,103736,,1690467244,344739335,"""world""",,,3.311570882797241,13.16348648071289,0.20128118991851807
1690467244354807615,,103737,,1690467244,354726232,"""world""",,,3.311497449874878,13.163548469543457,0.2012629359960556
1690467244364890339,,103738,,1690467244,364762012,"""world""",,,3.311563730239868,13.163537979125977,0.2012893408536911
1690467244374894010,,103739,,1690467244,374767170,"""world""",,,3.3115453720092773,13.16355037689209,0.20127229392528534
1690467244384814434,,103740,,1690467244,384729525,"""world""",,,3.3115317821502686,13.163534164428711,0.20127390325069427
1690467244394852084,,103741,,1690467244,394728648,"""world""",,,3.3116610050201416,13.163528442382812,0.20122788846492767
1690467244404853638,,103742,,1690467244,404736150,"""world""",,,3.311591148376465,13.163485527038574,0.20128287374973297
1690467244414817431,,103743,,1690467244,414726387,"""world""",,,3.3115601539611816,13.163501739501953,0.20141790807247162
1690467244424883387,,103744,,1690467244,424760471,"""world""",,,3.311619997024536,13.163522720336914,0.20127317309379578
1690467244434806522,,103745,,1690467244,434728364,"""world""",,,3.3115859031677246,13.163483619689941,0.20131120085716248
1690467244444804549,,103746,,1690467244,444726977,"""world""",,,3.31140398979187,13.163492202758789,0.20145133137702942
1690467244454826423,,103747,,1690467244,454720167,"""world""",,,3.3113956451416016,13.163552284240723,0.20134033262729645
1690467244464855060,,103748,,1690467244,464732703,"""world""",,,3.311565637588501,13.163506507873535,0.20129963755607605
1690467244474827799,,103749,,1690467244,474728782,"""world""",,,3.3114044666290283,13.163538932800293,0.20135165750980377
1690467244484847457,,103750,,1690467244,484728752,"""world""",,,3.311609983444214,13.163495063781738,0.2012760043144226
1690467244494808129,,103751,,1690467244,494724930,"""world""",,,3.311568021774292,13.163507461547852,0.20128512382507324
1690467244504851214,,103752,,1690467244,504741404,"""world""",,,3.311579704284668,13.163468360900879,0.2014598399400711
1690467244514830277,,103753,,1690467244,514730024,"""world""",,,3.311631679534912,13.163456916809082,0.20126722753047943
1690467244524894767,,103754,,1690467244,524744417,"""world""",,,3.3115384578704834,13.163448333740234,0.20131047070026398
1690467244534849916,,103755,,1690467244,534746835,"""world""",,,3.3115897178649902,13.163464546203613,0.20134900510311127
1690467244544836465,,103756,,1690467244,544730540,"""world""",,,3.311638116836548,13.163457870483398,0.20127791166305542
1690467244554792685,,103757,,1690467244,554719666,"""world""",,,3.3115804195404053,13.163406372070312,0.2013290673494339
1690467244564826060,,103758,,1690467244,564738112,"""world""",,,3.3115785121917725,13.163451194763184,0.20129399001598358
1690467244574883280,,103759,,1690467244,574749649,"""world""",,,3.31158185005188,13.163407325744629,0.20132318139076233
1690467244584808871,,103760,,1690467244,584732262,"""world""",,,3.311553955078125,13.163420677185059,0.2012692391872406
1690467244594915683,,103761,,1690467244,594737026,"""world""",,,3.3115265369415283,13.163516998291016,0.2012454867362976
1690467244604810455,,103762,,1690467244,604730584,"""world""",,,3.3114261627197266,13.163520812988281,0.20138409733772278
1690467244614833637,,103763,,1690467244,614727892,"""world""",,,3.3115577697753906,13.163473129272461,0.2012762725353241
1690467244624907762,,103764,,1690467244,624766898,"""world""",,,3.311522960662842,13.163476943969727,0.20127753913402557
1690467244634869901,,103765,,1690467244,634745081,"""world""",,,3.311537742614746,13.16348648071289,0.20125457644462585
1690467244644809613,,103766,,1690467244,644727212,"""world""",,,3.31158709526062,13.163455963134766,0.20128630101680756
1690467244654784452,,103767,,1690467244,654714009,"""world""",,,3.311580181121826,13.16342830657959,0.20130878686904907
1690467244664808297,,103768,,1690467244,664731166,"""world""",,,3.311566114425659,13.163427352905273,0.20131336152553558
1690467244674811422,,103769,,1690467244,674727806,"""world""",,,3.311582088470459,13.163409233093262,0.2013166844844818
1690467244684798305,,103770,,1690467244,684725786,"""world""",,,3.311469316482544,13.163427352905273,0.20137609541416168
1690467244694823302,,103771,,1690467244,694731621,"""world""",,,3.311506509780884,13.163331985473633,0.2012854516506195
1690467244704820309,,103772,,1690467244,704732874,"""world""",,,3.311549425125122,13.163479804992676,0.20129261910915375
1690467244714793659,,103773,,1690467244,714720162,"""world""",,,3.311566114425659,13.16341781616211,0.20131026208400726
1690467244724952236,,103774,,1690467244,724776632,"""world""",,,3.311586618423462,13.163429260253906,0.20131810009479523
1690467244734826571,,103775,,1690467244,734729419,"""world""",,,3.311548948287964,13.163456916809082,0.20131635665893555
1690467244744845826,,103776,,1690467244,744727895,"""world""",,,3.3115901947021484,13.163406372070312,0.20132753252983093
1690467244754782150,,103777,,1690467244,754714708,"""world""",,,3.311572551727295,13.163286209106445,0.2012706845998764
1690467244764853344,,103778,,1690467244,764736352,"""world""",,,3.311481237411499,13.16345500946045,0.20135171711444855
1690467244774849337,,103779,,1690467244,774751265,"""world""",,,3.311573028564453,13.163414001464844,0.2013077735900879
1690467244784858933,,103780,,1690467244,784752720,"""world""",,,3.311622142791748,13.163399696350098,0.20147739350795746
1690467244794887136,,103781,,1690467244,794764746,"""world""",,,3.3115804195404053,13.163418769836426,0.2012743502855301
1690467244804815453,,103782,,1690467244,804732511,"""world""",,,3.311516523361206,13.163437843322754,0.20130372047424316
1690467244814796631,,103783,,1690467244,814723528,"""world""",,,3.3115437030792236,13.16342830657959,0.20128560066223145
1690467244824904725,,103784,,1690467244,824757235,"""world""",,,3.3115737438201904,13.163373947143555,0.20129497349262238
1690467244834828235,,103785,,1690467244,834725975,"""world""",,,3.3115601539611816,13.1633882522583,0.20133748650550842
1690467244844809328,,103786,,1690467244,844726545,"""world""",,,3.311561346054077,13.16342544555664,0.20132438838481903
1690467244854796667,,103787,,1690467244,854724377,"""world""",,,3.311570882797241,13.163289070129395,0.20130135118961334
1690467244864850358,,103788,,1690467244,864761780,"""world""",,,3.311641216278076,13.163397789001465,0.20130403339862823
1690467244874813563,,103789,,1690467244,874728699,"""world""",,,3.311568021774292,13.163420677185059,0.20132003724575043
1690467244884805783,,103790,,1690467244,884727118,"""world""",,,3.3115813732147217,13.163381576538086,0.2013242244720459
1690467244894804986,,103791,,1690467244,894726549,"""world""",,,3.3115270137786865,13.16323471069336,0.20130518078804016
1690467244904830085,,103792,,1690467244,904739106,"""world""",,,3.311420440673828,13.163363456726074,0.20143520832061768
1690467244914831174,,103793,,1690467244,914729140,"""world""",,,3.3115665912628174,13.163337707519531,0.20135964453220367
1690467244924891897,,103794,,1690467244,924756979,"""world""",,,3.311598539352417,13.163270950317383,0.20141088962554932
1690467244934816361,,103795,,1690467244,934727834,"""world""",,,3.3116469383239746,13.163246154785156,0.20137569308280945
1690467244944819912,,103796,,1690467244,944728378,"""world""",,,3.311603546142578,13.163273811340332,0.20141646265983582
1690467244954795107,,103797,,1690467244,954722712,"""world""",,,3.311598062515259,13.16328239440918,0.20140902698040009
1690467244964845499,,103798,,1690467244,964744965,"""world""",,,3.311616897583008,13.16322135925293,0.2014470398426056
1690467244974838718,,103799,,1690467244,974741081,"""world""",,,3.3116228580474854,13.163195610046387,0.20145149528980255
1690467244984800558,,103800,,1690467244,984726010,"""world""",,,3.3116769790649414,13.163236618041992,0.20134833455085754
1690467244994877304,,103801,,1690467244,994760779,"""world""",,,3.3115828037261963,13.163249969482422,0.20142525434494019
1690467245004812490,,103802,,1690467245,4730835,"""world""",,,3.3116111755371094,13.16320514678955,0.20143736898899078
1690467245014799955,,103803,,1690467245,14722446,"""world""",,,3.3116421699523926,13.163219451904297,0.2015589326620102
1690467245024870716,,103804,,1690467245,24738968,"""world""",,,3.3116321563720703,13.163260459899902,0.2014007717370987
1690467245034842868,,103805,,1690467245,34729033,"""world""",,,3.3116331100463867,13.163283348083496,0.20138435065746307
1690467245044825331,,103806,,1690467245,44730920,"""world""",,,3.3116207122802734,13.163240432739258,0.2014305293560028
1690467245054810000,,103807,,1690467245,54741798,"""world""",,,3.311613082885742,13.163243293762207,0.20143792033195496
1690467245064819906,,103808,,1690467245,64729846,"""world""",,,3.3116109371185303,13.163217544555664,0.20144031941890717
1690467245074849352,,103809,,1690467245,74740153,"""world""",,,3.311664342880249,13.163230895996094,0.20134635269641876
1690467245084804342,,103810,,1690467245,84726662,"""world""",,,3.3116278648376465,13.163204193115234,0.20143640041351318
1690467245094823564,,103811,,1690467245,94729598,"""world""",,,3.311619997024536,13.163190841674805,0.20146040618419647
1690467245104829111,,103812,,1690467245,104734503,"""world""",,,3.3115978240966797,13.163116455078125,0.20137783885002136
1690467245114800972,,103813,,1690467245,114724240,"""world""",,,3.311645746231079,13.163252830505371,0.2013675570487976
1690467245124949462,,103814,,1690467245,124778432,"""world""",,,3.3116073608398438,13.16324234008789,0.20142647624015808
1690467245134809204,,103815,,1690467245,134728234,"""world""",,,3.311645030975342,13.163219451904297,0.20142856240272522
1690467245144808362,,103816,,1690467245,144726209,"""world""",,,3.311622142791748,13.16324234008789,0.20143552124500275
1690467245154784588,,103817,,1690467245,154715190,"""world""",,,3.3115975856781006,13.163217544555664,0.20139452815055847
1690467245164845081,,103818,,1690467245,164731730,"""world""",,,3.3115909099578857,13.163193702697754,0.2014714628458023
1690467245174837802,,103819,,1690467245,174749820,"""world""",,,3.3116369247436523,13.163199424743652,0.2014453411102295
1690467245184793661,,103820,,1690467245,184718359,"""world""",,,3.311605930328369,13.163212776184082,0.20143339037895203
1690467245194807954,,103821,,1690467245,194727249,"""world""",,,3.311621904373169,13.163249015808105,0.20144648849964142
1690467245204810152,,103822,,1690467245,204730917,"""world""",,,3.3117127418518066,13.163215637207031,0.20133599638938904
1690467245214866861,,103823,,1690467245,214719987,"""world""",,,3.3114824295043945,13.163254737854004,0.2015177607536316
1690467245224852740,,103824,,1690467245,224748509,"""world""",,,3.3116087913513184,13.163188934326172,0.20145553350448608
1690467245234822593,,103825,,1690467245,234733039,"""world""",,,3.3116042613983154,13.163189888000488,0.20143508911132812
1690467245244814579,,103826,,1690467245,244734225,"""world""",,,3.3115780353546143,13.163105964660645,0.2014842927455902
1690467245254841000,,103827,,1690467245,254724797,"""world""",,,3.3117358684539795,13.16313362121582,0.20139336585998535
1690467245264846509,,103828,,1690467245,264727506,"""world""",,,3.311532735824585,13.163192749023438,0.20163901150226593
1690467245274848579,,103829,,1690467245,274742149,"""world""",,,3.311609983444214,13.163071632385254,0.20152686536312103
1690467245284816825,,103830,,1690467245,284729496,"""world""",,,3.311661720275879,13.163089752197266,0.20149411261081696
1690467245294816506,,103831,,1690467245,294726998,"""world""",,,3.311685562133789,13.163018226623535,0.201507106423378
1690467245304825854,,103832,,1690467245,304734827,"""world""",,,3.3117165565490723,13.163047790527344,0.20151212811470032
1690467245314846937,,103833,,1690467245,314717663,"""world""",,,3.311706781387329,13.163064956665039,0.20152422785758972
1690467245324921429,,103834,,1690467245,324766335,"""world""",,,3.3117008209228516,13.163046836853027,0.20151056349277496
1690467245334851984,,103835,,1690467245,334726694,"""world""",,,3.311737537384033,13.162989616394043,0.20153021812438965
1690467245344833017,,103836,,1690467245,344728677,"""world""",,,3.311595916748047,13.162983894348145,0.20162568986415863
1690467245354809607,,103837,,1690467245,354732674,"""world""",,,3.311652660369873,13.162968635559082,0.20166511833667755
1690467245364824604,,103838,,1690467245,364735790,"""world""",,,3.311692953109741,13.162919998168945,0.20154313743114471
1690467245374842176,,103839,,1690467245,374742783,"""world""",,,3.3118770122528076,13.162993431091309,0.20142395794391632
1690467245384850060,,103840,,1690467245,384757662,"""world""",,,3.311595916748047,13.163044929504395,0.20173558592796326
1690467245394822751,,103841,,1690467245,394726284,"""world""",,,3.3117032051086426,13.162935256958008,0.20162509381771088
1690467245404837587,,103842,,1690467245,404740211,"""world""",,,3.3116824626922607,13.162899017333984,0.20160844922065735
1690467245414872193,,103843,,1690467245,414752988,"""world""",,,3.311711311340332,13.162956237792969,0.20157764852046967
1690467245424926864,,103844,,1690467245,424776926,"""world""",,,3.3115692138671875,13.162946701049805,0.20165497064590454
1690467245434853379,,103845,,1690467245,434728350,"""world""",,,3.3117170333862305,13.162895202636719,0.20162296295166016
1690467245444823787,,103846,,1690467245,444727182,"""world""",,,3.311859369277954,13.16292953491211,0.201530322432518
1690467245454824408,,103847,,1690467245,454717832,"""world""",,,3.3117856979370117,13.162933349609375,0.20157833397388458
1690467245464823478,,103848,,1690467245,464732592,"""world""",,,3.311727285385132,13.162914276123047,0.20162756741046906
1690467245474885109,,103849,,1690467245,474735805,"""world""",,,3.3117709159851074,13.162885665893555,0.2016235888004303
1690467245484841849,,103850,,1690467245,484727835,"""world""",,,3.311736822128296,13.162806510925293,0.2017139047384262
1690467245494835046,,103851,,1690467245,494726524,"""world""",,,3.3116960525512695,13.162739753723145,0.20178398489952087
1690467245504919835,,103852,,1690467245,504765732,"""world""",,,3.3116304874420166,13.162537574768066,0.20177415013313293
1690467245514804628,,103853,,1690467245,514724885,"""world""",,,3.311807870864868,13.162590026855469,0.20171548426151276
1690467245524865669,,103854,,1690467245,524749727,"""world""",,,3.311666250228882,13.16252613067627,0.20180299878120422
1690467245534879733,,103855,,1690467245,534733673,"""world""",,,3.311729669570923,13.162467002868652,0.2018783837556839
1690467245544822336,,103856,,1690467245,544731510,"""world""",,,3.311776638031006,13.162385940551758,0.2019636034965515
1690467245554796154,,103857,,1690467245,554720098,"""world""",,,3.3118181228637695,13.162337303161621,0.20196296274662018
1690467245564933178,,103858,,1690467245,564780991,"""world""",,,3.3117878437042236,13.1622953414917,0.2020392268896103
1690467245574827934,,103859,,1690467245,574744984,"""world""",,,3.3118603229522705,13.162169456481934,0.20204554498195648
1690467245584802493,,103860,,1690467245,584727552,"""world""",,,3.311891555786133,13.161967277526855,0.20210103690624237
1690467245594820949,,103861,,1690467245,594726837,"""world""",,,3.311858892440796,13.162040710449219,0.20229685306549072
1690467245604832809,,103862,,1690467245,604734577,"""world""",,,3.3120648860931396,13.1618013381958,0.2021869421005249
1690467245614796258,,103863,,1690467245,614720215,"""world""",,,3.312012195587158,13.161699295043945,0.2022714912891388
1690467245624898746,,103864,,1690467245,624746647,"""world""",,,3.3120601177215576,13.161601066589355,0.20230858027935028
1690467245634808531,,103865,,1690467245,634729749,"""world""",,,3.3120930194854736,13.161498069763184,0.20235830545425415
1690467245644840953,,103866,,1690467245,644726942,"""world""",,,3.3121256828308105,13.161383628845215,0.2024257630109787
1690467245654787136,,103867,,1690467245,654711250,"""world""",,,3.3121790885925293,13.161284446716309,0.20247791707515717
1690467245664852608,,103868,,1690467245,664761687,"""world""",,,3.312293291091919,13.161197662353516,0.20256148278713226
1690467245674812818,,103869,,1690467245,674733132,"""world""",,,3.312297821044922,13.161134719848633,0.20255273580551147
1690467245684797743,,103870,,1690467245,684723868,"""world""",,,3.3122596740722656,13.161059379577637,0.2025528848171234
1690467245694823589,,103871,,1690467245,694733644,"""world""",,,3.3123090267181396,13.161046028137207,0.20256948471069336
1690467245704814502,,103872,,1690467245,704728151,"""world""",,,3.312246561050415,13.160985946655273,0.2026611864566803
1690467245714841757,,103873,,1690467245,714731712,"""world""",,,3.3122427463531494,13.160970687866211,0.20266160368919373
1690467245724881628,,103874,,1690467245,724746257,"""world""",,,3.312242031097412,13.16094970703125,0.2026698738336563
1690467245734823026,,103875,,1690467245,734729207,"""world""",,,3.312246322631836,13.16096019744873,0.20267938077449799
1690467245744811522,,103876,,1690467245,744727652,"""world""",,,3.3122448921203613,13.160964965820312,0.20267724990844727
1690467245754854136,,103877,,1690467245,754731006,"""world""",,,3.31223726272583,13.160993576049805,0.20264416933059692
1690467245764829586,,103878,,1690467245,764733843,"""world""",,,3.312251329421997,13.161031723022461,0.20265556871891022
1690467245774900247,,103879,,1690467245,774737713,"""world""",,,3.312152624130249,13.161064147949219,0.20264573395252228
1690467245784855834,,103880,,1690467245,784727792,"""world""",,,3.312155246734619,13.161043167114258,0.20260246098041534
1690467245794845090,,103881,,1690467245,794726013,"""world""",,,3.3121931552886963,13.161084175109863,0.20257997512817383
1690467245804851565,,103882,,1690467245,804730815,"""world""",,,3.3121984004974365,13.161083221435547,0.2025560438632965
1690467245814888014,,103883,,1690467245,814737435,"""world""",,,3.3122384548187256,13.161097526550293,0.20253556966781616
1690467245824866510,,103884,,1690467245,824751618,"""world""",,,3.3121895790100098,13.161113739013672,0.20255409181118011
1690467245834825398,,103885,,1690467245,834730040,"""world""",,,3.312087297439575,13.161174774169922,0.20266173779964447
1690467245844832908,,103886,,1690467245,844733758,"""world""",,,3.312191963195801,13.16111946105957,0.20255562663078308
1690467245854801440,,103887,,1690467245,854717965,"""world""",,,3.3121917247772217,13.161101341247559,0.20257313549518585
1690467245864809978,,103888,,1690467245,864726279,"""world""",,,3.312199115753174,13.161087989807129,0.20258352160453796
1690467245874843750,,103889,,1690467245,874737029,"""world""",,,3.3121891021728516,13.161069869995117,0.20258136093616486
1690467245884809630,,103890,,1690467245,884726991,"""world""",,,3.3121964931488037,13.161055564880371,0.2025732398033142
1690467245894809743,,103891,,1690467245,894723955,"""world""",,,3.312242031097412,13.16106128692627,0.20258589088916779
1690467245904921381,,103892,,1690467245,904790129,"""world""",,,3.312164783477783,13.161092758178711,0.20265430212020874
1690467245914812179,,103893,,1690467245,914725368,"""world""",,,3.31229567527771,13.161117553710938,0.20262818038463593
1690467245924852003,,103894,,1690467245,924743715,"""world""",,,3.3121538162231445,13.160941123962402,0.20256102085113525
1690467245934865620,,103895,,1690467245,934728845,"""world""",,,3.312239170074463,13.161050796508789,0.20261971652507782
1690467245944825972,,103896,,1690467245,944731539,"""world""",,,3.3122215270996094,13.161030769348145,0.20262311398983002
1690467245954786215,,103897,,1690467245,954719192,"""world""",,,3.312312602996826,13.161022186279297,0.20259824395179749
1690467245964855618,,103898,,1690467245,964733316,"""world""",,,3.312204599380493,13.160994529724121,0.2026640772819519
1690467245974858280,,103899,,1690467245,974728758,"""world""",,,3.3122284412384033,13.16101360321045,0.2026331126689911
1690467245984835905,,103900,,1690467245,984725580,"""world""",,,3.312225818634033,13.160991668701172,0.20265577733516693
1690467245994853613,,103901,,1690467245,994722643,"""world""",,,3.31225848197937,13.160975456237793,0.20266874134540558
1690467246004871263,,103902,,1690467246,4742886,"""world""",,,3.312264919281006,13.160942077636719,0.20270377397537231
1690467246014846732,,103903,,1690467246,14730353,"""world""",,,3.312323808670044,13.160911560058594,0.202696293592453
1690467246024880350,,103904,,1690467246,24742554,"""world""",,,3.312333583831787,13.160860061645508,0.20271699130535126
1690467246034846840,,103905,,1690467246,34739271,"""world""",,,3.3123528957366943,13.160806655883789,0.20272374153137207
1690467246044816572,,103906,,1690467246,44732658,"""world""",,,3.3123531341552734,13.16076946258545,0.20275114476680756
1690467246054785652,,103907,,1690467246,54713289,"""world""",,,3.312408924102783,13.160758972167969,0.2027789205312729
1690467246064911959,,103908,,1690467246,64760651,"""world""",,,3.3122670650482178,13.160774230957031,0.2028069943189621
1690467246074960360,,103909,,1690467246,74802275,"""world""",,,3.312403678894043,13.160806655883789,0.20281486213207245
1690467246084855949,,103910,,1690467246,84729416,"""world""",,,3.3123104572296143,13.160737991333008,0.2027977705001831
1690467246094874518,,103911,,1690467246,94751566,"""world""",,,3.3122949600219727,13.160749435424805,0.20274382829666138
1690467246104851603,,103912,,1690467246,104738426,"""world""",,,3.312312602996826,13.160740852355957,0.20274324715137482
1690467246114839511,,103913,,1690467246,114727743,"""world""",,,3.312340259552002,13.160737991333008,0.20272289216518402
1690467246124848967,,103914,,1690467246,124743318,"""world""",,,3.312300443649292,13.16072940826416,0.20272284746170044
1690467246134844714,,103915,,1690467246,134734256,"""world""",,,3.312283754348755,13.160682678222656,0.202767014503479
1690467246144809937,,103916,,1690467246,144727789,"""world""",,,3.3122518062591553,13.160674095153809,0.2027699053287506
1690467246154806618,,103917,,1690467246,154721909,"""world""",,,3.3122825622558594,13.160649299621582,0.2027902603149414
1690467246164817293,,103918,,1690467246,164733562,"""world""",,,3.3123202323913574,13.160614967346191,0.20284345746040344
1690467246174843412,,103919,,1690467246,174734491,"""world""",,,3.312424421310425,13.16053581237793,0.2029018998146057
1690467246184824641,,103920,,1690467246,184728318,"""world""",,,3.3124217987060547,13.160467147827148,0.20290236175060272
1690467246194821330,,103921,,1690467246,194726209,"""world""",,,3.3124561309814453,13.16036605834961,0.20293617248535156
1690467246204815520,,103922,,1690467246,204738796,"""world""",,,3.312495470046997,13.160248756408691,0.20301946997642517
1690467246214813468,,103923,,1690467246,214724543,"""world""",,,3.3123605251312256,13.160168647766113,0.20329293608665466
1690467246224880961,,103924,,1690467246,224739904,"""world""",,,3.3122828006744385,13.160080909729004,0.2034740447998047
1690467246234795122,,103925,,1690467246,234723997,"""world""",,,3.3123745918273926,13.159862518310547,0.20348837971687317
1690467246244810753,,103926,,1690467246,244729364,"""world""",,,3.312396764755249,13.159652709960938,0.2036278247833252
1690467246254805130,,103927,,1690467246,254719165,"""world""",,,3.312558889389038,13.159363746643066,0.203653484582901
1690467246264810205,,103928,,1690467246,264726988,"""world""",,,3.312602996826172,13.1591215133667,0.20378290116786957
1690467246274811472,,103929,,1690467246,274730391,"""world""",,,3.312741279602051,13.158845901489258,0.20394502580165863
1690467246284803048,,103930,,1690467246,284726437,"""world""",,,3.312721014022827,13.158445358276367,0.2041400671005249
1690467246294802118,,103931,,1690467246,294722868,"""world""",,,3.3129475116729736,13.158077239990234,0.20424820482730865
1690467246304973226,,103932,,1690467246,304766857,"""world""",,,3.313075304031372,13.15774917602539,0.20453962683677673
1690467246314819568,,103933,,1690467246,314731019,"""world""",,,3.3132212162017822,13.157400131225586,0.2046954482793808
1690467246324873314,,103934,,1690467246,324754423,"""world""",,,3.3133604526519775,13.157065391540527,0.2048541009426117
1690467246334864465,,103935,,1690467246,334758011,"""world""",,,3.313429117202759,13.156705856323242,0.2050066739320755
1690467246344932182,,103936,,1690467246,344770234,"""world""",,,3.313570737838745,13.156371116638184,0.20522308349609375
1690467246354831803,,103937,,1690467246,354724698,"""world""",,,3.3137056827545166,13.156063079833984,0.20543411374092102
1690467246364834105,,103938,,1690467246,364731032,"""world""",,,3.3137404918670654,13.155728340148926,0.2055831253528595
1690467246374922672,,103939,,1690467246,374748651,"""world""",,,3.313694715499878,13.155421257019043,0.20578567683696747
1690467246384801006,,103940,,1690467246,384725184,"""world""",,,3.3136932849884033,13.155115127563477,0.20606325566768646
1690467246394825504,,103941,,1690467246,394725008,"""world""",,,3.313681125640869,13.154829978942871,0.2060236632823944
1690467246404843961,,103942,,1690467246,404736850,"""world""",,,3.313567876815796,13.154627799987793,0.20621033012866974
1690467246414819253,,103943,,1690467246,414734244,"""world""",,,3.313307046890259,13.1543607711792,0.20646636188030243
1690467246424889218,,103944,,1690467246,424743045,"""world""",,,3.3132452964782715,13.154159545898438,0.206541508436203
1690467246434963989,,103945,,1690467246,434788696,"""world""",,,3.3131637573242188,13.153915405273438,0.20665712654590607
1690467246444852135,,103946,,1690467246,444759858,"""world""",,,3.3130974769592285,13.1536865234375,0.20685531198978424
1690467246454840140,,103947,,1690467246,454747481,"""world""",,,3.313113212585449,13.15347671508789,0.206939697265625
1690467246464840993,,103948,,1690467246,464759377,"""world""",,,3.313185214996338,13.153236389160156,0.20702345669269562
1690467246474831695,,103949,,1690467246,474729415,"""world""",,,3.313194990158081,13.153097152709961,0.20721052587032318
1690467246484809418,,103950,,1690467246,484725196,"""world""",,,3.313359022140503,13.152874946594238,0.2072128802537918
1690467246494847681,,103951,,1690467246,494739032,"""world""",,,3.3134496212005615,13.152691841125488,0.20734848082065582
1690467246504846229,,103952,,1690467246,504742858,"""world""",,,3.313494920730591,13.152505874633789,0.2075059860944748
1690467246514847585,,103953,,1690467246,514726863,"""world""",,,3.3136560916900635,13.152436256408691,0.20760034024715424
1690467246524888794,,103954,,1690467246,524739434,"""world""",,,3.3136825561523438,13.152366638183594,0.2077036052942276
1690467246534834986,,103955,,1690467246,534743142,"""world""",,,3.3136425018310547,13.152185440063477,0.2078409641981125
1690467246544893730,,103956,,1690467246,544764362,"""world""",,,3.3136653900146484,13.15201473236084,0.20791465044021606
1690467246554838560,,103957,,1690467246,554752996,"""world""",,,3.313671827316284,13.151839256286621,0.20798715949058533
1690467246564863123,,103958,,1690467246,564768440,"""world""",,,3.3136703968048096,13.15172290802002,0.2080552577972412
1690467246574936015,,103959,,1690467246,574785265,"""world""",,,3.3136420249938965,13.151527404785156,0.20814424753189087
1690467246584849995,,103960,,1690467246,584729303,"""world""",,,3.3137805461883545,13.151313781738281,0.20812402665615082
1690467246594875644,,103961,,1690467246,594737993,"""world""",,,3.313392400741577,13.15123462677002,0.2086203396320343
1690467246604914043,,103962,,1690467246,604757169,"""world""",,,3.3135313987731934,13.150818824768066,0.20848998427391052
1690467246614836427,,103963,,1690467246,614725211,"""world""",,,3.313563823699951,13.150572776794434,0.20851655304431915
1690467246624879131,,103964,,1690467246,624730839,"""world""",,,3.313589096069336,13.150382995605469,0.20852144062519073
1690467246634826554,,103965,,1690467246,634728307,"""world""",,,3.3135135173797607,13.150156021118164,0.20859020948410034
1690467246644810470,,103966,,1690467246,644726916,"""world""",,,3.3135335445404053,13.150004386901855,0.2085733264684677
1690467246654817306,,103967,,1690467246,654724130,"""world""",,,3.3133811950683594,13.149744987487793,0.2087295949459076
1690467246664854678,,103968,,1690467246,664753598,"""world""",,,3.3131988048553467,13.149618148803711,0.20889152586460114
1690467246674839990,,103969,,1690467246,674741376,"""world""",,,3.3131892681121826,13.14943790435791,0.20900143682956696
1690467246684828479,,103970,,1690467246,684733421,"""world""",,,3.313218832015991,13.14927864074707,0.20911307632923126
1690467246694818763,,103971,,1690467246,694729608,"""world""",,,3.313336133956909,13.149075508117676,0.20917576551437378
1690467246704932539,,103972,,1690467246,704754464,"""world""",,,3.313331127166748,13.148911476135254,0.2092922478914261
1690467246714839166,,103973,,1690467246,714726064,"""world""",,,3.313349723815918,13.148736953735352,0.2094392329454422
1690467246724810825,,103974,,1690467246,724729255,"""world""",,,3.3132622241973877,13.148566246032715,0.20962488651275635
1690467246734802671,,103975,,1690467246,734724926,"""world""",,,3.313450574874878,13.148295402526855,0.20971132814884186
1690467246744826995,,103976,,1690467246,744725899,"""world""",,,3.3134355545043945,13.14810848236084,0.20984600484371185
1690467246754799271,,103977,,1690467246,754718686,"""world""",,,3.313568115234375,13.147909164428711,0.21003316342830658
1690467246764807135,,103978,,1690467246,764726978,"""world""",,,3.3137893676757812,13.147734642028809,0.21009206771850586
1690467246774846081,,103979,,1690467246,774736153,"""world""",,,3.3137741088867188,13.147481918334961,0.21029548346996307
1690467246784863475,,103980,,1690467246,784725607,"""world""",,,3.313868284225464,13.147202491760254,0.2104068398475647
1690467246794804323,,103981,,1690467246,794724274,"""world""",,,3.313974142074585,13.146865844726562,0.2105856090784073
1690467246804843713,,103982,,1690467246,804752674,"""world""",,,3.314012050628662,13.146505355834961,0.21082615852355957
1690467246814810429,,103983,,1690467246,814721376,"""world""",,,3.3139753341674805,13.146049499511719,0.21106915175914764
1690467246824829652,,103984,,1690467246,824742042,"""world""",,,3.313911199569702,13.145689010620117,0.21133069694042206
1690467246834821487,,103985,,1690467246,834728144,"""world""",,,3.3139970302581787,13.14526653289795,0.21156466007232666
1690467246844804615,,103986,,1690467246,844728239,"""world""",,,3.3140087127685547,13.144775390625,0.21189793944358826
1690467246854767044,,103987,,1690467246,854710121,"""world""",,,3.3140153884887695,13.144285202026367,0.21218617260456085
1690467246864908196,,103988,,1690467246,864741413,"""world""",,,3.3138694763183594,13.1438627243042,0.2123262733221054
1690467246874939145,,103989,,1690467246,874754763,"""world""",,,3.313911199569702,13.143397331237793,0.2124650925397873
1690467246884817568,,103990,,1690467246,884729798,"""world""",,,3.313812017440796,13.142881393432617,0.21267834305763245
1690467246894766789,,103991,,1690467246,894684285,"""world""",,,3.3136651515960693,13.142350196838379,0.21279357373714447
1690467246904879720,,103992,,1690467246,904756143,"""world""",,,3.313446283340454,13.141777038574219,0.2129610925912857
1690467246914798466,,103993,,1690467246,914723339,"""world""",,,3.313377618789673,13.141239166259766,0.21307174861431122
1690467246924812573,,103994,,1690467246,924736762,"""world""",,,3.3131699562072754,13.140804290771484,0.21332812309265137
1690467246934855415,,103995,,1690467246,934744642,"""world""",,,3.3131349086761475,13.140384674072266,0.2134144902229309
1690467246944805977,,103996,,1690467246,944727658,"""world""",,,3.31296706199646,13.139822959899902,0.21360014379024506
1690467246954778570,,103997,,1690467246,954715453,"""world""",,,3.3127524852752686,13.139333724975586,0.2137497216463089
1690467246964811326,,103998,,1690467246,964724942,"""world""",,,3.312473773956299,13.138786315917969,0.21377970278263092
1690467246974952248,,103999,,1690467246,974802830,"""world""",,,3.3122808933258057,13.138284683227539,0.21394555270671844
1690467246984816708,,104000,,1690467246,984730022,"""world""",,,3.3119606971740723,13.137798309326172,0.2140524685382843
1690467246994833701,,104001,,1690467246,994730525,"""world""",,,3.3117313385009766,13.137296676635742,0.2142607420682907
1690467247004843029,,104002,,1690467247,4739960,"""world""",,,3.3112058639526367,13.136781692504883,0.21419918537139893
1690467247014796277,,104003,,1690467247,14726840,"""world""",,,3.3110077381134033,13.136202812194824,0.21422886848449707
1690467247024840479,,104004,,1690467247,24743966,"""world""",,,3.310708522796631,13.135730743408203,0.2143256813287735
1690467247034867793,,104005,,1690467247,34754092,"""world""",,,3.310324192047119,13.135107040405273,0.2145686000585556
1690467247044824903,,104006,,1690467247,44730148,"""world""",,,3.310006856918335,13.134625434875488,0.2145613580942154
1690467247054807022,,104007,,1690467247,54721951,"""world""",,,3.3095951080322266,13.13409423828125,0.2146613448858261
1690467247064856680,,104008,,1690467247,64729570,"""world""",,,3.309458017349243,13.133798599243164,0.21501874923706055
1690467247074872625,,104009,,1690467247,74741398,"""world""",,,3.308928966522217,13.13300609588623,0.21487772464752197
1690467247084894861,,104010,,1690467247,84729200,"""world""",,,3.308635711669922,13.1323823928833,0.21489660441875458
1690467247094809362,,104011,,1690467247,94722015,"""world""",,,3.308450937271118,13.131686210632324,0.21505272388458252
1690467247104838350,,104012,,1690467247,104733670,"""world""",,,3.3079731464385986,13.131060600280762,0.21514137089252472
1690467247114810451,,104013,,1690467247,114730348,"""world""",,,3.307659149169922,13.130470275878906,0.21524186432361603
1690467247124821475,,104014,,1690467247,124730470,"""world""",,,3.3075308799743652,13.129891395568848,0.2153121381998062
1690467247134835298,,104015,,1690467247,134745681,"""world""",,,3.307347059249878,13.129319190979004,0.21536125242710114
1690467247144817385,,104016,,1690467247,144728065,"""world""",,,3.3070201873779297,13.128726959228516,0.21554721891880035
1690467247154790246,,104017,,1690467247,154716919,"""world""",,,3.306777238845825,13.128257751464844,0.2155669629573822
1690467247164853304,,104018,,1690467247,164726350,"""world""",,,3.3064699172973633,13.127676010131836,0.21567001938819885
1690467247174857085,,104019,,1690467247,174728861,"""world""",,,3.306239128112793,13.127042770385742,0.21574479341506958
1690467247184814392,,104020,,1690467247,184730465,"""world""",,,3.306199073791504,13.12647819519043,0.21582208573818207
1690467247194830924,,104021,,1690467247,194750167,"""world""",,,3.3059675693511963,13.125699043273926,0.2157267928123474
1690467247204857171,,104022,,1690467247,204746477,"""world""",,,3.305885076522827,13.125038146972656,0.2157413214445114
1690467247214848202,,104023,,1690467247,214756815,"""world""",,,3.3056483268737793,13.124350547790527,0.21573394536972046
1690467247224844766,,104024,,1690467247,224745814,"""world""",,,3.305572748184204,13.123687744140625,0.21565482020378113
1690467247235146262,,104025,,1690467247,234798752,"""world""",,,3.3054986000061035,13.122903823852539,0.21551354229450226
1690467247244848620,,104026,,1690467247,244728874,"""world""",,,3.3052902221679688,13.122040748596191,0.21561698615550995
1690467247254779516,,104027,,1690467247,254709315,"""world""",,,3.305387496948242,13.121491432189941,0.21553775668144226
1690467247264806206,,104028,,1690467247,264723378,"""world""",,,3.3054049015045166,13.120722770690918,0.2154064178466797
1690467247274845648,,104029,,1690467247,274742895,"""world""",,,3.305274486541748,13.119948387145996,0.2154472917318344
1690467247284817082,,104030,,1690467247,284728073,"""world""",,,3.3054022789001465,13.119047164916992,0.21546292304992676
1690467247294856116,,104031,,1690467247,294756567,"""world""",,,3.305493116378784,13.118156433105469,0.2153255194425583
1690467247304899345,,104032,,1690467247,304785867,"""world""",,,3.3057384490966797,13.117253303527832,0.2152123749256134
1690467247314817965,,104033,,1690467247,314724883,"""world""",,,3.3059310913085938,13.116310119628906,0.21536177396774292
1690467247324854778,,104034,,1690467247,324754269,"""world""",,,3.3061487674713135,13.115285873413086,0.21504437923431396
1690467247334848097,,104035,,1690467247,334745449,"""world""",,,3.306260824203491,13.114185333251953,0.21498213708400726
1690467247344811282,,104036,,1690467247,344727826,"""world""",,,3.3065013885498047,13.113218307495117,0.21497632563114166
1690467247354827581,,104037,,1690467247,354717494,"""world""",,,3.3067104816436768,13.111886024475098,0.21504449844360352
1690467247364851913,,104038,,1690467247,364731015,"""world""",,,3.3071892261505127,13.110974311828613,0.2151070088148117
1690467247374825081,,104039,,1690467247,374731675,"""world""",,,3.307673454284668,13.109776496887207,0.2151246964931488
1690467247384805983,,104040,,1690467247,384726828,"""world""",,,3.3080615997314453,13.10854721069336,0.21519362926483154
1690467247394825018,,104041,,1690467247,394729640,"""world""",,,3.3085408210754395,13.107303619384766,0.2152782678604126
1690467247404849334,,104042,,1690467247,404738568,"""world""",,,3.308894634246826,13.106161117553711,0.2154839187860489
1690467247414812895,,104043,,1690467247,414723448,"""world""",,,3.309232234954834,13.105025291442871,0.21593008935451508
1690467247424891163,,104044,,1690467247,424746625,"""world""",,,3.3098065853118896,13.103787422180176,0.21624167263507843
1690467247434848835,,104045,,1690467247,434741382,"""world""",,,3.3103861808776855,13.102498054504395,0.21642334759235382
1690467247444810881,,104046,,1690467247,444728007,"""world""",,,3.3107190132141113,13.101305961608887,0.21703258156776428
1690467247454807025,,104047,,1690467247,454722322,"""world""",,,3.311159372329712,13.100022315979004,0.21736180782318115
1690467247464809131,,104048,,1690467247,464726500,"""world""",,,3.3116886615753174,13.098638534545898,0.21807943284511566
1690467247474815060,,104049,,1690467247,474728635,"""world""",,,3.312699317932129,13.09713363647461,0.2183736264705658
1690467247484811595,,104050,,1690467247,484727681,"""world""",,,3.3131625652313232,13.095759391784668,0.21901388466358185
1690467247494834169,,104051,,1690467247,494731201,"""world""",,,3.3138527870178223,13.09444522857666,0.21974794566631317
1690467247504852911,,104052,,1690467247,504738826,"""world""",,,3.31459379196167,13.093018531799316,0.22032439708709717
1690467247514821496,,104053,,1690467247,514731835,"""world""",,,3.315352439880371,13.091453552246094,0.22114774584770203
1690467247524871932,,104054,,1690467247,524734219,"""world""",,,3.316035032272339,13.090144157409668,0.2220337837934494
1690467247534944125,,104055,,1690467247,534746639,"""world""",,,3.3167178630828857,13.08873176574707,0.22285811603069305
1690467247544873732,,104056,,1690467247,544733313,"""world""",,,3.3174095153808594,13.08719539642334,0.22385475039482117
1690467247554835576,,104057,,1690467247,554738179,"""world""",,,3.318248987197876,13.085776329040527,0.22484591603279114
1690467247564826376,,104058,,1690467247,564733220,"""world""",,,3.318981170654297,13.084346771240234,0.22589226067066193
1690467247574903547,,104059,,1690467247,574758477,"""world""",,,3.3197617530822754,13.082948684692383,0.2269938886165619
1690467247584817283,,104060,,1690467247,584728976,"""world""",,,3.32059645652771,13.081472396850586,0.22809277474880219
1690467247594858695,,104061,,1690467247,594756926,"""world""",,,3.321410655975342,13.08001708984375,0.2293458878993988
1690467247604910633,,104062,,1690467247,604761748,"""world""",,,3.3223464488983154,13.078696250915527,0.23047715425491333
1690467247614839943,,104063,,1690467247,614729037,"""world""",,,3.3228707313537598,13.077146530151367,0.2317611128091812
1690467247624818314,,104064,,1690467247,624728400,"""world""",,,3.32412052154541,13.07571792602539,0.23304566740989685
1690467247634849480,,104065,,1690467247,634730006,"""world""",,,3.325007438659668,13.074360847473145,0.23437584936618805
1690467247644816602,,104066,,1690467247,644729625,"""world""",,,3.3256993293762207,13.072966575622559,0.23575419187545776
1690467247654809914,,104067,,1690467247,654712218,"""world""",,,3.326685667037964,13.071510314941406,0.23713603615760803
1690467247664796369,,104068,,1690467247,664721214,"""world""",,,3.3276264667510986,13.070067405700684,0.23850414156913757
1690467247674814890,,104069,,1690467247,674733884,"""world""",,,3.3283421993255615,13.068718910217285,0.24026957154273987
1690467247684805028,,104070,,1690467247,684728039,"""world""",,,3.3293588161468506,13.06737995147705,0.24180968105793
1690467247694805016,,104071,,1690467247,694726340,"""world""",,,3.3303604125976562,13.065934181213379,0.24355730414390564
1690467247704867456,,104072,,1690467247,704762497,"""world""",,,3.3311984539031982,13.064688682556152,0.2453632652759552
1690467247714850592,,104073,,1690467247,714727961,"""world""",,,3.3319787979125977,13.063370704650879,0.24727383255958557
1690467247724843544,,104074,,1690467247,724729144,"""world""",,,3.333073139190674,13.062057495117188,0.24895212054252625
1690467247734849206,,104075,,1690467247,734747952,"""world""",,,3.3339295387268066,13.06069564819336,0.25083550810813904
1690467247744849679,,104076,,1690467247,744728033,"""world""",,,3.33441424369812,13.05936050415039,0.2529730796813965
1690467247754816755,,104077,,1690467247,754713975,"""world""",,,3.335576295852661,13.058384895324707,0.254885196685791
1690467247764835436,,104078,,1690467247,764729792,"""world""",,,3.3364336490631104,13.057109832763672,0.25690287351608276
1690467247774870390,,104079,,1690467247,774731204,"""world""",,,3.3372902870178223,13.055851936340332,0.25881293416023254
1690467247784843821,,104080,,1690467247,784726817,"""world""",,,3.337857723236084,13.054705619812012,0.26094257831573486
1690467247794848523,,104081,,1690467247,794730751,"""world""",,,3.3384621143341064,13.053581237792969,0.2630707621574402
1690467247804845287,,104082,,1690467247,804743222,"""world""",,,3.339351177215576,13.052206993103027,0.265165776014328
1690467247814829933,,104083,,1690467247,814715964,"""world""",,,3.3400917053222656,13.051254272460938,0.26721256971359253
1690467247824845971,,104084,,1690467247,824745982,"""world""",,,3.3407015800476074,13.050125122070312,0.26945820450782776
1690467247834845918,,104085,,1690467247,834731251,"""world""",,,3.341595411300659,13.049138069152832,0.271485298871994
1690467247844843861,,104086,,1690467247,844727083,"""world""",,,3.3422434329986572,13.048123359680176,0.2735751271247864
1690467247854809052,,104087,,1690467247,854719028,"""world""",,,3.342883586883545,13.047051429748535,0.275895893573761
1690467247864861414,,104088,,1690467247,864732583,"""world""",,,3.343569278717041,13.04605770111084,0.27814972400665283
1690467247874863102,,104089,,1690467247,874741395,"""world""",,,3.3442373275756836,13.045220375061035,0.28027623891830444
1690467247884838882,,104090,,1690467247,884728591,"""world""",,,3.3450663089752197,13.044279098510742,0.2825663983821869
1690467247894847950,,104091,,1690467247,894729779,"""world""",,,3.3457655906677246,13.04331111907959,0.28486061096191406
1690467247904878605,,104092,,1690467247,904745850,"""world""",,,3.346381664276123,13.042346954345703,0.2871088981628418
1690467247914838868,,104093,,1690467247,914727050,"""world""",,,3.3469207286834717,13.041727066040039,0.28951114416122437
1690467247924864344,,104094,,1690467247,924732541,"""world""",,,3.3474199771881104,13.04079532623291,0.29201582074165344
1690467247934867772,,104095,,1690467247,934730179,"""world""",,,3.3481149673461914,13.040029525756836,0.29423072934150696
1690467247944868135,,104096,,1690467247,944746784,"""world""",,,3.3485896587371826,13.039193153381348,0.2965700924396515
1690467247954805162,,104097,,1690467247,954726613,"""world""",,,3.3492188453674316,13.0384521484375,0.2989276051521301
1690467247964816934,,104098,,1690467247,964730709,"""world""",,,3.3495378494262695,13.037689208984375,0.3014352023601532
1690467247974819952,,104099,,1690467247,974732810,"""world""",,,3.350003480911255,13.037042617797852,0.30377188324928284
1690467247984817756,,104100,,1690467247,984733782,"""world""",,,3.3504605293273926,13.03626537322998,0.3062170743942261
1690467247994821466,,104101,,1690467247,994730779,"""world""",,,3.3510844707489014,13.035892486572266,0.30855995416641235
1690467248004872936,,104102,,1690467248,4747722,"""world""",,,3.3516273498535156,13.035097122192383,0.31099021434783936
1690467248014865876,,104103,,1690467248,14742832,"""world""",,,3.352142333984375,13.034728050231934,0.3132965564727783
1690467248024825977,,104104,,1690467248,24736058,"""world""",,,3.3525876998901367,13.034133911132812,0.31570640206336975
1690467248034819020,,104105,,1690467248,34729546,"""world""",,,3.353147506713867,13.03371524810791,0.318186491727829
1690467248044847418,,104106,,1690467248,44745256,"""world""",,,3.353517532348633,13.033013343811035,0.32063978910446167
1690467248054819212,,104107,,1690467248,54747687,"""world""",,,3.353841543197632,13.032793998718262,0.323015958070755
1690467248064828336,,104108,,1690467248,64750278,"""world""",,,3.3543248176574707,13.032286643981934,0.32553765177726746
1690467248075000051,,104109,,1690467248,74820195,"""world""",,,3.3547511100769043,13.031888008117676,0.3278813362121582
1690467248084819709,,104110,,1690467248,84731224,"""world""",,,3.3551621437072754,13.031465530395508,0.3304491341114044
1690467248094884716,,104111,,1690467248,94729916,"""world""",,,3.355618476867676,13.03117847442627,0.3329211175441742
1690467248104847812,,104112,,1690467248,104749166,"""world""",,,3.3560991287231445,13.030861854553223,0.3354836702346802
1690467248114836973,,104113,,1690467248,114735761,"""world""",,,3.3564324378967285,13.030614852905273,0.3378494679927826
1690467248124805622,,104114,,1690467248,124733259,"""world""",,,3.3566336631774902,13.030441284179688,0.3406597077846527
1690467248134806760,,104115,,1690467248,134732834,"""world""",,,3.3571720123291016,13.030231475830078,0.34308481216430664
1690467248144900152,,104116,,1690467248,144757635,"""world""",,,3.3574039936065674,13.030016899108887,0.3456445038318634
1690467248154829966,,104117,,1690467248,154755784,"""world""",,,3.3578450679779053,13.029867172241211,0.3483264744281769
1690467248164860872,,104118,,1690467248,164746463,"""world""",,,3.358177661895752,13.029775619506836,0.3509475588798523
1690467248174915883,,104119,,1690467248,174783864,"""world""",,,3.3584861755371094,13.029650688171387,0.35350775718688965
1690467248184846639,,104120,,1690467248,184770206,"""world""",,,3.3588204383850098,13.02954387664795,0.3563086986541748
1690467248194805882,,104121,,1690467248,194727213,"""world""",,,3.3589963912963867,13.029524803161621,0.3589113652706146
1690467248204843545,,104122,,1690467248,204750896,"""world""",,,3.3594303131103516,13.029523849487305,0.36156126856803894
1690467248214800280,,104123,,1690467248,214727264,"""world""",,,3.359477996826172,13.029440879821777,0.3643645644187927
1690467248224827381,,104124,,1690467248,224738270,"""world""",,,3.35994029045105,13.029520034790039,0.36707282066345215
1690467248234823480,,104125,,1690467248,234737035,"""world""",,,3.360210657119751,13.029561996459961,0.3697814345359802
1690467248244810067,,104126,,1690467248,244729604,"""world""",,,3.3604557514190674,13.029630661010742,0.3724759519100189
1690467248254798822,,104127,,1690467248,254715671,"""world""",,,3.3607382774353027,13.029757499694824,0.37532714009284973
1690467248264852799,,104128,,1690467248,264745443,"""world""",,,3.3608884811401367,13.029876708984375,0.3780653476715088
1690467248274960960,,104129,,1690467248,274779680,"""world""",,,3.361241340637207,13.030180931091309,0.3809053599834442
1690467248284822356,,104130,,1690467248,284731109,"""world""",,,3.361295461654663,13.030291557312012,0.383683443069458
1690467248294865178,,104131,,1690467248,294741874,"""world""",,,3.3615427017211914,13.030597686767578,0.3865443468093872
1690467248304880532,,104132,,1690467248,304743709,"""world""",,,3.3618013858795166,13.030850410461426,0.38950151205062866
1690467248314902206,,104133,,1690467248,314731533,"""world""",,,3.3620846271514893,13.031195640563965,0.3923181891441345
1690467248324876527,,104134,,1690467248,324752092,"""world""",,,3.3621108531951904,13.03140640258789,0.3952272832393646
1690467248334803869,,104135,,1690467248,334730730,"""world""",,,3.3623056411743164,13.0317964553833,0.39817965030670166
1690467248344819202,,104136,,1690467248,344728435,"""world""",,,3.3626372814178467,13.032147407531738,0.4013793468475342
1690467248354804916,,104137,,1690467248,354718406,"""world""",,,3.3626954555511475,13.032549858093262,0.4041743576526642
1690467248364815774,,104138,,1690467248,364726258,"""world""",,,3.3629512786865234,13.032975196838379,0.40712496638298035
1690467248374825663,,104139,,1690467248,374735907,"""world""",,,3.363009214401245,13.033443450927734,0.4101961851119995
1690467248384827514,,104140,,1690467248,384733050,"""world""",,,3.3633358478546143,13.033852577209473,0.41332483291625977
1690467248394824817,,104141,,1690467248,394730679,"""world""",,,3.36340594291687,13.034337997436523,0.41646087169647217
1690467248404840679,,104142,,1690467248,404735338,"""world""",,,3.3636457920074463,13.034759521484375,0.4195142686367035
1690467248414842277,,104143,,1690467248,414752495,"""world""",,,3.3636460304260254,13.035322189331055,0.4227219521999359
1690467248424824330,,104144,,1690467248,424737861,"""world""",,,3.363863468170166,13.035926818847656,0.42600691318511963
1690467248434807113,,104145,,1690467248,434730483,"""world""",,,3.3637819290161133,13.036324501037598,0.42924603819847107
1690467248444821000,,104146,,1690467248,444731565,"""world""",,,3.364046573638916,13.036944389343262,0.4324953556060791
1690467248454797724,,104147,,1690467248,454722270,"""world""",,,3.364104747772217,13.037384033203125,0.435840904712677
1690467248464835931,,104148,,1690467248,464727123,"""world""",,,3.3642354011535645,13.037946701049805,0.43918341398239136
1690467248474905051,,104149,,1690467248,474737513,"""world""",,,3.3643362522125244,13.03857135772705,0.44244542717933655
1690467248484821204,,104150,,1690467248,484730592,"""world""",,,3.3643863201141357,13.039143562316895,0.44599559903144836
1690467248494848073,,104151,,1690467248,494726958,"""world""",,,3.3644254207611084,13.039793014526367,0.4495438039302826
1690467248504885758,,104152,,1690467248,504741968,"""world""",,,3.3646974563598633,13.04036808013916,0.4529557228088379
1690467248514859653,,104153,,1690467248,514735490,"""world""",,,3.3647067546844482,13.04092025756836,0.45631691813468933
1690467248524848527,,104154,,1690467248,524748639,"""world""",,,3.3648338317871094,13.041579246520996,0.45990806818008423
1690467248534850035,,104155,,1690467248,534734422,"""world""",,,3.3649075031280518,13.042169570922852,0.4635098874568939
1690467248544829459,,104156,,1690467248,544739406,"""world""",,,3.36490535736084,13.042831420898438,0.4671526253223419
1690467248554810455,,104157,,1690467248,554724527,"""world""",,,3.3651041984558105,13.043445587158203,0.47079065442085266
1690467248564852563,,104158,,1690467248,564740870,"""world""",,,3.3649773597717285,13.044143676757812,0.474540650844574
1690467248575138022,,104159,,1690467248,574842841,"""world""",,,3.3652939796447754,13.044782638549805,0.4783695936203003
1690467248584851976,,104160,,1690467248,584728195,"""world""",,,3.365190029144287,13.045391082763672,0.4818953275680542
1690467248594858134,,104161,,1690467248,594727770,"""world""",,,3.3651695251464844,13.046091079711914,0.48576441407203674
1690467248604857060,,104162,,1690467248,604734804,"""world""",,,3.3651247024536133,13.046799659729004,0.4897093176841736
1690467248614818573,,104163,,1690467248,614726722,"""world""",,,3.365152359008789,13.047527313232422,0.49349507689476013
1690467248624889757,,104164,,1690467248,624779188,"""world""",,,3.365198850631714,13.048320770263672,0.4973469078540802
1690467248634973226,,104165,,1690467248,634775689,"""world""",,,3.365157127380371,13.049016952514648,0.5013347864151001
1690467248644834611,,104166,,1690467248,644731805,"""world""",,,3.36503005027771,13.049644470214844,0.5051703453063965
1690467248654807107,,104167,,1690467248,654722647,"""world""",,,3.3651413917541504,13.050384521484375,0.5091652870178223
1690467248664828548,,104168,,1690467248,664727626,"""world""",,,3.3650624752044678,13.051137924194336,0.5132008790969849
1690467248674907228,,104169,,1690467248,674786024,"""world""",,,3.365004539489746,13.051925659179688,0.5173275470733643
1690467248684806033,,104170,,1690467248,684728217,"""world""",,,3.364931583404541,13.052645683288574,0.5212304592132568
1690467248694855372,,104171,,1690467248,694734367,"""world""",,,3.3648681640625,13.053314208984375,0.5252150297164917
1690467248704941928,,104172,,1690467248,704771809,"""world""",,,3.3648033142089844,13.053943634033203,0.5292388796806335
1690467248714811974,,104173,,1690467248,714730583,"""world""",,,3.3646950721740723,13.05481243133545,0.5333816409111023
1690467248724820887,,104174,,1690467248,724731302,"""world""",,,3.3646047115325928,13.05555534362793,0.5375304818153381
1690467248734840748,,104175,,1690467248,734742114,"""world""",,,3.3646433353424072,13.056206703186035,0.5416850447654724
1690467248744852648,,104176,,1690467248,744761528,"""world""",,,3.364377975463867,13.056937217712402,0.5457311272621155
1690467248754805679,,104177,,1690467248,754717397,"""world""",,,3.364300012588501,13.05771541595459,0.5500460267066956
1690467248764822675,,104178,,1690467248,764736495,"""world""",,,3.3642830848693848,13.058478355407715,0.5541920065879822
1690467248774832057,,104179,,1690467248,774741382,"""world""",,,3.3640804290771484,13.059185028076172,0.558301568031311
1690467248784810668,,104180,,1690467248,784730886,"""world""",,,3.3640708923339844,13.060030937194824,0.5625792741775513
1690467248794867638,,104181,,1690467248,794733711,"""world""",,,3.3638880252838135,13.060619354248047,0.5668230056762695
1690467248804837032,,104182,,1690467248,804739676,"""world""",,,3.363776922225952,13.06130313873291,0.571164071559906
1690467248814808404,,104183,,1690467248,814727176,"""world""",,,3.3635735511779785,13.062027931213379,0.5754597187042236
1690467248824843702,,104184,,1690467248,824747425,"""world""",,,3.363591194152832,13.062682151794434,0.5796733498573303
1690467248834809291,,104185,,1690467248,834734510,"""world""",,,3.3633687496185303,13.063416481018066,0.5841047167778015
1690467248844821252,,104186,,1690467248,844731631,"""world""",,,3.363135576248169,13.064066886901855,0.5884544253349304
1690467248854820571,,104187,,1690467248,854721497,"""world""",,,3.362589120864868,13.064726829528809,0.5925958156585693
1690467248864816849,,104188,,1690467248,864731926,"""world""",,,3.3626906871795654,13.06547737121582,0.597275972366333
1690467248874982287,,104189,,1690467248,874794528,"""world""",,,3.362607002258301,13.066081047058105,0.6016247272491455
1690467248884825748,,104190,,1690467248,884734965,"""world""",,,3.36230731010437,13.066685676574707,0.6061501502990723
1690467248894863091,,104191,,1690467248,894729468,"""world""",,,3.362203598022461,13.067473411560059,0.6106200218200684
1690467248904839384,,104192,,1690467248,904729075,"""world""",,,3.3616788387298584,13.06812572479248,0.6151792407035828
1690467248914808497,,104193,,1690467248,914727492,"""world""",,,3.3617472648620605,13.068822860717773,0.6197843551635742
1690467248924863916,,104194,,1690467248,924742564,"""world""",,,3.361609697341919,13.069433212280273,0.6244509220123291
1690467248934813980,,104195,,1690467248,934727782,"""world""",,,3.3614134788513184,13.070076942443848,0.6290687322616577
1690467248944822823,,104196,,1690467248,944732565,"""world""",,,3.361314296722412,13.070756912231445,0.6335763931274414
1690467248954804024,,104197,,1690467248,954720591,"""world""",,,3.360988140106201,13.071418762207031,0.638186514377594
1690467248964823632,,104198,,1690467248,964732532,"""world""",,,3.3605918884277344,13.072163581848145,0.6430069804191589
1690467248974969109,,104199,,1690467248,974797191,"""world""",,,3.3605284690856934,13.072709083557129,0.647667646408081
1690467248984816839,,104200,,1690467248,984727290,"""world""",,,3.3602523803710938,13.073275566101074,0.6521758437156677
1690467248994893728,,104201,,1690467248,994727542,"""world""",,,3.359900712966919,13.073851585388184,0.6569296717643738
1690467249004863659,,104202,,1690467249,4733968,"""world""",,,3.359583616256714,13.074419021606445,0.6617064476013184
1690467249014815910,,104203,,1690467249,14731436,"""world""",,,3.3594205379486084,13.07502555847168,0.6663297414779663
1690467249024814278,,104204,,1690467249,24731507,"""world""",,,3.3591878414154053,13.07553768157959,0.6710922122001648
1690467249034846289,,104205,,1690467249,34732438,"""world""",,,3.3589816093444824,13.076300621032715,0.6759246587753296
1690467249164878395,,104206,,1690467249,164733502,"""world""",,,3.358703851699829,13.076958656311035,0.6806970834732056
1690467249164885322,,104216,,1690467249,164780121,"""world""",,,3.356085777282715,13.082481384277344,0.7298262715339661
1690467249164893373,,104217,,1690467249,164800797,"""world""",,,3.3557772636413574,13.082988739013672,0.7349839806556702
1690467249164899673,,104218,,1690467249,164807007,"""world""",,,3.355511426925659,13.083440780639648,0.740081787109375
1690467249174866141,,104219,,1690467249,174730354,"""world""",,,3.3553013801574707,13.083934783935547,0.745185375213623
1690467249184813365,,104220,,1690467249,184731281,"""world""",,,3.3550405502319336,13.08438777923584,0.7503219842910767
1690467249224872987,,104221,,1690467249,224770872,"""world""",,,3.35469126701355,13.08486270904541,0.7554555535316467
1690467249224877638,,104222,,1690467249,224786971,"""world""",,,3.3545148372650146,13.085390090942383,0.7607161402702332
1690467249224880729,,104223,,1690467249,224805203,"""world""",,,3.354184150695801,13.085930824279785,0.7659675478935242
1690467249224894006,,104224,,1690467249,224811139,"""world""",,,3.353980541229248,13.086467742919922,0.7711400985717773
1690467249234827265,,104225,,1690467249,234737486,"""world""",,,3.3536972999572754,13.086930274963379,0.7764598727226257
1690467249324875471,,104226,,1690467249,324754699,"""world""",,,3.3534886837005615,13.087413787841797,0.7816277742385864
1690467249324885478,,104227,,1690467249,324769643,"""world""",,,3.3532962799072266,13.087857246398926,0.7868143320083618
1690467249324893560,,104228,,1690467249,324788892,"""world""",,,3.3527991771698,13.088297843933105,0.7921437621116638
1690467249324900646,,104234,,1690467249,324813628,"""world""",,,3.350900888442993,13.090807914733887,0.8232493996620178
1690467249334886562,,104235,,1690467249,334739896,"""world""",,,3.3506288528442383,13.091235160827637,0.828352689743042
1690467249344887624,,104236,,1690467249,344751371,"""world""",,,3.350482702255249,13.09157657623291,0.8331164121627808
1690467249405863881,,104237,,1690467249,404763738,"""world""",,,3.350219249725342,13.092005729675293,0.8381092548370361
1690467249405870498,,104238,,1690467249,404778289,"""world""",,,3.349976062774658,13.092486381530762,0.8429294228553772
