rosbagTimestamp,header,seq,stamp,secs,nsecs,frame_id,pose,position,x,y,z
1690467862964829672,,165104,,1690467862,964722366,"""world""",,,3.332099437713623,13.178238868713379,0.2005990594625473
1690467862974887029,,165105,,1690467862,974746417,"""world""",,,3.3321897983551025,13.178425788879395,0.20065006613731384
1690467862984814675,,165106,,1690467862,984725982,"""world""",,,3.3322103023529053,13.17841625213623,0.2006712406873703
1690467862994850345,,165107,,1690467862,994726292,"""world""",,,3.332237482070923,13.178462028503418,0.20061567425727844
1690467863004835265,,165108,,1690467863,4726363,"""world""",,,3.332183599472046,13.178409576416016,0.20067277550697327
1690467863014874049,,165109,,1690467863,14728907,"""world""",,,3.3321943283081055,13.178413391113281,0.20066258311271667
1690467863024833709,,165110,,1690467863,24735073,"""world""",,,3.3322043418884277,13.178401947021484,0.20065787434577942
1690467863034844819,,165111,,1690467863,34734506,"""world""",,,3.3321971893310547,13.17839527130127,0.2006661295890808
1690467863044883308,,165112,,1690467863,44740850,"""world""",,,3.3321969509124756,13.178400993347168,0.20068271458148956
1690467863054820137,,165113,,1690467863,54728133,"""world""",,,3.3322083950042725,13.178400039672852,0.2006511688232422
1690467863064832240,,165114,,1690467863,64727300,"""world""",,,3.3321893215179443,13.178391456604004,0.2006707787513733
1690467863074832740,,165115,,1690467863,74735177,"""world""",,,3.3322081565856934,13.17838191986084,0.20066004991531372
1690467863084811131,,165116,,1690467863,84724866,"""world""",,,3.332200527191162,13.178399085998535,0.20064778625965118
1690467863094844968,,165117,,1690467863,94729467,"""world""",,,3.332216739654541,13.17838191986084,0.20069079101085663
1690467863104775839,,165118,,1690467863,104714313,"""world""",,,3.3322155475616455,13.178411483764648,0.20067079365253448
1690467863114825995,,165119,,1690467863,114725294,"""world""",,,3.3322129249572754,13.178422927856445,0.20064936578273773
1690467863124882445,,165120,,1690467863,124744425,"""world""",,,3.332211971282959,13.178411483764648,0.20066207647323608
1690467863134811530,,165121,,1690467863,134726683,"""world""",,,3.332202196121216,13.178441047668457,0.2006654143333435
1690467863144830175,,165122,,1690467863,144732279,"""world""",,,3.3322043418884277,13.178424835205078,0.20067228376865387
1690467863154847374,,165123,,1690467863,154741656,"""world""",,,3.3321852684020996,13.178407669067383,0.20067794620990753
1690467863164801210,,165124,,1690467863,164727129,"""world""",,,3.332160234451294,13.178409576416016,0.20067474246025085
1690467863174822738,,165125,,1690467863,174729069,"""world""",,,3.3322081565856934,13.178399085998535,0.20066136121749878
1690467863184814302,,165126,,1690467863,184725353,"""world""",,,3.3321914672851562,13.178386688232422,0.20067404210567474
1690467863194839109,,165127,,1690467863,194730014,"""world""",,,3.3321919441223145,13.178378105163574,0.20066960155963898
1690467863204800520,,165128,,1690467863,204720138,"""world""",,,3.332230806350708,13.178400039672852,0.20063823461532593
1690467863214809578,,165129,,1690467863,214724852,"""world""",,,3.332210063934326,13.178372383117676,0.20067158341407776
1690467863224844634,,165130,,1690467863,224763565,"""world""",,,3.3321950435638428,13.17837142944336,0.2006687968969345
1690467863234803979,,165131,,1690467863,234726658,"""world""",,,3.3322019577026367,13.178345680236816,0.20069676637649536
1690467863244827395,,165132,,1690467863,244734144,"""world""",,,3.3322017192840576,13.178407669067383,0.20067673921585083
1690467863254861711,,165133,,1690467863,254749713,"""world""",,,3.3321990966796875,13.17841625213623,0.20065882802009583
1690467863264828292,,165134,,1690467863,264729799,"""world""",,,3.3322317600250244,13.178373336791992,0.20064881443977356
1690467863274858987,,165135,,1690467863,274732219,"""world""",,,3.33219575881958,13.178420066833496,0.20066708326339722
1690467863284828555,,165136,,1690467863,284736750,"""world""",,,3.3323068618774414,13.178406715393066,0.20058895647525787
1690467863294842933,,165137,,1690467863,294758266,"""world""",,,3.3322222232818604,13.178421020507812,0.20073707401752472
1690467863304820862,,165138,,1690467863,304749552,"""world""",,,3.332183837890625,13.178398132324219,0.20065495371818542
1690467863314899410,,165139,,1690467863,314760126,"""world""",,,3.3322112560272217,13.17839241027832,0.20067209005355835
1690467863324885167,,165140,,1690467863,324764282,"""world""",,,3.332211494445801,13.178362846374512,0.20068345963954926
1690467863334829340,,165141,,1690467863,334754118,"""world""",,,3.3321921825408936,13.178346633911133,0.20068499445915222
1690467863344869756,,165142,,1690467863,344754298,"""world""",,,3.3321919441223145,13.17828369140625,0.2007177323102951
1690467863354863569,,165143,,1690467863,354773001,"""world""",,,3.3322529792785645,13.178325653076172,0.20069532096385956
1690467863364864488,,165144,,1690467863,364786054,"""world""",,,3.3322203159332275,13.178325653076172,0.20068855583667755
1690467863374899098,,165145,,1690467863,374763088,"""world""",,,3.332045555114746,13.178335189819336,0.2008267045021057
1690467863384837589,,165146,,1690467863,384737908,"""world""",,,3.332198143005371,13.178342819213867,0.2007058560848236
1690467863394875484,,165147,,1690467863,394762379,"""world""",,,3.332216262817383,13.178372383117676,0.20065344870090485
1690467863404840718,,165148,,1690467863,404728185,"""world""",,,3.3321924209594727,13.178346633911133,0.20072318613529205
1690467863414878521,,165149,,1690467863,414749674,"""world""",,,3.332195997238159,13.178335189819336,0.2006954699754715
1690467863424814005,,165150,,1690467863,424728728,"""world""",,,3.332162380218506,13.17827320098877,0.20070452988147736
1690467863434837895,,165151,,1690467863,434727312,"""world""",,,3.3322136402130127,13.178302764892578,0.2007065862417221
1690467863444850700,,165152,,1690467863,444736845,"""world""",,,3.332253932952881,13.178264617919922,0.20072190463542938
1690467863454821055,,165153,,1690467863,454731007,"""world""",,,3.332242727279663,13.178317070007324,0.2007964700460434
1690467863464824096,,165154,,1690467863,464729479,"""world""",,,3.332209587097168,13.178303718566895,0.20070388913154602
1690467863474824123,,165155,,1690467863,474732338,"""world""",,,3.332253932952881,13.178328514099121,0.20067036151885986
1690467863484841954,,165156,,1690467863,484736179,"""world""",,,3.3322010040283203,13.178372383117676,0.20069736242294312
1690467863494837596,,165157,,1690467863,494728111,"""world""",,,3.332212209701538,13.178377151489258,0.20071345567703247
1690467863504828329,,165158,,1690467863,504724810,"""world""",,,3.331963062286377,13.178413391113281,0.20082587003707886
1690467863514837918,,165159,,1690467863,514737027,"""world""",,,3.3321990966796875,13.1784086227417,0.20069195330142975
1690467863524890129,,165160,,1690467863,524768122,"""world""",,,3.332240343093872,13.178370475769043,0.2006877362728119
1690467863535041073,,165161,,1690467863,534760460,"""world""",,,3.3321900367736816,13.17834186553955,0.20070461928844452
1690467863544906516,,165162,,1690467863,544744787,"""world""",,,3.332270860671997,13.178263664245605,0.20065894722938538
1690467863554879991,,165163,,1690467863,554764962,"""world""",,,3.331979751586914,13.178340911865234,0.2008388340473175
1690467863564851764,,165164,,1690467863,564764643,"""world""",,,3.3322391510009766,13.178313255310059,0.2006864994764328
1690467863574826304,,165165,,1690467863,574730955,"""world""",,,3.3322200775146484,13.178315162658691,0.20065924525260925
1690467863584866201,,165166,,1690467863,584759337,"""world""",,,3.3322527408599854,13.178308486938477,0.2006949633359909
1690467863594835433,,165167,,1690467863,594730770,"""world""",,,3.3322224617004395,13.178303718566895,0.2007131725549698
1690467863604858338,,165168,,1690467863,604747536,"""world""",,,3.3322222232818604,13.178314208984375,0.20084556937217712
1690467863614839805,,165169,,1690467863,614725719,"""world""",,,3.3322248458862305,13.17831802368164,0.20069581270217896
1690467863624863895,,165170,,1690467863,624736335,"""world""",,,3.3321640491485596,13.178251266479492,0.2006710320711136
1690467863634815580,,165171,,1690467863,634726643,"""world""",,,3.3321919441223145,13.178298950195312,0.20069606602191925
1690467863644829944,,165172,,1690467863,644726042,"""world""",,,3.332411766052246,13.178216934204102,0.20061269402503967
1690467863654898679,,165173,,1690467863,654760731,"""world""",,,3.332242965698242,13.17827320098877,0.2006998062133789
1690467863664815875,,165174,,1690467863,664728348,"""world""",,,3.3322296142578125,13.178263664245605,0.200705423951149
1690467863674813846,,165175,,1690467863,674728423,"""world""",,,3.332314968109131,13.17825984954834,0.200779989361763
1690467863684834625,,165176,,1690467863,684728708,"""world""",,,3.3322224617004395,13.178253173828125,0.2007269710302353
1690467863694813276,,165177,,1690467863,694727943,"""world""",,,3.3322231769561768,13.178245544433594,0.20070511102676392
1690467863704775614,,165178,,1690467863,704711383,"""world""",,,3.332305431365967,13.178132057189941,0.20066939294338226
1690467863714807920,,165179,,1690467863,714723365,"""world""",,,3.332254409790039,13.178201675415039,0.20073463022708893
1690467863724845465,,165180,,1690467863,724739764,"""world""",,,3.3322553634643555,13.178253173828125,0.20084211230278015
1690467863734841966,,165181,,1690467863,734722275,"""world""",,,3.3323402404785156,13.178142547607422,0.20067544281482697
1690467863744911260,,165182,,1690467863,744729926,"""world""",,,3.3322999477386475,13.178078651428223,0.2006763070821762
1690467863754940889,,165183,,1690467863,754771238,"""world""",,,3.332216739654541,13.17824935913086,0.20071662962436676
1690467863764856259,,165184,,1690467863,764733413,"""world""",,,3.332270622253418,13.178255081176758,0.20067791640758514
1690467863774817561,,165185,,1690467863,774729413,"""world""",,,3.3322174549102783,13.178229331970215,0.20074567198753357
1690467863784824767,,165186,,1690467863,784726089,"""world""",,,3.3322436809539795,13.178252220153809,0.20071542263031006
1690467863794818444,,165187,,1690467863,794726753,"""world""",,,3.332279682159424,13.178236961364746,0.20083294808864594
1690467863804776780,,165188,,1690467863,804713962,"""world""",,,3.332357168197632,13.178136825561523,0.20066063106060028
1690467863814803707,,165189,,1690467863,814723972,"""world""",,,3.332174301147461,13.178175926208496,0.20073412358760834
1690467863824833382,,165190,,1690467863,824735194,"""world""",,,3.332216262817383,13.17823314666748,0.20071415603160858
1690467863834799244,,165191,,1690467863,834724100,"""world""",,,3.3322572708129883,13.178194999694824,0.20071877539157867
1690467863844830624,,165192,,1690467863,844729240,"""world""",,,3.3322505950927734,13.178205490112305,0.2007148265838623
1690467863854835258,,165193,,1690467863,854730319,"""world""",,,3.3324131965637207,13.178135871887207,0.2006206512451172
1690467863864883151,,165194,,1690467863,864734368,"""world""",,,3.332329034805298,13.178130149841309,0.2006838023662567
1690467863874804370,,165195,,1690467863,874727397,"""world""",,,3.3323264122009277,13.178160667419434,0.20068922638893127
1690467863884814818,,165196,,1690467863,884727387,"""world""",,,3.3323371410369873,13.178131103515625,0.20072685182094574
1690467863894856864,,165197,,1690467863,894724657,"""world""",,,3.3322229385375977,13.178152084350586,0.2007250338792801
1690467863904798012,,165198,,1690467863,904719140,"""world""",,,3.3320682048797607,13.178182601928711,0.20085856318473816
1690467863914825965,,165199,,1690467863,914728268,"""world""",,,3.3323092460632324,13.178107261657715,0.20069855451583862
1690467863924841455,,165200,,1690467863,924736307,"""world""",,,3.332369327545166,13.178123474121094,0.20078355073928833
1690467863934854691,,165201,,1690467863,934727984,"""world""",,,3.332336902618408,13.17809009552002,0.20070838928222656
1690467863944855574,,165202,,1690467863,944726478,"""world""",,,3.3321681022644043,13.178099632263184,0.20074133574962616
1690467863954833758,,165203,,1690467863,954733511,"""world""",,,3.332348346710205,13.178056716918945,0.20071707665920258
1690467863964819508,,165204,,1690467863,964726803,"""world""",,,3.332335948944092,13.177987098693848,0.20071379840373993
1690467863974814574,,165205,,1690467863,974726673,"""world""",,,3.3323309421539307,13.178056716918945,0.20071730017662048
1690467863984853602,,165206,,1690467863,984728640,"""world""",,,3.3322935104370117,13.178000450134277,0.200733482837677
1690467863994817337,,165207,,1690467863,994724851,"""world""",,,3.3323745727539062,13.178013801574707,0.20071052014827728
1690467864004801840,,165208,,1690467864,4725001,"""world""",,,3.3322503566741943,13.177940368652344,0.20069748163223267
1690467864014805258,,165209,,1690467864,14724850,"""world""",,,3.3323307037353516,13.178041458129883,0.20071016252040863
1690467864024840449,,165210,,1690467864,24734711,"""world""",,,3.3323678970336914,13.178016662597656,0.20071491599082947
1690467864034847596,,165211,,1690467864,34726550,"""world""",,,3.3323354721069336,13.177986145019531,0.200746551156044
1690467864044829434,,165212,,1690467864,44729217,"""world""",,,3.3322951793670654,13.17802619934082,0.20073577761650085
1690467864054823101,,165213,,1690467864,54731983,"""world""",,,3.3323493003845215,13.178016662597656,0.2007123976945877
1690467864064849036,,165214,,1690467864,64760165,"""world""",,,3.3324038982391357,13.177977561950684,0.20071223378181458
1690467864074813469,,165215,,1690467864,74727196,"""world""",,,3.332207202911377,13.178008079528809,0.20086951553821564
1690467864084874544,,165216,,1690467864,84746058,"""world""",,,3.332446813583374,13.178044319152832,0.20067986845970154
1690467864094846535,,165217,,1690467864,94731037,"""world""",,,3.332369804382324,13.177968978881836,0.20078495144844055
1690467864104800315,,165218,,1690467864,104727102,"""world""",,,3.3324151039123535,13.17790699005127,0.20080026984214783
1690467864114822083,,165219,,1690467864,114733496,"""world""",,,3.332300901412964,13.177793502807617,0.20090824365615845
1690467864124888841,,165220,,1690467864,124735493,"""world""",,,3.3325014114379883,13.177765846252441,0.20084550976753235
1690467864134881330,,165221,,1690467864,134728221,"""world""",,,3.3325181007385254,13.177675247192383,0.20093360543251038
1690467864144826618,,165222,,1690467864,144723309,"""world""",,,3.3325791358947754,13.177610397338867,0.20094648003578186
1690467864154843574,,165223,,1690467864,154731859,"""world""",,,3.3326947689056396,13.177589416503906,0.20097218453884125
1690467864164822470,,165224,,1690467864,164730996,"""world""",,,3.332691192626953,13.1775484085083,0.20098137855529785
1690467864174814554,,165225,,1690467864,174728720,"""world""",,,3.3327395915985107,13.17746639251709,0.20099154114723206
1690467864184861551,,165226,,1690467864,184738301,"""world""",,,3.3327925205230713,13.177468299865723,0.201009601354599
1690467864194857822,,165227,,1690467864,194726454,"""world""",,,3.332944631576538,13.177480697631836,0.20094045996665955
1690467864204810266,,165228,,1690467864,204714411,"""world""",,,3.332834243774414,13.177409172058105,0.20108158886432648
1690467864214810273,,165229,,1690467864,214731303,"""world""",,,3.3327667713165283,13.17733097076416,0.20111413300037384
1690467864224893275,,165230,,1690467864,224738713,"""world""",,,3.332834243774414,13.177298545837402,0.20109021663665771
1690467864234867491,,165231,,1690467864,234721590,"""world""",,,3.3327980041503906,13.177209854125977,0.20114263892173767
1690467864244821747,,165232,,1690467864,244728070,"""world""",,,3.332826614379883,13.17707633972168,0.2011439949274063
1690467864254829255,,165233,,1690467864,254733915,"""world""",,,3.332761287689209,13.176982879638672,0.20130997896194458
1690467864264837161,,165234,,1690467864,264726400,"""world""",,,3.3328797817230225,13.176835060119629,0.201348677277565
1690467864274849501,,165235,,1690467864,274729666,"""world""",,,3.332895517349243,13.176806449890137,0.20142246782779694
1690467864284838438,,165236,,1690467864,284736954,"""world""",,,3.333005905151367,13.176721572875977,0.20149588584899902
1690467864294818239,,165237,,1690467864,294731618,"""world""",,,3.3330471515655518,13.176642417907715,0.20153750479221344
1690467864304845001,,165238,,1690467864,304724380,"""world""",,,3.3331172466278076,13.176573753356934,0.20157162845134735
1690467864314816090,,165239,,1690467864,314726731,"""world""",,,3.3331236839294434,13.176483154296875,0.20156443119049072
1690467864324833673,,165240,,1690467864,324736936,"""world""",,,3.333122491836548,13.176431655883789,0.2015504539012909
1690467864334904396,,165241,,1690467864,334755560,"""world""",,,3.332972764968872,13.176348686218262,0.20165131986141205
1690467864344921614,,165242,,1690467864,344773593,"""world""",,,3.3330471515655518,13.176227569580078,0.20158106088638306
1690467864354821164,,165243,,1690467864,354729382,"""world""",,,3.3331754207611084,13.176308631896973,0.20155823230743408
1690467864364846827,,165244,,1690467864,364734335,"""world""",,,3.3331925868988037,13.176285743713379,0.2016024887561798
1690467864374808279,,165245,,1690467864,374730318,"""world""",,,3.33317494392395,13.176251411437988,0.20162689685821533
1690467864384822020,,165246,,1690467864,384728667,"""world""",,,3.3331856727600098,13.176219940185547,0.20164130628108978
1690467864394847109,,165247,,1690467864,394735279,"""world""",,,3.3331656455993652,13.176166534423828,0.20165205001831055
1690467864404806109,,165248,,1690467864,404724542,"""world""",,,3.3332719802856445,13.176170349121094,0.2017602026462555
1690467864414817223,,165249,,1690467864,414719922,"""world""",,,3.3331685066223145,13.176137924194336,0.20171384513378143
1690467864424849472,,165250,,1690467864,424734187,"""world""",,,3.333036184310913,13.176201820373535,0.20176419615745544
1690467864434816094,,165251,,1690467864,434727408,"""world""",,,3.333132028579712,13.176158905029297,0.20165030658245087
1690467864444831833,,165252,,1690467864,444723481,"""world""",,,3.3331186771392822,13.176197052001953,0.20159843564033508
1690467864454854504,,165253,,1690467864,454725665,"""world""",,,3.333070993423462,13.176243782043457,0.20157183706760406
1690467864464843244,,165254,,1690467864,464726832,"""world""",,,3.333066940307617,13.176297187805176,0.20156726241111755
1690467864474846168,,165255,,1690467864,474734868,"""world""",,,3.333064317703247,13.176374435424805,0.20173554122447968
1690467864484970070,,165256,,1690467864,484746982,"""world""",,,3.333143711090088,13.1763277053833,0.20155102014541626
1690467864494822735,,165257,,1690467864,494728336,"""world""",,,3.333089828491211,13.176323890686035,0.2015375792980194
1690467864504797788,,165258,,1690467864,504719740,"""world""",,,3.33307147026062,13.176260948181152,0.2015775442123413
1690467864514861494,,165259,,1690467864,514764239,"""world""",,,3.3331105709075928,13.17618179321289,0.20159249007701874
1690467864524847074,,165260,,1690467864,524736153,"""world""",,,3.3331139087677,13.1761474609375,0.20161254703998566
1690467864534895824,,165261,,1690467864,534742065,"""world""",,,3.333146810531616,13.176122665405273,0.20164456963539124
1690467864544832750,,165262,,1690467864,544728818,"""world""",,,3.3331658840179443,13.17609691619873,0.20165880024433136
1690467864554862455,,165263,,1690467864,554737794,"""world""",,,3.3332769870758057,13.17611026763916,0.20178648829460144
1690467864564835703,,165264,,1690467864,564748287,"""world""",,,3.3332056999206543,13.176132202148438,0.201751708984375
1690467864574848400,,165265,,1690467864,574737231,"""world""",,,3.333104372024536,13.176215171813965,0.20173519849777222
1690467864584863738,,165266,,1690467864,584731671,"""world""",,,3.333174228668213,13.176129341125488,0.20171678066253662
1690467864594881741,,165267,,1690467864,594777720,"""world""",,,3.3332324028015137,13.17617416381836,0.2016211450099945
1690467864604791726,,165268,,1690467864,604714586,"""world""",,,3.3332009315490723,13.176227569580078,0.20164236426353455
1690467864614867818,,165269,,1690467864,614734476,"""world""",,,3.3331751823425293,13.17624282836914,0.20163275301456451
1690467864624911445,,165270,,1690467864,624758087,"""world""",,,3.333138942718506,13.176233291625977,0.2016323059797287
1690467864634876979,,165271,,1690467864,634727106,"""world""",,,3.333124876022339,13.176215171813965,0.20162969827651978
1690467864644899672,,165272,,1690467864,644732155,"""world""",,,3.3329989910125732,13.1762113571167,0.20170770585536957
1690467864654835418,,165273,,1690467864,654735455,"""world""",,,3.3330845832824707,13.176164627075195,0.20164576172828674
1690467864664856090,,165274,,1690467864,664743150,"""world""",,,3.333076238632202,13.176163673400879,0.20163494348526
1690467864674825309,,165275,,1690467864,674730941,"""world""",,,3.3331398963928223,13.1761474609375,0.20162130892276764
1690467864684998893,,165276,,1690467864,684778939,"""world""",,,3.333150863647461,13.176139831542969,0.20164816081523895
1690467864694839000,,165277,,1690467864,694730300,"""world""",,,3.333190679550171,13.176122665405273,0.20162835717201233
1690467864704797773,,165278,,1690467864,704720361,"""world""",,,3.333179235458374,13.176090240478516,0.20169232785701752
1690467864714819311,,165279,,1690467864,714732829,"""world""",,,3.3332133293151855,13.176066398620605,0.20174908638000488
1690467864724838216,,165280,,1690467864,724733457,"""world""",,,3.3332643508911133,13.176043510437012,0.20172777771949768
1690467864734809296,,165281,,1690467864,734724139,"""world""",,,3.3332934379577637,13.176009178161621,0.20177923142910004
1690467864744868225,,165282,,1690467864,744728837,"""world""",,,3.333345890045166,13.175978660583496,0.20182372629642487
1690467864754886610,,165283,,1690467864,754771415,"""world""",,,3.3332512378692627,13.175884246826172,0.20182520151138306
1690467864764850410,,165284,,1690467864,764756797,"""world""",,,3.3330345153808594,13.176026344299316,0.2021566480398178
1690467864774866742,,165285,,1690467864,774764311,"""world""",,,3.333219051361084,13.175862312316895,0.20185838639736176
1690467864784827158,,165286,,1690467864,784725112,"""world""",,,3.3332507610321045,13.175883293151855,0.2018522024154663
1690467864794850321,,165287,,1690467864,794726396,"""world""",,,3.3332748413085938,13.1758451461792,0.20187771320343018
1690467864804812284,,165288,,1690467864,804725737,"""world""",,,3.3333020210266113,13.175827980041504,0.2019105702638626
1690467864814840464,,165289,,1690467864,814731659,"""world""",,,3.3333258628845215,13.175816535949707,0.20190422236919403
1690467864824840826,,165290,,1690467864,824737105,"""world""",,,3.333343267440796,13.175783157348633,0.20189402997493744
1690467864834806393,,165291,,1690467864,834727614,"""world""",,,3.3333451747894287,13.175721168518066,0.20188532769680023
1690467864844869835,,165292,,1690467864,844752826,"""world""",,,3.3333606719970703,13.175657272338867,0.20192785561084747
1690467864854860520,,165293,,1690467864,854753410,"""world""",,,3.3333911895751953,13.175606727600098,0.20193864405155182
1690467864864827669,,165294,,1690467864,864736418,"""world""",,,3.333380699157715,13.175533294677734,0.2019955813884735
1690467864874825408,,165295,,1690467864,874727762,"""world""",,,3.3333823680877686,13.175453186035156,0.20201510190963745
1690467864884834220,,165296,,1690467864,884728499,"""world""",,,3.333348035812378,13.175434112548828,0.202017143368721
1690467864894837862,,165297,,1690467864,894727121,"""world""",,,3.3334624767303467,13.175409317016602,0.20215235650539398
1690467864904794844,,165298,,1690467864,904716718,"""world""",,,3.3333661556243896,13.175326347351074,0.20214472711086273
1690467864914867327,,165299,,1690467864,914731934,"""world""",,,3.333448886871338,13.17527961730957,0.20238830149173737
1690467864924897702,,165300,,1690467864,924760256,"""world""",,,3.3330116271972656,13.175350189208984,0.2024751454591751
1690467864934834817,,165301,,1690467864,934734761,"""world""",,,3.3332698345184326,13.175275802612305,0.20218148827552795
1690467864944844749,,165302,,1690467864,944731398,"""world""",,,3.3333141803741455,13.175287246704102,0.20213112235069275
1690467864954866415,,165303,,1690467864,954739746,"""world""",,,3.3333590030670166,13.175325393676758,0.2021273970603943
1690467864964824794,,165304,,1690467864,964728445,"""world""",,,3.333400249481201,13.175339698791504,0.2021430879831314
1690467864974851008,,165305,,1690467864,974758236,"""world""",,,3.333301544189453,13.17533016204834,0.20231235027313232
1690467864984856468,,165306,,1690467864,984728159,"""world""",,,3.3333749771118164,13.175312995910645,0.20218564569950104
1690467864994834956,,165307,,1690467864,994729201,"""world""",,,3.3333072662353516,13.17530345916748,0.20222194492816925
1690467865004788105,,165308,,1690467865,4714761,"""world""",,,3.333393096923828,13.175232887268066,0.2021740972995758
1690467865014857906,,165309,,1690467865,14733525,"""world""",,,3.3333723545074463,13.175185203552246,0.20220518112182617
1690467865024846965,,165310,,1690467865,24736112,"""world""",,,3.3333396911621094,13.175090789794922,0.2022399753332138
1690467865034894928,,165311,,1690467865,34757770,"""world""",,,3.3333213329315186,13.17495346069336,0.20229452848434448
1690467865044859316,,165312,,1690467865,44734733,"""world""",,,3.333346128463745,13.174826622009277,0.20236219465732574
1690467865054859775,,165313,,1690467865,54744330,"""world""",,,3.333366870880127,13.174701690673828,0.20243652164936066
1690467865064812067,,165314,,1690467865,64726993,"""world""",,,3.33333683013916,13.17457103729248,0.20259444415569305
1690467865074828409,,165315,,1690467865,74729632,"""world""",,,3.3333513736724854,13.174445152282715,0.20268040895462036
1690467865084821776,,165316,,1690467865,84728560,"""world""",,,3.333378553390503,13.174286842346191,0.20276033878326416
1690467865094816523,,165317,,1690467865,94726953,"""world""",,,3.3334314823150635,13.174132347106934,0.20281925797462463
1690467865104783884,,165318,,1690467865,104712187,"""world""",,,3.333524227142334,13.173992156982422,0.20284044742584229
1690467865114816887,,165319,,1690467865,114730743,"""world""",,,3.3336257934570312,13.173843383789062,0.202921062707901
1690467865124828746,,165320,,1690467865,124740574,"""world""",,,3.333660125732422,13.17365837097168,0.20297543704509735
1690467865134806360,,165321,,1690467865,134728816,"""world""",,,3.33371639251709,13.173437118530273,0.20311735570430756
1690467865144883640,,165322,,1690467865,144773177,"""world""",,,3.3337008953094482,13.173234939575195,0.20336195826530457
1690467865154881037,,165323,,1690467865,154766309,"""world""",,,3.333705186843872,13.17300796508789,0.20348979532718658
1690467865164942842,,165324,,1690467865,164842469,"""world""",,,3.333458662033081,13.17273235321045,0.20365068316459656
1690467865174819864,,165325,,1690467865,174729247,"""world""",,,3.3335535526275635,13.172406196594238,0.20370341837406158
1690467865184810881,,165326,,1690467865,184727335,"""world""",,,3.3335185050964355,13.172076225280762,0.20387676358222961
1690467865194812206,,165327,,1690467865,194727362,"""world""",,,3.3333637714385986,13.17176628112793,0.2041981965303421
1690467865204812970,,165328,,1690467865,204729646,"""world""",,,3.333434820175171,13.171369552612305,0.20453479886054993
1690467865214817288,,165329,,1690467865,214734877,"""world""",,,3.3335108757019043,13.170958518981934,0.20478981733322144
1690467865224844274,,165330,,1690467865,224729849,"""world""",,,3.3335437774658203,13.170526504516602,0.20505593717098236
1690467865234847963,,165331,,1690467865,234725878,"""world""",,,3.333488702774048,13.170092582702637,0.20545664429664612
1690467865244978375,,165332,,1690467865,244779850,"""world""",,,3.3336563110351562,13.16957950592041,0.20576344430446625
1690467865254816034,,165333,,1690467865,254729792,"""world""",,,3.33369517326355,13.169034957885742,0.20624762773513794
1690467865264885832,,165334,,1690467865,264795834,"""world""",,,3.3337345123291016,13.16846752166748,0.20658385753631592
1690467865274809155,,165335,,1690467865,274730763,"""world""",,,3.3339202404022217,13.167831420898438,0.20693403482437134
1690467865284844392,,165336,,1690467865,284750640,"""world""",,,3.3339710235595703,13.167168617248535,0.20727665722370148
1690467865294877894,,165337,,1690467865,294739817,"""world""",,,3.334171772003174,13.166472434997559,0.20760802924633026
1690467865304799397,,165338,,1690467865,304721937,"""world""",,,3.3342108726501465,13.165667533874512,0.20794828236103058
1690467865314851031,,165339,,1690467865,314738832,"""world""",,,3.334322929382324,13.164876937866211,0.2083376795053482
1690467865324828909,,165340,,1690467865,324734411,"""world""",,,3.334352970123291,13.164060592651367,0.20870862901210785
1690467865334808235,,165341,,1690467865,334728041,"""world""",,,3.334469795227051,13.163238525390625,0.20895613729953766
1690467865344829768,,165342,,1690467865,344725686,"""world""",,,3.3345019817352295,13.162416458129883,0.20922324061393738
1690467865354877552,,165343,,1690467865,354739313,"""world""",,,3.334496021270752,13.161612510681152,0.20942679047584534
1690467865364884235,,165344,,1690467865,364764893,"""world""",,,3.3344955444335938,13.160774230957031,0.20981070399284363
1690467865374824026,,165345,,1690467865,374734695,"""world""",,,3.3347320556640625,13.159927368164062,0.20985759794712067
1690467865384811438,,165346,,1690467865,384727998,"""world""",,,3.3349452018737793,13.15897274017334,0.20998233556747437
1690467865394831433,,165347,,1690467865,394726936,"""world""",,,3.3351387977600098,13.158109664916992,0.2100987583398819
1690467865404774094,,165348,,1690467865,404713190,"""world""",,,3.3353567123413086,13.157175064086914,0.21022342145442963
1690467865414816199,,165349,,1690467865,414738243,"""world""",,,3.335587978363037,13.156246185302734,0.21019892394542694
1690467865424816692,,165350,,1690467865,424733342,"""world""",,,3.335737705230713,13.1552095413208,0.2101711630821228
1690467865434797948,,165351,,1690467865,434725250,"""world""",,,3.336030960083008,13.154180526733398,0.21008160710334778
1690467865444819570,,165352,,1690467865,444726474,"""world""",,,3.336320638656616,13.153154373168945,0.20991623401641846
1690467865454893027,,165353,,1690467865,454772665,"""world""",,,3.336608648300171,13.151997566223145,0.20975445210933685
1690467865464864202,,165354,,1690467865,464741996,"""world""",,,3.3367443084716797,13.150810241699219,0.20963293313980103
1690467865474806292,,165355,,1690467865,474726791,"""world""",,,3.3366568088531494,13.149590492248535,0.20969721674919128
1690467865484864882,,165356,,1690467865,484728859,"""world""",,,3.3369524478912354,13.14830493927002,0.20950382947921753
1690467865494856105,,165357,,1690467865,494733098,"""world""",,,3.337160110473633,13.1470365524292,0.20933790504932404
1690467865504830425,,165358,,1690467865,504756543,"""world""",,,3.337383985519409,13.14566707611084,0.2090691328048706
1690467865514824636,,165359,,1690467865,514730934,"""world""",,,3.3375980854034424,13.14437484741211,0.2088339626789093
1690467865524846128,,165360,,1690467865,524734250,"""world""",,,3.3377902507781982,13.143110275268555,0.2086205929517746
1690467865534864428,,165361,,1690467865,534736203,"""world""",,,3.338094711303711,13.141779899597168,0.2082999050617218
1690467865544840208,,165362,,1690467865,544730383,"""world""",,,3.3380439281463623,13.140588760375977,0.20835654437541962
1690467865554874111,,165363,,1690467865,554744763,"""world""",,,3.3385465145111084,13.139042854309082,0.20785939693450928
1690467865564808015,,165364,,1690467865,564725824,"""world""",,,3.338765859603882,13.137652397155762,0.20772936940193176
1690467865574810397,,165365,,1690467865,574730189,"""world""",,,3.3389978408813477,13.136228561401367,0.2074524462223053
1690467865584816900,,165366,,1690467865,584727463,"""world""",,,3.339329242706299,13.134780883789062,0.2071675807237625
1690467865594841084,,165367,,1690467865,594732801,"""world""",,,3.339712619781494,13.133296966552734,0.20691943168640137
1690467865604823951,,165368,,1690467865,604730525,"""world""",,,3.340071439743042,13.1317720413208,0.20699580013751984
1690467865614855603,,165369,,1690467865,614746698,"""world""",,,3.340399742126465,13.130363464355469,0.20685377717018127
1690467865624876249,,165370,,1690467865,624762717,"""world""",,,3.340705156326294,13.128742218017578,0.20671525597572327
1690467865634868682,,165371,,1690467865,634737736,"""world""",,,3.341157913208008,13.127266883850098,0.2066415548324585
1690467865644878087,,165372,,1690467865,644730425,"""world""",,,3.341310977935791,13.125775337219238,0.20665565133094788
1690467865654830578,,165373,,1690467865,654734837,"""world""",,,3.3419060707092285,13.124184608459473,0.20674024522304535
1690467865664848353,,165374,,1690467865,664733318,"""world""",,,3.342262029647827,13.122851371765137,0.20699526369571686
1690467865674826334,,165375,,1690467865,674738812,"""world""",,,3.3426709175109863,13.121197700500488,0.20706996321678162
1690467865684814971,,165376,,1690467865,684729127,"""world""",,,3.342888832092285,13.119535446166992,0.2073868215084076
1690467865694818653,,165377,,1690467865,694727199,"""world""",,,3.3432953357696533,13.118204116821289,0.20767369866371155
1690467865704797006,,165378,,1690467865,704722884,"""world""",,,3.3436262607574463,13.116612434387207,0.20797894895076752
1690467865714845235,,165379,,1690467865,714728463,"""world""",,,3.3440444469451904,13.114978790283203,0.20837020874023438
1690467865724887976,,165380,,1690467865,724747929,"""world""",,,3.3441696166992188,13.113443374633789,0.2086968868970871
1690467865734866881,,165381,,1690467865,734736745,"""world""",,,3.344700813293457,13.111851692199707,0.20916417241096497
1690467865744831923,,165382,,1690467865,744730847,"""world""",,,3.344980239868164,13.110302925109863,0.2098647654056549
1690467865754864670,,165383,,1690467865,754735965,"""world""",,,3.345299005508423,13.108810424804688,0.21048423647880554
1690467865764811765,,165384,,1690467865,764729389,"""world""",,,3.3457322120666504,13.107346534729004,0.21105723083019257
1690467865774824877,,165385,,1690467865,774740918,"""world""",,,3.3461813926696777,13.105659484863281,0.21172764897346497
1690467865784805942,,165386,,1690467865,784727653,"""world""",,,3.346311569213867,13.104233741760254,0.21259215474128723
1690467865794819707,,165387,,1690467865,794730539,"""world""",,,3.346850872039795,13.10274887084961,0.2131335288286209
1690467865804792772,,165388,,1690467865,804722504,"""world""",,,3.347107410430908,13.101146697998047,0.21403421461582184
1690467865814811746,,165389,,1690467865,814726456,"""world""",,,3.3475475311279297,13.099687576293945,0.21482889354228973
1690467865825042072,,165390,,1690467865,824790524,"""world""",,,3.3479602336883545,13.098114967346191,0.21572692692279816
1690467865834820149,,165391,,1690467865,834727859,"""world""",,,3.348442316055298,13.09656047821045,0.2166440784931183
1690467865844872608,,165392,,1690467865,844746866,"""world""",,,3.3487868309020996,13.094999313354492,0.2175171822309494
1690467865854823130,,165393,,1690467865,854736510,"""world""",,,3.349087953567505,13.09351921081543,0.21867196261882782
1690467865864806319,,165394,,1690467865,864727762,"""world""",,,3.349372386932373,13.09201717376709,0.21975475549697876
1690467865874822464,,165395,,1690467865,874728856,"""world""",,,3.3497872352600098,13.090622901916504,0.22082370519638062
1690467865884830674,,165396,,1690467865,884730062,"""world""",,,3.3501064777374268,13.089143753051758,0.22206923365592957
1690467865894864527,,165397,,1690467865,894730093,"""world""",,,3.3505964279174805,13.087665557861328,0.22317403554916382
1690467865904818222,,165398,,1690467865,904715263,"""world""",,,3.350898027420044,13.086196899414062,0.22455863654613495
1690467865914848452,,165399,,1690467865,914730544,"""world""",,,3.3511962890625,13.084922790527344,0.22601531445980072
1690467865924812046,,165400,,1690467865,924729488,"""world""",,,3.3514204025268555,13.083483695983887,0.22745126485824585
1690467865934897358,,165401,,1690467865,934730049,"""world""",,,3.3518686294555664,13.081974029541016,0.22885464131832123
1690467865944873676,,165402,,1690467865,944733100,"""world""",,,3.3521921634674072,13.080713272094727,0.23045822978019714
1690467865954895068,,165403,,1690467865,954759228,"""world""",,,3.352518320083618,13.07928466796875,0.23200318217277527
1690467865964815939,,165404,,1690467865,964729045,"""world""",,,3.3527328968048096,13.077844619750977,0.23383992910385132
1690467865974895094,,165405,,1690467865,974747413,"""world""",,,3.353086471557617,13.07661247253418,0.23551008105278015
1690467865984812513,,165406,,1690467865,984728809,"""world""",,,3.3531887531280518,13.075298309326172,0.23750370740890503
1690467865994810040,,165407,,1690467865,994728404,"""world""",,,3.3532752990722656,13.073915481567383,0.23952171206474304
1690467866004777324,,165408,,1690467866,4715481,"""world""",,,3.353757381439209,13.07258415222168,0.2411949336528778
1690467866014818459,,165409,,1690467866,14728773,"""world""",,,3.3539087772369385,13.0714750289917,0.24315716326236725
1690467866024883661,,165410,,1690467866,24742040,"""world""",,,3.354160785675049,13.070245742797852,0.24525494873523712
1690467866034817051,,165411,,1690467866,34734016,"""world""",,,3.3543238639831543,13.068944931030273,0.24732595682144165
1690467866044886347,,165412,,1690467866,44760749,"""world""",,,3.3545479774475098,13.06782341003418,0.24950867891311646
1690467866054838761,,165413,,1690467866,54727813,"""world""",,,3.354567050933838,13.066681861877441,0.25165069103240967
1690467866064812289,,165414,,1690467866,64726545,"""world""",,,3.3550970554351807,13.065641403198242,0.25378426909446716
1690467866074825191,,165415,,1690467866,74730476,"""world""",,,3.3550610542297363,13.064664840698242,0.2563723623752594
1690467866084812731,,165416,,1690467866,84728312,"""world""",,,3.3553640842437744,13.063652992248535,0.25839272141456604
1690467866094817095,,165417,,1690467866,94730730,"""world""",,,3.355497121810913,13.062628746032715,0.26082953810691833
1690467866104807520,,165418,,1690467866,104723227,"""world""",,,3.3555359840393066,13.061502456665039,0.2633417844772339
1690467866114820276,,165419,,1690467866,114730401,"""world""",,,3.3558173179626465,13.06059741973877,0.26560842990875244
1690467866124867971,,165420,,1690467866,124745375,"""world""",,,3.3552794456481934,13.060075759887695,0.26803767681121826
1690467866134806224,,165421,,1690467866,134725427,"""world""",,,3.356196641921997,13.05881118774414,0.27034005522727966
1690467866144828650,,165422,,1690467866,144727942,"""world""",,,3.356294631958008,13.057840347290039,0.2729169726371765
1690467866154835385,,165423,,1690467866,154735116,"""world""",,,3.3564610481262207,13.056984901428223,0.275362491607666
1690467866164842832,,165424,,1690467866,164733987,"""world""",,,3.356551170349121,13.056209564208984,0.2779962420463562
1690467866174854455,,165425,,1690467866,174728932,"""world""",,,3.356424331665039,13.055244445800781,0.2808237075805664
1690467866184840419,,165426,,1690467866,184727535,"""world""",,,3.356799840927124,13.05455207824707,0.2831551134586334
1690467866194873638,,165427,,1690467866,194728285,"""world""",,,3.3564679622650146,13.053857803344727,0.28609779477119446
1690467866204834173,,165428,,1690467866,204751326,"""world""",,,3.3571763038635254,13.053130149841309,0.28842025995254517
1690467866214862189,,165429,,1690467866,214772315,"""world""",,,3.357428789138794,13.052533149719238,0.2911059856414795
1690467866224874248,,165430,,1690467866,224738855,"""world""",,,3.3574984073638916,13.051753044128418,0.2938767373561859
1690467866234837353,,165431,,1690467866,234728036,"""world""",,,3.3577752113342285,13.0511474609375,0.29663363099098206
1690467866244818102,,165432,,1690467866,244726986,"""world""",,,3.357839345932007,13.050516128540039,0.29958614706993103
1690467866254829936,,165433,,1690467866,254729695,"""world""",,,3.3581039905548096,13.049988746643066,0.30229452252388
1690467866264838670,,165434,,1690467866,264758640,"""world""",,,3.358374834060669,13.049471855163574,0.305142879486084
1690467866274848732,,165435,,1690467866,274763701,"""world""",,,3.358346462249756,13.049034118652344,0.3083081841468811
1690467866284827081,,165436,,1690467866,284728531,"""world""",,,3.3587217330932617,13.048450469970703,0.31126412749290466
1690467866294822073,,165437,,1690467866,294727722,"""world""",,,3.35890793800354,13.048005104064941,0.31378719210624695
1690467866304791085,,165438,,1690467866,304713057,"""world""",,,3.359053134918213,13.047548294067383,0.3167579472064972
1690467866314842593,,165439,,1690467866,314727883,"""world""",,,3.3591272830963135,13.047201156616211,0.3196883201599121
1690467866324819705,,165440,,1690467866,324731144,"""world""",,,3.359302520751953,13.046730041503906,0.3225460946559906
1690467866334823437,,165441,,1690467866,334726195,"""world""",,,3.359584331512451,13.046381950378418,0.3252668082714081
1690467866344825150,,165442,,1690467866,344730393,"""world""",,,3.3596112728118896,13.04610538482666,0.32821860909461975
1690467866354883795,,165443,,1690467866,354751182,"""world""",,,3.3596677780151367,13.045909881591797,0.33110928535461426
1690467866364887546,,165444,,1690467866,364764004,"""world""",,,3.3598875999450684,13.045549392700195,0.33393535017967224
1690467866374834101,,165445,,1690467866,374729250,"""world""",,,3.3599460124969482,13.045328140258789,0.33654969930648804
1690467866384853267,,165446,,1690467866,384762159,"""world""",,,3.3597183227539062,13.045001029968262,0.3392590582370758
1690467866394826821,,165447,,1690467866,394729208,"""world""",,,3.3601534366607666,13.044946670532227,0.34186187386512756
1690467866404806238,,165448,,1690467866,404735983,"""world""",,,3.3605387210845947,13.04482364654541,0.34445902705192566
1690467866414851907,,165449,,1690467866,414730967,"""world""",,,3.3604111671447754,13.044557571411133,0.3469873368740082
1690467866424993086,,165450,,1690467866,424791451,"""world""",,,3.3606863021850586,13.044453620910645,0.3493258059024811
1690467866434875722,,165451,,1690467866,434765771,"""world""",,,3.3607561588287354,13.044403076171875,0.3518652021884918
1690467866444900567,,165452,,1690467866,444753867,"""world""",,,3.3606667518615723,13.044333457946777,0.35453110933303833
1690467866454854318,,165453,,1690467866,454769666,"""world""",,,3.3609893321990967,13.044208526611328,0.35657280683517456
1690467866464919099,,165454,,1690467866,464792729,"""world""",,,3.3610589504241943,13.044172286987305,0.3589431047439575
1690467866474847371,,165455,,1690467866,474760061,"""world""",,,3.361177682876587,13.044158935546875,0.36112096905708313
1690467866484864886,,165456,,1690467866,484774999,"""world""",,,3.361321210861206,13.044184684753418,0.3633420169353485
1690467866494837449,,165457,,1690467866,494732141,"""world""",,,3.3612725734710693,13.044231414794922,0.36550667881965637
1690467866504853640,,165458,,1690467866,504736451,"""world""",,,3.361323595046997,13.044295310974121,0.3677518367767334
1690467866514847404,,165459,,1690467866,514731831,"""world""",,,3.3614532947540283,13.044328689575195,0.36972540616989136
1690467866525006205,,165460,,1690467866,524769616,"""world""",,,3.361335515975952,13.044462203979492,0.3719615042209625
1690467866534959618,,165461,,1690467866,534756273,"""world""",,,3.3614799976348877,13.04459285736084,0.37386977672576904
1690467866544935486,,165462,,1690467866,544774788,"""world""",,,3.3614590167999268,13.0447359085083,0.3758503496646881
1690467866554860816,,165463,,1690467866,554732181,"""world""",,,3.361412525177002,13.044974327087402,0.3777570128440857
1690467866564831662,,165464,,1690467866,564733041,"""world""",,,3.361590623855591,13.045228004455566,0.37955936789512634
1690467866574916927,,165465,,1690467866,574767746,"""world""",,,3.3616671562194824,13.045430183410645,0.38121986389160156
1690467866584864855,,165466,,1690467866,584730701,"""world""",,,3.361680746078491,13.04573917388916,0.38298478722572327
1690467866594877400,,165467,,1690467866,594753436,"""world""",,,3.3616373538970947,13.046027183532715,0.3846556544303894
1690467866604814207,,165468,,1690467866,604729838,"""world""",,,3.3615918159484863,13.0463285446167,0.3861001133918762
1690467866614823216,,165469,,1690467866,614730168,"""world""",,,3.361572742462158,13.046575546264648,0.3875559866428375
1690467866624857107,,165470,,1690467866,624747564,"""world""",,,3.3615503311157227,13.046964645385742,0.3891146779060364
1690467866634866235,,165471,,1690467866,634771336,"""world""",,,3.3613715171813965,13.047276496887207,0.3902181386947632
1690467866644877768,,165472,,1690467866,644741695,"""world""",,,3.3612284660339355,13.047565460205078,0.39138516783714294
1690467866654831369,,165473,,1690467866,654731371,"""world""",,,3.361222505569458,13.048057556152344,0.3924546539783478
1690467866664871275,,165474,,1690467866,664739399,"""world""",,,3.361335515975952,13.048415184020996,0.3933175206184387
1690467866674814386,,165475,,1690467866,674729271,"""world""",,,3.3612618446350098,13.048873901367188,0.3942042887210846
1690467866684810144,,165476,,1690467866,684726990,"""world""",,,3.3610360622406006,13.049331665039062,0.39514297246932983
1690467866694828598,,165477,,1690467866,694731567,"""world""",,,3.3609724044799805,13.049732208251953,0.39589807391166687
1690467866704819982,,165478,,1690467866,704745476,"""world""",,,3.360933780670166,13.050110816955566,0.39646562933921814
1690467866714835696,,165479,,1690467866,714738465,"""world""",,,3.360835552215576,13.050447463989258,0.3970480263233185
1690467866724884279,,165480,,1690467866,724753005,"""world""",,,3.360722780227661,13.050675392150879,0.3974890112876892
1690467866734858150,,165481,,1690467866,734736717,"""world""",,,3.3608055114746094,13.05090618133545,0.3980026841163635
1690467866744854703,,165482,,1690467866,744734562,"""world""",,,3.360443115234375,13.051142692565918,0.3981533348560333
1690467866754909041,,165483,,1690467866,754750115,"""world""",,,3.3602874279022217,13.051289558410645,0.39834848046302795
1690467866764835183,,165484,,1690467866,764732566,"""world""",,,3.3601720333099365,13.051477432250977,0.3983904719352722
1690467866774844258,,165485,,1690467866,774758518,"""world""",,,3.360086679458618,13.051657676696777,0.39831599593162537
1690467866784809745,,165486,,1690467866,784726332,"""world""",,,3.3599019050598145,13.051819801330566,0.39820095896720886
1690467866794822970,,165487,,1690467866,794726675,"""world""",,,3.359797477722168,13.052085876464844,0.39796197414398193
1690467866804826988,,165488,,1690467866,804755332,"""world""",,,3.3597583770751953,13.052348136901855,0.3976263701915741
1690467866814849055,,165489,,1690467866,814736437,"""world""",,,3.359687566757202,13.052596092224121,0.39712420105934143
1690467866824864433,,165490,,1690467866,824753607,"""world""",,,3.35960054397583,13.052770614624023,0.39655905961990356
1690467866834856509,,165491,,1690467866,834726342,"""world""",,,3.359492778778076,13.053035736083984,0.39592111110687256
1690467866844831628,,165492,,1690467866,844731089,"""world""",,,3.3593690395355225,13.053293228149414,0.3951369524002075
1690467866854827880,,165493,,1690467866,854727943,"""world""",,,3.359325647354126,13.053468704223633,0.394243448972702
1690467866864801710,,165494,,1690467866,864724654,"""world""",,,3.3592751026153564,13.053711891174316,0.39320841431617737
1690467866874823581,,165495,,1690467866,874732808,"""world""",,,3.35945200920105,13.054129600524902,0.3924313485622406
1690467866884820318,,165496,,1690467866,884727959,"""world""",,,3.3588881492614746,13.054262161254883,0.3910936713218689
1690467866894863124,,165497,,1690467866,894748420,"""world""",,,3.3588061332702637,13.054347038269043,0.3899296820163727
1690467866904796883,,165498,,1690467866,904725632,"""world""",,,3.3587305545806885,13.054547309875488,0.38841015100479126
1690467866914841606,,165499,,1690467866,914729977,"""world""",,,3.3584861755371094,13.054736137390137,0.3870273232460022
1690467866924902003,,165500,,1690467866,924758507,"""world""",,,3.3583481311798096,13.054922103881836,0.38549187779426575
1690467866934820227,,165501,,1690467866,934734715,"""world""",,,3.3581132888793945,13.055126190185547,0.383836567401886
1690467866944821135,,165502,,1690467866,944729546,"""world""",,,3.3578593730926514,13.055237770080566,0.38215065002441406
1690467866954811353,,165503,,1690467866,954727003,"""world""",,,3.357717990875244,13.055392265319824,0.3802812099456787
1690467866964820054,,165504,,1690467866,964729966,"""world""",,,3.3575198650360107,13.055608749389648,0.3782869577407837
1690467866974806814,,165505,,1690467866,974726417,"""world""",,,3.3571321964263916,13.055614471435547,0.37627631425857544
1690467866984836262,,165506,,1690467866,984737139,"""world""",,,3.3571317195892334,13.05582046508789,0.374239444732666
1690467866994846301,,165507,,1690467866,994728623,"""world""",,,3.3570127487182617,13.055875778198242,0.37236979603767395
1690467867004803431,,165508,,1690467867,4724641,"""world""",,,3.356762647628784,13.05598258972168,0.36985206604003906
1690467867014827128,,165509,,1690467867,14732710,"""world""",,,3.3564984798431396,13.0560941696167,0.3677516579627991
1690467867024881521,,165510,,1690467867,24761092,"""world""",,,3.35609769821167,13.056159019470215,0.36548566818237305
1690467867034826136,,165511,,1690467867,34728749,"""world""",,,3.356107234954834,13.056212425231934,0.3631357252597809
1690467867044897132,,165512,,1690467867,44763744,"""world""",,,3.355877161026001,13.056272506713867,0.3607691824436188
1690467867054834298,,165513,,1690467867,54728485,"""world""",,,3.3555071353912354,13.056285858154297,0.35847869515419006
1690467867064817775,,165514,,1690467867,64731552,"""world""",,,3.3552775382995605,13.056297302246094,0.35600265860557556
1690467867074815774,,165515,,1690467867,74730474,"""world""",,,3.3549678325653076,13.056315422058105,0.3536674678325653
1690467867084902916,,165516,,1690467867,84761414,"""world""",,,3.3547298908233643,13.056286811828613,0.3512636125087738
1690467867094826134,,165517,,1690467867,94730210,"""world""",,,3.3540894985198975,13.056307792663574,0.3489552140235901
1690467867104891003,,165518,,1690467867,104785237,"""world""",,,3.354060173034668,13.056239128112793,0.3465617299079895
1690467867114827979,,165519,,1690467867,114725728,"""world""",,,3.3538260459899902,13.0562162399292,0.34413623809814453
1690467867124843043,,165520,,1690467867,124744883,"""world""",,,3.353351593017578,13.056059837341309,0.34198814630508423
1690467867134820789,,165521,,1690467867,134725827,"""world""",,,3.3530845642089844,13.056055068969727,0.3396872580051422
1690467867144825002,,165522,,1690467867,144714177,"""world""",,,3.3526086807250977,13.055922508239746,0.3375931978225708
1690467867154914122,,165523,,1690467867,154740988,"""world""",,,3.3522794246673584,13.055910110473633,0.3354572653770447
1690467867164837694,,165524,,1690467867,164731676,"""world""",,,3.3518192768096924,13.05579662322998,0.3334822356700897
1690467867174816240,,165525,,1690467867,174727467,"""world""",,,3.351499319076538,13.055590629577637,0.33139365911483765
1690467867184854626,,165526,,1690467867,184735401,"""world""",,,3.3511857986450195,13.055694580078125,0.3294579088687897
1690467867194821337,,165527,,1690467867,194726601,"""world""",,,3.3507728576660156,13.055587768554688,0.32768067717552185
1690467867204843096,,165528,,1690467867,204772415,"""world""",,,3.350374460220337,13.055506706237793,0.32570841908454895
1690467867214844990,,165529,,1690467867,214730384,"""world""",,,3.349856376647949,13.055405616760254,0.32414373755455017
1690467867224941970,,165530,,1690467867,224738960,"""world""",,,3.3494367599487305,13.055344581604004,0.32252636551856995
1690467867234878419,,165531,,1690467867,234731938,"""world""",,,3.3489315509796143,13.05538272857666,0.3208823502063751
1690467867244866823,,165532,,1690467867,244728663,"""world""",,,3.3486196994781494,13.055148124694824,0.31934744119644165
1690467867254847576,,165533,,1690467867,254732299,"""world""",,,3.3481647968292236,13.055072784423828,0.31801995635032654
1690467867264816937,,165534,,1690467867,264726759,"""world""",,,3.3477556705474854,13.055116653442383,0.3164960443973541
1690467867274819213,,165535,,1690467867,274727440,"""world""",,,3.3473575115203857,13.055060386657715,0.3152924180030823
1690467867284824859,,165536,,1690467867,284728851,"""world""",,,3.346813678741455,13.054981231689453,0.31418702006340027
1690467867294988401,,165537,,1690467867,294758884,"""world""",,,3.346296787261963,13.054930686950684,0.3130376935005188
1690467867304816851,,165538,,1690467867,304728062,"""world""",,,3.3456664085388184,13.055023193359375,0.312246710062027
1690467867314853961,,165539,,1690467867,314737112,"""world""",,,3.3454039096832275,13.054954528808594,0.31114673614501953
1690467867324945414,,165540,,1690467867,324743116,"""world""",,,3.34484601020813,13.054913520812988,0.30997902154922485
1690467867334800308,,165541,,1690467867,334723707,"""world""",,,3.344404458999634,13.054803848266602,0.3090258836746216
1690467867344847474,,165542,,1690467867,344737604,"""world""",,,3.343893527984619,13.054929733276367,0.3081709146499634
1690467867354819716,,165543,,1690467867,354728145,"""world""",,,3.343445062637329,13.055055618286133,0.30721375346183777
1690467867364811878,,165544,,1690467867,364724184,"""world""",,,3.343066930770874,13.055034637451172,0.3063387870788574
1690467867374811201,,165545,,1690467867,374728014,"""world""",,,3.3425071239471436,13.055167198181152,0.3054731488227844
1690467867384810278,,165546,,1690467867,384725415,"""world""",,,3.3419065475463867,13.055268287658691,0.3047903776168823
1690467867394824676,,165547,,1690467867,394728956,"""world""",,,3.3414700031280518,13.055484771728516,0.3040556013584137
1690467867404840942,,165548,,1690467867,404773604,"""world""",,,3.3409085273742676,13.055645942687988,0.3033140003681183
1690467867414838983,,165549,,1690467867,414729615,"""world""",,,3.340369701385498,13.055747985839844,0.30266398191452026
1690467867424849833,,165550,,1690467867,424738017,"""world""",,,3.339712619781494,13.055975914001465,0.3021855652332306
1690467867434816489,,165551,,1690467867,434725304,"""world""",,,3.339303970336914,13.056221961975098,0.30173739790916443
1690467867444808902,,165552,,1690467867,444723418,"""world""",,,3.3386151790618896,13.056524276733398,0.3015903830528259
1690467867454835567,,165553,,1690467867,454760678,"""world""",,,3.3381643295288086,13.056706428527832,0.3010161221027374
1690467867464841173,,165554,,1690467867,464754864,"""world""",,,3.3375966548919678,13.056950569152832,0.3007920980453491
1690467867474814734,,165555,,1690467867,474728877,"""world""",,,3.3370659351348877,13.057180404663086,0.30060088634490967
1690467867484844833,,165556,,1690467867,484764265,"""world""",,,3.3365795612335205,13.057411193847656,0.30051490664482117
1690467867494866946,,165557,,1690467867,494776162,"""world""",,,3.336066484451294,13.057611465454102,0.300544410943985
1690467867504918226,,165558,,1690467867,504812046,"""world""",,,3.3355650901794434,13.058070182800293,0.3006730377674103
1690467867514862492,,165559,,1690467867,514763379,"""world""",,,3.3349528312683105,13.058259010314941,0.30108577013015747
1690467867524864172,,165560,,1690467867,524745681,"""world""",,,3.3343701362609863,13.058541297912598,0.3015684485435486
1690467867534852296,,165561,,1690467867,534732067,"""world""",,,3.333855390548706,13.058867454528809,0.30217400193214417
1690467867544849572,,165562,,1690467867,544745169,"""world""",,,3.333373785018921,13.059223175048828,0.30287691950798035
1690467867554831009,,165563,,1690467867,554729696,"""world""",,,3.3327553272247314,13.05950927734375,0.30394813418388367
1690467867564820009,,165564,,1690467867,564731340,"""world""",,,3.3322808742523193,13.059935569763184,0.3050164580345154
1690467867574842897,,165565,,1690467867,574734180,"""world""",,,3.331719160079956,13.060297966003418,0.30633679032325745
1690467867584815244,,165566,,1690467867,584727722,"""world""",,,3.331420421600342,13.060711860656738,0.3077910244464874
1690467867594889408,,165567,,1690467867,594768358,"""world""",,,3.330780029296875,13.061097145080566,0.30944496393203735
1690467867604850589,,165568,,1690467867,604772640,"""world""",,,3.3302459716796875,13.06159782409668,0.31145477294921875
1690467867614858178,,165569,,1690467867,614757625,"""world""",,,3.3297057151794434,13.062092781066895,0.31369858980178833
1690467867624989574,,165570,,1690467867,624797740,"""world""",,,3.3293120861053467,13.062467575073242,0.31590980291366577
1690467867634835992,,165571,,1690467867,634756427,"""world""",,,3.3287956714630127,13.062931060791016,0.31848254799842834
1690467867644821435,,165572,,1690467867,644747910,"""world""",,,3.3283748626708984,13.063255310058594,0.32122689485549927
1690467867654827634,,165573,,1690467867,654733738,"""world""",,,3.3278353214263916,13.0637788772583,0.3243241608142853
1690467867664856926,,165574,,1690467867,664760772,"""world""",,,3.327430486679077,13.064264297485352,0.3274438679218292
1690467867674855824,,165575,,1690467867,674761168,"""world""",,,3.326976776123047,13.064657211303711,0.331112265586853
1690467867684855143,,165576,,1690467867,684766069,"""world""",,,3.3266592025756836,13.065193176269531,0.3348712921142578
1690467867694914864,,165577,,1690467867,694759662,"""world""",,,3.3262100219726562,13.065630912780762,0.33883148431777954
1690467867704867394,,165578,,1690467867,704726931,"""world""",,,3.3257217407226562,13.066173553466797,0.3432754874229431
1690467867714872163,,165579,,1690467867,714758928,"""world""",,,3.3253233432769775,13.066746711730957,0.3477528989315033
1690467867724881673,,165580,,1690467867,724757351,"""world""",,,3.324979543685913,13.067124366760254,0.35262954235076904
1690467867734859501,,165581,,1690467867,734757885,"""world""",,,3.324597120285034,13.067680358886719,0.35768646001815796
1690467867744847898,,165582,,1690467867,744731132,"""world""",,,3.324150323867798,13.068233489990234,0.3630244731903076
1690467867754843153,,165583,,1690467867,754760921,"""world""",,,3.3238861560821533,13.068756103515625,0.3685253858566284
1690467867764836159,,165584,,1690467867,764760410,"""world""",,,3.3234846591949463,13.069433212280273,0.37435731291770935
1690467867774852293,,165585,,1690467867,774759697,"""world""",,,3.323233127593994,13.06981372833252,0.3805021345615387
1690467867784805833,,165586,,1690467867,784728316,"""world""",,,3.322824001312256,13.070515632629395,0.3868900239467621
1690467867794821952,,165587,,1690467867,794740547,"""world""",,,3.322441577911377,13.071111679077148,0.3935588002204895
1690467867804860247,,165588,,1690467867,804783630,"""world""",,,3.3221933841705322,13.071666717529297,0.40034377574920654
1690467867814865079,,165589,,1690467867,814766570,"""world""",,,3.3218867778778076,13.072348594665527,0.40742412209510803
1690467867824914688,,165590,,1690467867,824738757,"""world""",,,3.3215537071228027,13.072848320007324,0.41473624110221863
1690467867834861682,,165591,,1690467867,834732289,"""world""",,,3.3212242126464844,13.073502540588379,0.42239028215408325
1690467867844883500,,165592,,1690467867,844750419,"""world""",,,3.3210501670837402,13.074085235595703,0.42998945713043213
1690467867854857115,,165593,,1690467867,854727808,"""world""",,,3.3207342624664307,13.07461929321289,0.43799903988838196
1690467867864825194,,165594,,1690467867,864735423,"""world""",,,3.3206114768981934,13.075311660766602,0.44620636105537415
