rosbagTimestamp,header,seq,stamp,secs,nsecs,frame_id,pose,position,x,y,z
1690467660014795504,,144858,,1690467660,14721875,"""world""",,,3.320352077484131,13.242323875427246,0.2015213966369629
1690467660024813451,,144859,,1690467660,24731373,"""world""",,,3.3203847408294678,13.242295265197754,0.20154118537902832
1690467660024822827,,144860,,1690467660,24744001,"""world""",,,3.3203506469726562,13.24229621887207,0.20152531564235687
1690467660044805802,,144861,,1690467660,44728438,"""world""",,,3.3203883171081543,13.24230670928955,0.20154649019241333
1690467660054816267,,144862,,1690467660,54723044,"""world""",,,3.3203885555267334,13.242305755615234,0.20153306424617767
1690467660054826376,,144863,,1690467660,54733712,"""world""",,,3.3203015327453613,13.242209434509277,0.2014819234609604
1690467660064809851,,144864,,1690467660,64732940,"""world""",,,3.3203728199005127,13.242314338684082,0.20154188573360443
1690467660074820311,,144865,,1690467660,74738430,"""world""",,,3.320391893386841,13.242308616638184,0.2015378326177597
1690467660084862929,,144866,,1690467660,84739502,"""world""",,,3.3203399181365967,13.242290496826172,0.20152969658374786
1690467660104866992,,144867,,1690467660,104731273,"""world""",,,3.3203980922698975,13.242301940917969,0.20151251554489136
1690467660114868734,,144868,,1690467660,114754862,"""world""",,,3.3203837871551514,13.242277145385742,0.20155847072601318
1690467660124806947,,144869,,1690467660,124729492,"""world""",,,3.320371150970459,13.242281913757324,0.20149336755275726
1690467660134810048,,144870,,1690467660,134731321,"""world""",,,3.3204071521759033,13.242266654968262,0.20154576003551483
1690467660144816997,,144871,,1690467660,144731415,"""world""",,,3.3204145431518555,13.242264747619629,0.20153795182704926
1690467660144840676,,144872,,1690467660,144744606,"""world""",,,3.320366621017456,13.242274284362793,0.20151548087596893
1690467660164819157,,144873,,1690467660,164733368,"""world""",,,3.3204095363616943,13.242257118225098,0.20154961943626404
1690467660174823745,,144874,,1690467660,174727033,"""world""",,,3.3203976154327393,13.242274284362793,0.20153315365314484
1690467660174831687,,144875,,1690467660,174738620,"""world""",,,3.3202505111694336,13.242256164550781,0.2016526758670807
1690467660184799793,,144876,,1690467660,184724622,"""world""",,,3.320404291152954,13.242279052734375,0.2015247344970703
1690467660194819075,,144877,,1690467660,194726040,"""world""",,,3.3203976154327393,13.242287635803223,0.20153968036174774
1690467660204949629,,144878,,1690467660,204807320,"""world""",,,3.320388078689575,13.242286682128906,0.20151787996292114
1690467660224846936,,144879,,1690467660,224741675,"""world""",,,3.320413827896118,13.242283821105957,0.2015267312526703
1690467660224858224,,144880,,1690467660,224756864,"""world""",,,3.3204152584075928,13.242244720458984,0.20153529942035675
1690467660244814128,,144881,,1690467660,244726612,"""world""",,,3.3204269409179688,13.242252349853516,0.20149797201156616
1690467660254805537,,144882,,1690467660,254720800,"""world""",,,3.3204240798950195,13.242260932922363,0.2015341967344284
1690467660254814195,,144883,,1690467660,254731166,"""world""",,,3.3204469680786133,13.242274284362793,0.20149031281471252
1690467660274815441,,144884,,1690467660,274730137,"""world""",,,3.320375919342041,13.242266654968262,0.20171236991882324
1690467660284816600,,144885,,1690467660,284729148,"""world""",,,3.3204264640808105,13.24224853515625,0.20152844488620758
1690467660284821060,,144886,,1690467660,284740915,"""world""",,,3.320467948913574,13.242283821105957,0.20148299634456635
1690467660304863601,,144887,,1690467660,304725576,"""world""",,,3.320390224456787,13.242271423339844,0.20154178142547607
1690467660314813052,,144888,,1690467660,314727666,"""world""",,,3.3203630447387695,13.242310523986816,0.20166020095348358
1690467660314821465,,144889,,1690467660,314739529,"""world""",,,3.320425271987915,13.242243766784668,0.20152577757835388
1690467660324806094,,144890,,1690467660,324727707,"""world""",,,3.320385694503784,13.242273330688477,0.2015303671360016
1690467660344840234,,144891,,1690467660,344740647,"""world""",,,3.3203914165496826,13.242256164550781,0.20153847336769104
1690467660354793617,,144892,,1690467660,354714967,"""world""",,,3.3203916549682617,13.242210388183594,0.2015354484319687
1690467660354799552,,144893,,1690467660,354723662,"""world""",,,3.320396900177002,13.242266654968262,0.20152372121810913
1690467660374913777,,144894,,1690467660,374762518,"""world""",,,3.320460081100464,13.24226188659668,0.20151056349277496
1690467660374919098,,144895,,1690467660,374806687,"""world""",,,3.3204848766326904,13.242238998413086,0.20164111256599426
1690467660384805717,,144896,,1690467660,384727136,"""world""",,,3.3203957080841064,13.242223739624023,0.20156513154506683
1690467660404827731,,144897,,1690467660,404729257,"""world""",,,3.3204238414764404,13.242199897766113,0.20157356560230255
1690467660414815054,,144898,,1690467660,414728604,"""world""",,,3.320420503616333,13.242157936096191,0.20156890153884888
1690467660424813354,,144899,,1690467660,424726292,"""world""",,,3.3204288482666016,13.242161750793457,0.20157800614833832
1690467660424818749,,144900,,1690467660,424752896,"""world""",,,3.320406913757324,13.24216079711914,0.20157477259635925
1690467660444858308,,144901,,1690467660,444728626,"""world""",,,3.320450782775879,13.242162704467773,0.20157916843891144
1690467660454823905,,144902,,1690467660,454726169,"""world""",,,3.3204479217529297,13.242185592651367,0.20153720676898956
1690467660454834313,,144903,,1690467660,454752684,"""world""",,,3.3204174041748047,13.242213249206543,0.20155714452266693
1690467660474896516,,144904,,1690467660,474764876,"""world""",,,3.3204562664031982,13.242182731628418,0.20157495141029358
1690467660484869771,,144905,,1690467660,484773727,"""world""",,,3.3203938007354736,13.242210388183594,0.20155924558639526
1690467660484879109,,144906,,1690467660,484785069,"""world""",,,3.3204197883605957,13.242202758789062,0.20156675577163696
1690467660504820860,,144907,,1690467660,504734872,"""world""",,,3.3203999996185303,13.242201805114746,0.20166705548763275
1690467660514864437,,144908,,1690467660,514727106,"""world""",,,3.3203723430633545,13.242130279541016,0.20174278318881989
1690467660514875230,,144909,,1690467660,514738292,"""world""",,,3.3204238414764404,13.242137908935547,0.20156240463256836
1690467660534876952,,144910,,1690467660,534750955,"""world""",,,3.320441246032715,13.24211311340332,0.20155729353427887
1690467660544855355,,144911,,1690467660,544742648,"""world""",,,3.320431709289551,13.242100715637207,0.20160356163978577
1690467660544863852,,144912,,1690467660,544775036,"""world""",,,3.320392370223999,13.242149353027344,0.2015744000673294
1690467660554810579,,144913,,1690467660,554725206,"""world""",,,3.320392370223999,13.242056846618652,0.20157727599143982
1690467660574798585,,144914,,1690467660,574711387,"""world""",,,3.3204314708709717,13.242121696472168,0.20159097015857697
1690467660584825419,,144915,,1690467660,584722944,"""world""",,,3.320416212081909,13.242145538330078,0.201582670211792
1690467660594874887,,144916,,1690467660,594739081,"""world""",,,3.320423126220703,13.242134094238281,0.201589897274971
1690467660604867766,,144917,,1690467660,604766020,"""world""",,,3.320460081100464,13.242114067077637,0.20156432688236237
1690467660604873589,,144918,,1690467660,604779150,"""world""",,,3.320246458053589,13.242105484008789,0.20168431103229523
1690467660624811509,,144919,,1690467660,624728713,"""world""",,,3.3204314708709717,13.242144584655762,0.20155464112758636
1690467660634830709,,144920,,1690467660,634744805,"""world""",,,3.320457935333252,13.242100715637207,0.20159731805324554
1690467660644845923,,144921,,1690467660,644764512,"""world""",,,3.3204598426818848,13.242110252380371,0.20157089829444885
1690467660644925036,,144922,,1690467660,644777461,"""world""",,,3.3204097747802734,13.24211597442627,0.20159702003002167
1690467660664873066,,144923,,1690467660,664741504,"""world""",,,3.320521831512451,13.242109298706055,0.2016749083995819
1690467660674925816,,144924,,1690467660,674765090,"""world""",,,3.320448160171509,13.242124557495117,0.20158079266548157
1690467660674938719,,144925,,1690467660,674785227,"""world""",,,3.320422887802124,13.242088317871094,0.20159469544887543
1690467660694859413,,144926,,1690467660,694743210,"""world""",,,3.3204212188720703,13.24211597442627,0.2015966922044754
1690467660704825081,,144927,,1690467660,704727205,"""world""",,,3.3205270767211914,13.24210262298584,0.2015310376882553
1690467660704829644,,144928,,1690467660,704750294,"""world""",,,3.3204267024993896,13.242090225219727,0.20161521434783936
1690467660724847635,,144929,,1690467660,724764311,"""world""",,,3.3204421997070312,13.242112159729004,0.2015804499387741
1690467660734832972,,144930,,1690467660,734738534,"""world""",,,3.320291042327881,13.24207592010498,0.20169904828071594
1690467660744830544,,144931,,1690467660,744739524,"""world""",,,3.3204493522644043,13.242106437683105,0.20159019529819489
1690467660744835698,,144932,,1690467660,744754593,"""world""",,,3.320436954498291,13.242090225219727,0.2015891969203949
1690467660754782627,,144933,,1690467660,754716656,"""world""",,,3.3204894065856934,13.24206829071045,0.2015768587589264
1690467660775202264,,144934,,1690467660,774901210,"""world""",,,3.320598840713501,13.242090225219727,0.20150814950466156
1690467660784831388,,144935,,1690467660,784728866,"""world""",,,3.320434331893921,13.242056846618652,0.2016172558069229
1690467660784835136,,144936,,1690467660,784741809,"""world""",,,3.3204424381256104,13.242035865783691,0.20160868763923645
1690467660804911822,,144937,,1690467660,804767089,"""world""",,,3.3203463554382324,13.242019653320312,0.20178234577178955
1690467660804922759,,144938,,1690467660,804779788,"""world""",,,3.320283889770508,13.242142677307129,0.20185554027557373
1690467660824852659,,144939,,1690467660,824729131,"""world""",,,3.320437431335449,13.242033004760742,0.20161445438861847
1690467660824857042,,144940,,1690467660,824742869,"""world""",,,3.320472002029419,13.242025375366211,0.2016194611787796
1690467660844882722,,144941,,1690467660,844732967,"""world""",,,3.3204848766326904,13.242046356201172,0.20159383118152618
1690467660854828839,,144942,,1690467660,854716334,"""world""",,,3.320483922958374,13.24206256866455,0.2016090452671051
1690467660854833288,,144943,,1690467660,854725535,"""world""",,,3.3206584453582764,13.242067337036133,0.20149241387844086
1690467660864862622,,144944,,1690467660,864763719,"""world""",,,3.3205039501190186,13.24202823638916,0.20161889493465424
1690467660884843230,,144945,,1690467660,884725307,"""world""",,,3.3204495906829834,13.242047309875488,0.20162440836429596
1690467660894961743,,144946,,1690467660,894789364,"""world""",,,3.320432662963867,13.242025375366211,0.20161455869674683
1690467660904854177,,144947,,1690467660,904732589,"""world""",,,3.3204753398895264,13.242013931274414,0.20161031186580658
1690467660904859873,,144948,,1690467660,904746210,"""world""",,,3.3204565048217773,13.24203109741211,0.20169392228126526
1690467660924858171,,144949,,1690467660,924733915,"""world""",,,3.320420980453491,13.242027282714844,0.2016264796257019
1690467660924866892,,144950,,1690467660,924745802,"""world""",,,3.3204569816589355,13.241988182067871,0.20178671181201935
1690467660934816097,,144951,,1690467660,934726980,"""world""",,,3.3204805850982666,13.241958618164062,0.20163898169994354
1690467660944900424,,144952,,1690467660,944730513,"""world""",,,3.32027268409729,13.241985321044922,0.20172226428985596
1690467660964889385,,144953,,1690467660,964730788,"""world""",,,3.3204574584960938,13.241981506347656,0.20162759721279144
1690467660974874469,,144954,,1690467660,974739698,"""world""",,,3.3205020427703857,13.241837501525879,0.2016572505235672
1690467660974881291,,144955,,1690467660,974754617,"""world""",,,3.3205294609069824,13.241915702819824,0.2016758769750595
1690467660984916206,,144956,,1690467660,984760621,"""world""",,,3.3205013275146484,13.241827964782715,0.2016277015209198
1690467661004855711,,144957,,1690467661,4734557,"""world""",,,3.3204996585845947,13.241902351379395,0.2016671597957611
1690467661004864950,,144958,,1690467661,4747224,"""world""",,,3.320502758026123,13.241788864135742,0.20167429745197296
1690467661024907839,,144959,,1690467661,24741254,"""world""",,,3.3205044269561768,13.241913795471191,0.20169997215270996
1690467661024914640,,144960,,1690467661,24757387,"""world""",,,3.3203623294830322,13.241915702819824,0.20182467997074127
1690467661044823214,,144961,,1690467661,44728542,"""world""",,,3.3204782009124756,13.241923332214355,0.2016635239124298
1690467661054832440,,144962,,1690467661,54727387,"""world""",,,3.320486545562744,13.241893768310547,0.2017093002796173
1690467661054838291,,144963,,1690467661,54738404,"""world""",,,3.3204808235168457,13.241927146911621,0.20168866217136383
1690467661074864209,,144964,,1690467661,74745548,"""world""",,,3.320455312728882,13.241931915283203,0.20166529715061188
1690467661084864214,,144965,,1690467661,84763116,"""world""",,,3.320542335510254,13.241949081420898,0.2016187459230423
1690467661084873431,,144966,,1690467661,84775755,"""world""",,,3.3205127716064453,13.241889953613281,0.2017151266336441
1690467661104846302,,144967,,1690467661,104734145,"""world""",,,3.32051157951355,13.241939544677734,0.20177079737186432
1690467661114849510,,144968,,1690467661,114729930,"""world""",,,3.3205249309539795,13.241896629333496,0.20170369744300842
1690467661114858527,,144969,,1690467661,114746507,"""world""",,,3.320524215698242,13.24184799194336,0.20169685781002045
1690467661124849995,,144970,,1690467661,124757473,"""world""",,,3.320549249649048,13.241820335388184,0.20169995725154877
1690467661144882148,,144971,,1690467661,144770329,"""world""",,,3.3205862045288086,13.241826057434082,0.20184502005577087
1690467661144888090,,144972,,1690467661,144784625,"""world""",,,3.3205173015594482,13.241830825805664,0.20171412825584412
1690467661154823413,,144973,,1690467661,154730843,"""world""",,,3.3205220699310303,13.24182415008545,0.20171378552913666
1690467661174985724,,144974,,1690467661,174775936,"""world""",,,3.320509672164917,13.241800308227539,0.2017008364200592
1690467661184830421,,144975,,1690467661,184728429,"""world""",,,3.3205182552337646,13.241803169250488,0.2017202228307724
1690467661184836024,,144976,,1690467661,184740576,"""world""",,,3.320479154586792,13.241801261901855,0.20172294974327087
1690467661204836486,,144977,,1690467661,204728022,"""world""",,,3.32053279876709,13.241860389709473,0.2016923725605011
1690467661214812807,,144978,,1690467661,214728594,"""world""",,,3.3205246925354004,13.24185848236084,0.20171283185482025
1690467661224857960,,144979,,1690467661,224730301,"""world""",,,3.3206627368927,13.241847038269043,0.20163695514202118
1690467661224863818,,144980,,1690467661,224743881,"""world""",,,3.3205618858337402,13.24183177947998,0.20174674689769745
1690467661244860851,,144981,,1690467661,244738995,"""world""",,,3.3205313682556152,13.241786003112793,0.2017204910516739
1690467661244872179,,144982,,1690467661,244756992,"""world""",,,3.320517063140869,13.241819381713867,0.20173335075378418
1690467661254828768,,144983,,1690467661,254721453,"""world""",,,3.3206021785736084,13.24173641204834,0.2017374485731125
1690467661275052621,,144984,,1690467661,274842404,"""world""",,,3.3205974102020264,13.241667747497559,0.20175710320472717
1690467661284816811,,144985,,1690467661,284727770,"""world""",,,3.3206098079681396,13.241640090942383,0.20179742574691772
1690467661294865422,,144986,,1690467661,294725539,"""world""",,,3.3206310272216797,13.241626739501953,0.20180119574069977
1690467661294874243,,144987,,1690467661,294740688,"""world""",,,3.3206381797790527,13.241628646850586,0.20179754495620728
1690467661314813809,,144988,,1690467661,314727467,"""world""",,,3.3206582069396973,13.241608619689941,0.20185486972332
1690467661324841915,,144989,,1690467661,324728250,"""world""",,,3.3206708431243896,13.241559028625488,0.20189116895198822
1690467661324851568,,144990,,1690467661,324739500,"""world""",,,3.3206818103790283,13.241497039794922,0.20189127326011658
1690467661334861742,,144991,,1690467661,334732831,"""world""",,,3.3207132816314697,13.241497039794922,0.2019079476594925
1690467661354810538,,144992,,1690467661,354718571,"""world""",,,3.3206915855407715,13.241494178771973,0.2019493281841278
1690467661354820500,,144993,,1690467661,354730379,"""world""",,,3.3207197189331055,13.241464614868164,0.2019616961479187
1690467661374886802,,144994,,1690467661,374753899,"""world""",,,3.3207530975341797,13.24144458770752,0.20198339223861694
1690467661384888922,,144995,,1690467661,384781707,"""world""",,,3.320765495300293,13.241385459899902,0.20199546217918396
1690467661394913799,,144996,,1690467661,394726839,"""world""",,,3.3207204341888428,13.241375923156738,0.20202448964118958
1690467661394923709,,144997,,1690467661,394737870,"""world""",,,3.3206381797790527,13.241326332092285,0.20202584564685822
1690467661404842366,,144998,,1690467661,404727326,"""world""",,,3.3208823204040527,13.241416931152344,0.20190638303756714
1690467661424847665,,144999,,1690467661,424728802,"""world""",,,3.3207435607910156,13.241427421569824,0.2019827514886856
1690467661424856724,,145000,,1690467661,424741813,"""world""",,,3.32073712348938,13.241487503051758,0.20200215280056
1690467661434852662,,145001,,1690467661,434736698,"""world""",,,3.3207571506500244,13.241466522216797,0.2019837498664856
1690467661444816778,,145002,,1690467661,444731158,"""world""",,,3.3206796646118164,13.241479873657227,0.20197057723999023
1690467661454804563,,145003,,1690467661,454724870,"""world""",,,3.320676803588867,13.241500854492188,0.20196010172367096
1690467661474836426,,145004,,1690467661,474733672,"""world""",,,3.320660352706909,13.241483688354492,0.20194211602210999
1690467661474840405,,145005,,1690467661,474747176,"""world""",,,3.3206217288970947,13.241487503051758,0.20190724730491638
1690467661494814347,,145006,,1690467661,494728810,"""world""",,,3.320624351501465,13.241499900817871,0.20188571512699127
1690467661504823446,,145007,,1690467661,504736261,"""world""",,,3.320650339126587,13.241511344909668,0.2018880546092987
1690467661504833136,,145008,,1690467661,504765895,"""world""",,,3.3205268383026123,13.241507530212402,0.20193204283714294
1690467661524846337,,145009,,1690467661,524727773,"""world""",,,3.3208065032958984,13.241543769836426,0.20186014473438263
1690467661534836055,,145010,,1690467661,534729599,"""world""",,,3.3207099437713623,13.241528511047363,0.20192950963974
1690467661534844626,,145011,,1690467661,534741011,"""world""",,,3.3207008838653564,13.241497039794922,0.2019459456205368
1690467661554804286,,145012,,1690467661,554723965,"""world""",,,3.3205959796905518,13.2413330078125,0.20185336470603943
1690467661564820173,,145013,,1690467661,564728971,"""world""",,,3.32069993019104,13.241497993469238,0.20199428498744965
1690467661564828310,,145014,,1690467661,564740270,"""world""",,,3.3207249641418457,13.24146556854248,0.20190510153770447
1690467661574876942,,145015,,1690467661,574742708,"""world""",,,3.3207273483276367,13.24146842956543,0.20196174085140228
1690467661594791869,,145016,,1690467661,594694163,"""world""",,,3.320709228515625,13.24146556854248,0.20195408165454865
1690467661604824366,,145017,,1690467661,604727367,"""world""",,,3.3206701278686523,13.241462707519531,0.20195643603801727
1690467661604833001,,145018,,1690467661,604738819,"""world""",,,3.320652484893799,13.24144172668457,0.20195123553276062
1690467661624812415,,145019,,1690467661,624730761,"""world""",,,3.3205461502075195,13.24145221710205,0.20197178423404694
1690467661634810663,,145020,,1690467661,634727720,"""world""",,,3.320725679397583,13.241449356079102,0.20187529921531677
1690467661634818426,,145021,,1690467661,634739733,"""world""",,,3.320678472518921,13.241451263427734,0.20189209282398224
1690467661644850489,,145022,,1690467661,644728300,"""world""",,,3.320700168609619,13.24145221710205,0.20194965600967407
1690467661654789927,,145023,,1690467661,654720841,"""world""",,,3.320618152618408,13.241394996643066,0.20199093222618103
1690467661675030967,,145024,,1690467661,674812182,"""world""",,,3.320793390274048,13.241454124450684,0.20190110802650452
1690467661684845881,,145025,,1690467661,684757485,"""world""",,,3.320737361907959,13.241372108459473,0.20200183987617493
1690467661684850609,,145026,,1690467661,684769124,"""world""",,,3.320732831954956,13.241389274597168,0.20208220183849335
1690467661694830710,,145027,,1690467661,694757834,"""world""",,,3.3207688331604004,13.241301536560059,0.20200958847999573
1690467661714841112,,145028,,1690467661,714725289,"""world""",,,3.3208110332489014,13.241339683532715,0.20197108387947083
1690467661724823380,,145029,,1690467661,724730342,"""world""",,,3.3208022117614746,13.241312026977539,0.20202729105949402
1690467661724828450,,145030,,1690467661,724743484,"""world""",,,3.320802688598633,13.241345405578613,0.20203332602977753
1690467661744815239,,145031,,1690467661,744731048,"""world""",,,3.320876121520996,13.24136734008789,0.20215606689453125
1690467661754825231,,145032,,1690467661,754726333,"""world""",,,3.3209471702575684,13.241349220275879,0.20198750495910645
1690467661754835010,,145033,,1690467661,754739048,"""world""",,,3.3207881450653076,13.241326332092285,0.20204876363277435
1690467661774840771,,145034,,1690467661,774738101,"""world""",,,3.3207919597625732,13.241303443908691,0.2020224630832672
1690467661784842424,,145035,,1690467661,784726254,"""world""",,,3.3206493854522705,13.241311073303223,0.2020687758922577
1690467661794858866,,145036,,1690467661,794740638,"""world""",,,3.3207316398620605,13.241308212280273,0.2020176649093628
1690467661804822751,,145037,,1690467661,804729267,"""world""",,,3.320742130279541,13.24131965637207,0.20202592015266418
1690467661804831996,,145038,,1690467661,804740686,"""world""",,,3.3207476139068604,13.241312980651855,0.20204123854637146
1690467661824844332,,145039,,1690467661,824758991,"""world""",,,3.320751428604126,13.241307258605957,0.20205871760845184
1690467661834867285,,145040,,1690467661,834740330,"""world""",,,3.3207576274871826,13.241271018981934,0.2020537555217743
1690467661834876750,,145041,,1690467661,834755980,"""world""",,,3.320859432220459,13.24129867553711,0.20202840864658356
1690467661854815723,,145042,,1690467661,854724620,"""world""",,,3.3207993507385254,13.2412691116333,0.2020888328552246
1690467661864810653,,145043,,1690467661,864730770,"""world""",,,3.320821762084961,13.241259574890137,0.20207586884498596
1690467661874965522,,145044,,1690467661,874776897,"""world""",,,3.320861339569092,13.24124526977539,0.20205770432949066
1690467661874983366,,145045,,1690467661,874829803,"""world""",,,3.3208820819854736,13.241161346435547,0.20203201472759247
1690467661884866674,,145046,,1690467661,884760136,"""world""",,,3.320864200592041,13.241255760192871,0.20207928121089935
1690467661904822820,,145047,,1690467661,904724331,"""world""",,,3.3208744525909424,13.241225242614746,0.20209306478500366
1690467661904832650,,145048,,1690467661,904736399,"""world""",,,3.320896863937378,13.241229057312012,0.202104389667511
1690467661924818032,,145049,,1690467661,924730179,"""world""",,,3.320857286453247,13.241192817687988,0.20212334394454956
1690467661934869301,,145050,,1690467661,934728889,"""world""",,,3.3208320140838623,13.241166114807129,0.2021353542804718
1690467661944862375,,145051,,1690467661,944736110,"""world""",,,3.320765495300293,13.241119384765625,0.2022065818309784
1690467661944874907,,145052,,1690467661,944750517,"""world""",,,3.3208439350128174,13.241068840026855,0.2021324783563614
1690467661964856946,,145053,,1690467661,964728100,"""world""",,,3.320991039276123,13.241082191467285,0.20215490460395813
1690467661974921470,,145054,,1690467661,974775730,"""world""",,,3.320955753326416,13.241069793701172,0.2022021859884262
1690467661974929132,,145055,,1690467661,974799850,"""world""",,,3.320962905883789,13.24106216430664,0.20219990611076355
1690467661984849536,,145056,,1690467661,984729704,"""world""",,,3.320957899093628,13.241085052490234,0.2022550255060196
1690467661994803681,,145057,,1690467661,994720279,"""world""",,,3.3209869861602783,13.241046905517578,0.20218299329280853
1690467662004811736,,145058,,1690467662,4724166,"""world""",,,3.3210482597351074,13.240992546081543,0.2022307813167572
1690467662024825798,,145059,,1690467662,24735225,"""world""",,,3.320960283279419,13.24089241027832,0.20216988027095795
1690467662034827441,,145060,,1690467662,34727594,"""world""",,,3.3210599422454834,13.240989685058594,0.20225712656974792
1690467662044831802,,145061,,1690467662,44731009,"""world""",,,3.321043014526367,13.240921974182129,0.20229820907115936
1690467662054809696,,145062,,1690467662,54718784,"""world""",,,3.3210396766662598,13.240951538085938,0.20240624248981476
1690467662054816787,,145063,,1690467662,54728701,"""world""",,,3.321073293685913,13.240899085998535,0.2022947520017624
1690467662074893875,,145064,,1690467662,74766744,"""world""",,,3.321066379547119,13.240875244140625,0.20230011641979218
1690467662084827713,,145065,,1690467662,84724962,"""world""",,,3.3210692405700684,13.240852355957031,0.20234368741512299
1690467662084834529,,145066,,1690467662,84735823,"""world""",,,3.321099281311035,13.240788459777832,0.20235799252986908
1690467662104845689,,145067,,1690467662,104728423,"""world""",,,3.320985794067383,13.240744590759277,0.20240624248981476
1690467662114851088,,145068,,1690467662,114724930,"""world""",,,3.321070671081543,13.240645408630371,0.20240682363510132
1690467662114859836,,145069,,1690467662,114735880,"""world""",,,3.321106195449829,13.240605354309082,0.2024356871843338
1690467662134888397,,145070,,1690467662,134759431,"""world""",,,3.32118821144104,13.24055290222168,0.20246578752994537
1690467662144826922,,145071,,1690467662,144731722,"""world""",,,3.321164131164551,13.24048900604248,0.20250919461250305
1690467662154812516,,145072,,1690467662,154721076,"""world""",,,3.3212368488311768,13.240389823913574,0.20252259075641632
1690467662154820700,,145073,,1690467662,154731522,"""world""",,,3.3212873935699463,13.240317344665527,0.20256011188030243
1690467662174871519,,145074,,1690467662,174732501,"""world""",,,3.321352243423462,13.240256309509277,0.2025705873966217
1690467662184857086,,145075,,1690467662,184731921,"""world""",,,3.3214070796966553,13.240195274353027,0.20261217653751373
1690467662184869700,,145076,,1690467662,184745516,"""world""",,,3.3214023113250732,13.240113258361816,0.20262059569358826
1690467662204842581,,145077,,1690467662,204735133,"""world""",,,3.321385145187378,13.240032196044922,0.20266272127628326
1690467662214824257,,145078,,1690467662,214732992,"""world""",,,3.3214526176452637,13.239988327026367,0.20266006886959076
1690467662224826936,,145079,,1690467662,224730600,"""world""",,,3.3213717937469482,13.239907264709473,0.20272308588027954
1690467662224837862,,145080,,1690467662,224761415,"""world""",,,3.3213493824005127,13.239847183227539,0.20271018147468567
1690467662234870181,,145081,,1690467662,234742173,"""world""",,,3.321268081665039,13.239862442016602,0.20293565094470978
1690467662244896763,,145082,,1690467662,244733654,"""world""",,,3.321361541748047,13.239747047424316,0.20281825959682465
1690467662264912971,,145083,,1690467662,264750041,"""world""",,,3.32137393951416,13.239710807800293,0.202801913022995
1690467662275094749,,145084,,1690467662,274759020,"""world""",,,3.3213937282562256,13.239681243896484,0.20284812152385712
1690467662284860550,,145085,,1690467662,284775901,"""world""",,,3.3214762210845947,13.239659309387207,0.2028585523366928
1690467662294842696,,145086,,1690467662,294731238,"""world""",,,3.3214573860168457,13.239653587341309,0.20288784801959991
1690467662304868781,,145087,,1690467662,304732995,"""world""",,,3.3214635848999023,13.239684104919434,0.20285211503505707
1690467662304878594,,145088,,1690467662,304746503,"""world""",,,3.3214914798736572,13.239675521850586,0.20283924043178558
1690467662324849536,,145089,,1690467662,324732629,"""world""",,,3.321531057357788,13.239710807800293,0.20279215276241302
1690467662334821305,,145090,,1690467662,334732008,"""world""",,,3.3215272426605225,13.239686965942383,0.202773779630661
1690467662334841151,,145091,,1690467662,334759362,"""world""",,,3.321415424346924,13.239706993103027,0.2028517872095108
1690467662354829545,,145092,,1690467662,354729733,"""world""",,,3.3213953971862793,13.239655494689941,0.20282255113124847
1690467662364847275,,145093,,1690467662,364743757,"""world""",,,3.3213648796081543,13.23963737487793,0.20283666253089905
1690467662364863408,,145094,,1690467662,364772459,"""world""",,,3.3213865756988525,13.239592552185059,0.20282550156116486
1690467662374944058,,145095,,1690467662,374779546,"""world""",,,3.321359872817993,13.239545822143555,0.20284408330917358
1690467662394807445,,145096,,1690467662,394719713,"""world""",,,3.3213796615600586,13.239489555358887,0.20286525785923004
1690467662394816584,,145097,,1690467662,394731622,"""world""",,,3.321420907974243,13.239350318908691,0.20294849574565887
1690467662404820322,,145098,,1690467662,404730099,"""world""",,,3.3214852809906006,13.239339828491211,0.2029861956834793
1690467662424823043,,145099,,1690467662,424729902,"""world""",,,3.3215503692626953,13.239256858825684,0.20306697487831116
1690467662434888010,,145100,,1690467662,434759346,"""world""",,,3.3215835094451904,13.239164352416992,0.20323175191879272
1690467662434894979,,145101,,1690467662,434772152,"""world""",,,3.3216686248779297,13.23903751373291,0.20317292213439941
1690467662454837744,,145102,,1690467662,454721828,"""world""",,,3.321615219116211,13.238916397094727,0.20320068299770355
1690467662464838442,,145103,,1690467662,464730641,"""world""",,,3.321653366088867,13.238816261291504,0.2032925933599472
1690467662475047624,,145104,,1690467662,474766814,"""world""",,,3.321593761444092,13.238805770874023,0.20350658893585205
1690467662475053581,,145105,,1690467662,474781674,"""world""",,,3.321676015853882,13.238637924194336,0.2033824771642685
1690467662494837268,,145106,,1690467662,494715094,"""world""",,,3.321634292602539,13.238458633422852,0.2035093456506729
1690467662504849826,,145107,,1690467662,504734439,"""world""",,,3.3216464519500732,13.238333702087402,0.20358742773532867
1690467662504861255,,145108,,1690467662,504748417,"""world""",,,3.321669816970825,13.238228797912598,0.20367074012756348
1690467662524828662,,145109,,1690467662,524735059,"""world""",,,3.321624755859375,13.238140106201172,0.20371568202972412
1690467662534875494,,145110,,1690467662,534740186,"""world""",,,3.321603775024414,13.237972259521484,0.20384538173675537
1690467662534890407,,145111,,1690467662,534756579,"""world""",,,3.321549415588379,13.237808227539062,0.20395492017269135
1690467662554822800,,145112,,1690467662,554733419,"""world""",,,3.321530342102051,13.237602233886719,0.20407044887542725
1690467662564839892,,145113,,1690467662,564732172,"""world""",,,3.3215670585632324,13.237427711486816,0.204187273979187
1690467662564849579,,145114,,1690467662,564744484,"""world""",,,3.321561813354492,13.237242698669434,0.2043323963880539
1690467662584886446,,145115,,1690467662,584758056,"""world""",,,3.321589469909668,13.237071990966797,0.20446272194385529
1690467662594843912,,145116,,1690467662,594752658,"""world""",,,3.321596145629883,13.236839294433594,0.20465300977230072
1690467662594854041,,145117,,1690467662,594763310,"""world""",,,3.3215692043304443,13.236557960510254,0.20489928126335144
1690467662614840476,,145118,,1690467662,614730287,"""world""",,,3.3215956687927246,13.23624324798584,0.2050667405128479
1690467662624830373,,145119,,1690467662,624730836,"""world""",,,3.3215808868408203,13.235880851745605,0.2052605301141739
1690467662624837561,,145120,,1690467662,624745225,"""world""",,,3.3216848373413086,13.235450744628906,0.20529906451702118
1690467662634830079,,145121,,1690467662,634734319,"""world""",,,3.3215818405151367,13.235024452209473,0.20563052594661713
1690467662644814144,,145122,,1690467662,644728838,"""world""",,,3.3215103149414062,13.234598159790039,0.20590561628341675
1690467662664836184,,145123,,1690467662,664736498,"""world""",,,3.3215065002441406,13.234149932861328,0.20618464052677155
1690467662674928061,,145124,,1690467662,674785749,"""world""",,,3.3214850425720215,13.233660697937012,0.20653268694877625
1690467662684816223,,145125,,1690467662,684726822,"""world""",,,3.321481704711914,13.233047485351562,0.2069462537765503
1690467662684822850,,145126,,1690467662,684739196,"""world""",,,3.321453332901001,13.232465744018555,0.20735077559947968
1690467662694803206,,145127,,1690467662,694722810,"""world""",,,3.321290969848633,13.231882095336914,0.207615464925766
1690467662714811920,,145128,,1690467662,714727460,"""world""",,,3.321370840072632,13.231206893920898,0.2079300880432129
1690467662724822874,,145129,,1690467662,724726102,"""world""",,,3.321315288543701,13.230494499206543,0.20833328366279602
1690467662724830648,,145130,,1690467662,724737679,"""world""",,,3.321376323699951,13.229883193969727,0.20865753293037415
1690467662744832323,,145131,,1690467662,744727767,"""world""",,,3.3214306831359863,13.229159355163574,0.209067240357399
1690467662744839288,,145132,,1690467662,744740795,"""world""",,,3.3216288089752197,13.228504180908203,0.20941601693630219
1690467662754824867,,145133,,1690467662,754725771,"""world""",,,3.321427345275879,13.227773666381836,0.20999062061309814
1690467662774855678,,145134,,1690467662,774736335,"""world""",,,3.3213016986846924,13.226875305175781,0.21051150560379028
1690467662784892417,,145135,,1690467662,784762660,"""world""",,,3.3214282989501953,13.225984573364258,0.2108137160539627
1690467662784903026,,145136,,1690467662,784776432,"""world""",,,3.321418523788452,13.225205421447754,0.21113966405391693
1690467662804838751,,145137,,1690467662,804737657,"""world""",,,3.3215086460113525,13.224289894104004,0.2115388661623001
1690467662804847116,,145138,,1690467662,804755019,"""world""",,,3.321491241455078,13.223442077636719,0.2119673490524292
1690467662824819790,,145139,,1690467662,824730791,"""world""",,,3.3215255737304688,13.22247314453125,0.21220821142196655
1690467662834822679,,145140,,1690467662,834734621,"""world""",,,3.3215291500091553,13.22159194946289,0.21241599321365356
1690467662844842726,,145141,,1690467662,844729577,"""world""",,,3.3214285373687744,13.220647811889648,0.2126457244157791
1690467662844852123,,145142,,1690467662,844743118,"""world""",,,3.3212993144989014,13.21968936920166,0.21299684047698975
1690467662864832164,,145143,,1690467662,864737593,"""world""",,,3.321378707885742,13.218576431274414,0.2130046933889389
1690467662874867984,,145144,,1690467662,874748047,"""world""",,,3.3214845657348633,13.217288970947266,0.2126476764678955
1690467662884806567,,145145,,1690467662,884726793,"""world""",,,3.3216142654418945,13.216278076171875,0.2125324308872223
1690467662894794619,,145146,,1690467662,894715425,"""world""",,,3.3215715885162354,13.215141296386719,0.2124440222978592
1690467662904862727,,145147,,1690467662,904747910,"""world""",,,3.321542739868164,13.213910102844238,0.2122623473405838
1690467662904868508,,145148,,1690467662,904791404,"""world""",,,3.3214783668518066,13.2127103805542,0.21209783852100372
1690467662924811843,,145149,,1690467662,924728406,"""world""",,,3.321708917617798,13.211416244506836,0.21195942163467407
1690467662934886920,,145150,,1690467662,934751948,"""world""",,,3.3217110633850098,13.210150718688965,0.21138595044612885
1690467662934899161,,145151,,1690467662,934771269,"""world""",,,3.3215532302856445,13.208869934082031,0.21111296117305756
1690467662954803053,,145152,,1690467662,954720832,"""world""",,,3.321479320526123,13.20766544342041,0.2108062207698822
1690467662964823036,,145153,,1690467662,964722802,"""world""",,,3.3215816020965576,13.20633602142334,0.2103613168001175
1690467662974934579,,145154,,1690467662,974755026,"""world""",,,3.321719169616699,13.204824447631836,0.20988473296165466
1690467662984836520,,145155,,1690467662,984725984,"""world""",,,3.32157039642334,13.203490257263184,0.20964264869689941
1690467662994787187,,145156,,1690467662,994714643,"""world""",,,3.321622610092163,13.202108383178711,0.20918191969394684
1690467663004844240,,145157,,1690467663,4738823,"""world""",,,3.3215982913970947,13.200762748718262,0.20888733863830566
1690467663004854548,,145158,,1690467663,4758417,"""world""",,,3.3215506076812744,13.199324607849121,0.20855657756328583
1690467663024813377,,145159,,1690467663,24729273,"""world""",,,3.3215172290802,13.197843551635742,0.20833152532577515
1690467663034842698,,145160,,1690467663,34739810,"""world""",,,3.3215019702911377,13.196269989013672,0.20781251788139343
1690467663044832777,,145161,,1690467663,44730802,"""world""",,,3.3215842247009277,13.194840431213379,0.20735353231430054
1690467663044836482,,145162,,1690467663,44743107,"""world""",,,3.321229934692383,13.193266868591309,0.20719626545906067
1690467663064831897,,145163,,1690467663,64735045,"""world""",,,3.3211727142333984,13.191692352294922,0.20684389770030975
1690467663074934991,,145164,,1690467663,74786173,"""world""",,,3.321195602416992,13.19000244140625,0.20641952753067017
1690467663074949659,,145165,,1690467663,74811080,"""world""",,,3.320817708969116,13.188232421875,0.20611125230789185
1690467663094822610,,145166,,1690467663,94725603,"""world""",,,3.320737838745117,13.186634063720703,0.20576854050159454
1690467663104859426,,145167,,1690467663,104747766,"""world""",,,3.3205511569976807,13.18486499786377,0.205424502491951
1690467663114811830,,145168,,1690467663,114729559,"""world""",,,3.320289134979248,13.183137893676758,0.2051590532064438
1690467663124822290,,145169,,1690467663,124730363,"""world""",,,3.3201823234558105,13.181435585021973,0.20477856695652008
1690467663134826798,,145170,,1690467663,134731969,"""world""",,,3.319979667663574,13.179681777954102,0.20442074537277222
1690467663144830300,,145171,,1690467663,144731886,"""world""",,,3.319690465927124,13.17807674407959,0.20423030853271484
1690467663144833607,,145172,,1690467663,144744893,"""world""",,,3.3196442127227783,13.17628288269043,0.20385952293872833
1690467663164828251,,145173,,1690467663,164727182,"""world""",,,3.319385528564453,13.17459487915039,0.20365555584430695
1690467663174928652,,145174,,1690467663,174762905,"""world""",,,3.3192763328552246,13.172786712646484,0.20339280366897583
1690467663174934721,,145175,,1690467663,174782733,"""world""",,,3.319016695022583,13.170903205871582,0.2032507210969925
1690467663194807322,,145176,,1690467663,194724949,"""world""",,,3.31874942779541,13.169170379638672,0.20312313735485077
1690467663204880272,,145177,,1690467663,204743209,"""world""",,,3.318622350692749,13.167255401611328,0.20293667912483215
1690467663204895404,,145178,,1690467663,204785552,"""world""",,,3.318350315093994,13.165426254272461,0.20287470519542694
1690467663224840790,,145179,,1690467663,224738691,"""world""",,,3.3181135654449463,13.163679122924805,0.20278261601924896
1690467663234827266,,145180,,1690467663,234732683,"""world""",,,3.3179824352264404,13.16189956665039,0.2028747946023941
1690467663244874964,,145181,,1690467663,244729754,"""world""",,,3.317547559738159,13.160028457641602,0.2030060738325119
1690467663244885129,,145182,,1690467663,244743089,"""world""",,,3.3172497749328613,13.158269882202148,0.20312318205833435
1690467663264834739,,145183,,1690467663,264725310,"""world""",,,3.3170087337493896,13.15636920928955,0.20329788327217102
1690467663274955291,,145184,,1690467663,274767998,"""world""",,,3.316577434539795,13.154579162597656,0.20381318032741547
1690467663274967315,,145185,,1690467663,274796405,"""world""",,,3.316267967224121,13.152793884277344,0.20434395968914032
1690467663294792347,,145186,,1690467663,294716507,"""world""",,,3.3160817623138428,13.150885581970215,0.2045629471540451
1690467663304864400,,145187,,1690467663,304746021,"""world""",,,3.315790891647339,13.149118423461914,0.20507293939590454
1690467663304879024,,145188,,1690467663,304776483,"""world""",,,3.315554618835449,13.147360801696777,0.20573580265045166
1690467663324815196,,145189,,1690467663,324726797,"""world""",,,3.315364122390747,13.145638465881348,0.20632733404636383
1690467663324823475,,145190,,1690467663,324738743,"""world""",,,3.315070390701294,13.143786430358887,0.2069675326347351
1690467663344832720,,145191,,1690467663,344734733,"""world""",,,3.3147668838500977,13.142162322998047,0.20782653987407684
1690467663354820878,,145192,,1690467663,354749129,"""world""",,,3.3146111965179443,13.14051342010498,0.20857100188732147
1690467663364847272,,145193,,1690467663,364765310,"""world""",,,3.3144190311431885,13.138755798339844,0.20931529998779297
1690467663375023751,,145194,,1690467663,374782172,"""world""",,,3.3141186237335205,13.13708782196045,0.21023890376091003
1690467663384808066,,145195,,1690467663,384727164,"""world""",,,3.313730239868164,13.135366439819336,0.2111823558807373
1690467663394789552,,145196,,1690467663,394713649,"""world""",,,3.313448667526245,13.133736610412598,0.2121654748916626
1690467663394798144,,145197,,1690467663,394722831,"""world""",,,3.3134732246398926,13.132062911987305,0.21300308406352997
1690467663414821695,,145198,,1690467663,414726818,"""world""",,,3.31317138671875,13.130536079406738,0.21407955884933472
1690467663414831139,,145199,,1690467663,414738961,"""world""",,,3.3131377696990967,13.128998756408691,0.2149754911661148
1690467663424812967,,145200,,1690467663,424728253,"""world""",,,3.3128223419189453,13.127293586730957,0.2160431146621704
1690467663434928976,,145201,,1690467663,434757156,"""world""",,,3.3123066425323486,13.125770568847656,0.21723875403404236
1690467663454820375,,145202,,1690467663,454722693,"""world""",,,3.312321662902832,13.12418270111084,0.21841061115264893
1690467663454828407,,145203,,1690467663,454734530,"""world""",,,3.3120057582855225,13.122591972351074,0.21955940127372742
1690467663474872187,,145204,,1690467663,474746877,"""world""",,,3.311786413192749,13.121070861816406,0.2207941710948944
1690467663484823282,,145205,,1690467663,484729761,"""world""",,,3.3115463256835938,13.119600296020508,0.2220226228237152
1690467663484831732,,145206,,1690467663,484741325,"""world""",,,3.3111681938171387,13.118175506591797,0.22339923679828644
1690467663494819753,,145207,,1690467663,494730875,"""world""",,,3.3109054565429688,13.116694450378418,0.2247333824634552
1690467663514810222,,145208,,1690467663,514728786,"""world""",,,3.3105266094207764,13.115201950073242,0.2261318564414978
1690467663524826332,,145209,,1690467663,524730182,"""world""",,,3.310248851776123,13.11385440826416,0.2275547832250595
1690467663524836737,,145210,,1690467663,524743169,"""world""",,,3.3100173473358154,13.112555503845215,0.2291550636291504
1690467663544835842,,145211,,1690467663,544732797,"""world""",,,3.3098018169403076,13.111261367797852,0.23069807887077332
1690467663554825138,,145212,,1690467663,554726007,"""world""",,,3.309494733810425,13.109929084777832,0.23221392929553986
1690467663564872480,,145213,,1690467663,564735823,"""world""",,,3.3092286586761475,13.108619689941406,0.23372234404087067
1690467663574855917,,145214,,1690467663,574761951,"""world""",,,3.3087351322174072,13.107434272766113,0.23546741902828217
1690467663584840427,,145215,,1690467663,584731317,"""world""",,,3.308584690093994,13.106297492980957,0.2372661679983139
1690467663584848524,,145216,,1690467663,584744034,"""world""",,,3.3083133697509766,13.105082511901855,0.2391141802072525
1690467663604865508,,145217,,1690467663,604732866,"""world""",,,3.3080286979675293,13.103801727294922,0.24083168804645538
1690467663614834146,,145218,,1690467663,614729392,"""world""",,,3.3077518939971924,13.102611541748047,0.24288144707679749
1690467663614843467,,145219,,1690467663,614740966,"""world""",,,3.3074615001678467,13.10162353515625,0.2447301298379898
1690467663624862804,,145220,,1690467663,624729907,"""world""",,,3.307098865509033,13.100422859191895,0.24675217270851135
1690467663644833212,,145221,,1690467663,644731486,"""world""",,,3.306806802749634,13.099337577819824,0.24872370064258575
1690467663654838392,,145222,,1690467663,654727782,"""world""",,,3.3064656257629395,13.09827709197998,0.2508358955383301
1690467663654843434,,145223,,1690467663,654739939,"""world""",,,3.3062167167663574,13.097334861755371,0.25293847918510437
1690467663674852324,,145224,,1690467663,674735098,"""world""",,,3.3059680461883545,13.096351623535156,0.25514814257621765
1690467663684829313,,145225,,1690467663,684729359,"""world""",,,3.305762767791748,13.095595359802246,0.25726118683815
1690467663684834773,,145226,,1690467663,684741869,"""world""",,,3.305396318435669,13.09469223022461,0.25960251688957214
1690467663704808032,,145227,,1690467663,704723476,"""world""",,,3.305070400238037,13.09383487701416,0.2618241012096405
1690467663714816429,,145228,,1690467663,714729865,"""world""",,,3.3048884868621826,13.093037605285645,0.2640579044818878
1690467663724832183,,145229,,1690467663,724733236,"""world""",,,3.3045668601989746,13.09221076965332,0.2664065659046173
1690467663724844332,,145230,,1690467663,724745471,"""world""",,,3.3044168949127197,13.091475486755371,0.26870888471603394
1690467663744818494,,145231,,1690467663,744729071,"""world""",,,3.304173469543457,13.090679168701172,0.2710169851779938
1690467663754805167,,145232,,1690467663,754719130,"""world""",,,3.3039467334747314,13.090150833129883,0.27339503169059753
1690467663754815247,,145233,,1690467663,754730457,"""world""",,,3.303400754928589,13.089550971984863,0.2761067748069763
1690467663774852364,,145234,,1690467663,774741011,"""world""",,,3.3035521507263184,13.088823318481445,0.2782019376754761
1690467663784817125,,145235,,1690467663,784727970,"""world""",,,3.3032634258270264,13.08835506439209,0.28077971935272217
1690467663794830755,,145236,,1690467663,794731390,"""world""",,,3.3030478954315186,13.08773422241211,0.28324344754219055
1690467663794842239,,145237,,1690467663,794742680,"""world""",,,3.3028299808502197,13.087207794189453,0.285651832818985
1690467663814840143,,145238,,1690467663,814737433,"""world""",,,3.302657127380371,13.086771011352539,0.2883095145225525
1690467663824815796,,145239,,1690467663,824730611,"""world""",,,3.3025996685028076,13.086236953735352,0.2908383011817932
1690467663834848998,,145240,,1690467663,834736770,"""world""",,,3.302415370941162,13.085897445678711,0.2932860553264618
1690467663834871107,,145241,,1690467663,834753077,"""world""",,,3.3022329807281494,13.08554744720459,0.29600080847740173
1690467663854800811,,145242,,1690467663,854720538,"""world""",,,3.302236318588257,13.085147857666016,0.2985386252403259
1690467663864839197,,145243,,1690467663,864736155,"""world""",,,3.30190110206604,13.084771156311035,0.30128780007362366
1690467663864852209,,145244,,1690467663,864766540,"""world""",,,3.301905393600464,13.084515571594238,0.30379143357276917
1690467663874962920,,145245,,1690467663,874766378,"""world""",,,3.30143666267395,13.084266662597656,0.30659693479537964
1690467663894814011,,145246,,1690467663,894721202,"""world""",,,3.3015904426574707,13.083941459655762,0.3092678487300873
1690467663894822387,,145247,,1690467663,894731920,"""world""",,,3.301593065261841,13.083757400512695,0.311849445104599
1690467663904844095,,145248,,1690467663,904734613,"""world""",,,3.301457643508911,13.083625793457031,0.31481194496154785
1690467663924886180,,145249,,1690467663,924732211,"""world""",,,3.301367998123169,13.083502769470215,0.3174811601638794
1690467663924893963,,145250,,1690467663,924745390,"""world""",,,3.301292657852173,13.083366394042969,0.32034459710121155
1690467663934840498,,145251,,1690467663,934733200,"""world""",,,3.301199436187744,13.083290100097656,0.32315370440483093
1690467663944843399,,145252,,1690467663,944730337,"""world""",,,3.3012893199920654,13.083391189575195,0.3261111080646515
1690467663964819098,,145253,,1690467663,964730263,"""world""",,,3.30119252204895,13.083417892456055,0.32879093289375305
1690467663974876189,,145254,,1690467663,974747933,"""world""",,,3.301197052001953,13.083378791809082,0.3319825828075409
1690467663974887984,,145255,,1690467663,974764271,"""world""",,,3.3010435104370117,13.083481788635254,0.3347616493701935
1690467663994805074,,145256,,1690467663,994726768,"""world""",,,3.3008923530578613,13.083565711975098,0.3377498984336853
1690467664004832716,,145257,,1690467664,4732561,"""world""",,,3.3009626865386963,13.083876609802246,0.3407345712184906
1690467664004836946,,145258,,1690467664,4744447,"""world""",,,3.300762414932251,13.084016799926758,0.3437611162662506
1690467664024886998,,145259,,1690467664,24760006,"""world""",,,3.30070161819458,13.084176063537598,0.34695374965667725
1690467664034848842,,145260,,1690467664,34733868,"""world""",,,3.3006670475006104,13.084465980529785,0.349960058927536
1690467664034857612,,145261,,1690467664,34747970,"""world""",,,3.300682783126831,13.084905624389648,0.35318782925605774
1690467664054805583,,145262,,1690467664,54724392,"""world""",,,3.3005282878875732,13.085195541381836,0.35640859603881836
1690467664074833160,,145263,,1690467664,74734211,"""world""",,,3.300319194793701,13.08548355102539,0.3595110774040222
1690467664074845257,,145265,,1690467664,74751799,"""world""",,,3.300478219985962,13.086485862731934,0.36609259247779846
1690467664094808830,,145266,,1690467664,94725136,"""world""",,,3.300462484359741,13.086974143981934,0.3693980872631073
1690467664104817875,,145267,,1690467664,104731644,"""world""",,,3.3003227710723877,13.087433815002441,0.3728436827659607
1690467664104826656,,145268,,1690467664,104744040,"""world""",,,3.300391912460327,13.088017463684082,0.376120001077652
1690467664124810460,,145269,,1690467664,124730350,"""world""",,,3.30046010017395,13.088542938232422,0.37950751185417175
1690467664134825060,,145270,,1690467664,134732368,"""world""",,,3.300412178039551,13.089188575744629,0.38308021426200867
1690467664134835749,,145271,,1690467664,134744386,"""world""",,,3.300481081008911,13.089835166931152,0.3864762485027313
1690467664144824327,,145272,,1690467664,144736925,"""world""",,,3.3006861209869385,13.090482711791992,0.3900923430919647
1690467664164833426,,145273,,1690467664,164734878,"""world""",,,3.3004310131073,13.091205596923828,0.3934352397918701
1690467664174964080,,145274,,1690467664,174750911,"""world""",,,3.300568103790283,13.091821670532227,0.3970024883747101
1690467664184812395,,145275,,1690467664,184727804,"""world""",,,3.300614356994629,13.092622756958008,0.40058815479278564
1690467664194781619,,145276,,1690467664,194716303,"""world""",,,3.3005971908569336,13.09335708618164,0.4041285216808319
1690467664204843640,,145277,,1690467664,204736962,"""world""",,,3.3005223274230957,13.094170570373535,0.4078846573829651
1690467664204854736,,145278,,1690467664,204750010,"""world""",,,3.3006491661071777,13.094989776611328,0.41160571575164795
1690467664224813379,,145279,,1690467664,224728068,"""world""",,,3.300546169281006,13.09593391418457,0.4154006540775299
1690467664234869295,,145280,,1690467664,234743437,"""world""",,,3.300816535949707,13.096759796142578,0.4188989996910095
1690467664234880521,,145281,,1690467664,234760901,"""world""",,,3.300628900527954,13.097436904907227,0.4225611984729767
1690467664254861922,,145282,,1690467664,254730472,"""world""",,,3.300994634628296,13.098583221435547,0.4263763427734375
1690467664264851631,,145283,,1690467664,264735755,"""world""",,,3.301100730895996,13.099528312683105,0.430318683385849
1690467664264862311,,145284,,1690467664,264748679,"""world""",,,3.301086187362671,13.100467681884766,0.43413445353507996
1690467664274903724,,145285,,1690467664,274757105,"""world""",,,3.301182270050049,13.101432800292969,0.43795856833457947
1690467664294820764,,145286,,1690467664,294722482,"""world""",,,3.3013343811035156,13.102463722229004,0.44186490774154663
1690467664294825246,,145287,,1690467664,294733189,"""world""",,,3.301379680633545,13.10350227355957,0.44577181339263916
1690467664304843863,,145288,,1690467664,304738444,"""world""",,,3.301365852355957,13.104448318481445,0.4497402310371399
1690467664324827237,,145289,,1690467664,324730357,"""world""",,,3.3017189502716064,13.105595588684082,0.453639417886734
1690467664334865375,,145290,,1690467664,334746358,"""world""",,,3.3017752170562744,13.106749534606934,0.4576279819011688
1690467664334872258,,145291,,1690467664,334761695,"""world""",,,3.301799774169922,13.107872009277344,0.46165016293525696
1690467664344847773,,145292,,1690467664,344739731,"""world""",,,3.3017823696136475,13.108955383300781,0.46566325426101685
1690467664364861559,,145293,,1690467664,364765470,"""world""",,,3.302126884460449,13.110159873962402,0.46969059109687805
1690467664374842015,,145294,,1690467664,374737555,"""world""",,,3.302191734313965,13.111396789550781,0.47386056184768677
1690467664374845746,,145295,,1690467664,374750704,"""world""",,,3.302387237548828,13.112646102905273,0.47776705026626587
1690467664394844479,,145296,,1690467664,394725536,"""world""",,,3.3023667335510254,13.113812446594238,0.48192527890205383
1690467664404839710,,145297,,1690467664,404736830,"""world""",,,3.302513360977173,13.11509895324707,0.48613637685775757
1690467664404850754,,145298,,1690467664,404748513,"""world""",,,3.3027942180633545,13.116405487060547,0.49021032452583313
1690467664424840013,,145299,,1690467664,424743781,"""world""",,,3.3029041290283203,13.11764144897461,0.49435657262802124
1690467664434839333,,145300,,1690467664,434734841,"""world""",,,3.302969217300415,13.118947982788086,0.49861258268356323
1690467664434848886,,145301,,1690467664,434747144,"""world""",,,3.303205966949463,13.120405197143555,0.5028002262115479
1690467664454816630,,145302,,1690467664,454726715,"""world""",,,3.3033461570739746,13.121661186218262,0.5069833993911743
1690467664464851159,,145303,,1690467664,464737714,"""world""",,,3.303316831588745,13.122901916503906,0.5112414956092834
1690467664464862518,,145304,,1690467664,464750030,"""world""",,,3.3036420345306396,13.124286651611328,0.5154756307601929
1690467664474824037,,145305,,1690467664,474734194,"""world""",,,3.3039674758911133,13.125652313232422,0.519885241985321
1690467664494817577,,145306,,1690467664,494722633,"""world""",,,3.303952693939209,13.127039909362793,0.5239778161048889
1690467664494821166,,145307,,1690467664,494733682,"""world""",,,3.3042140007019043,13.12833309173584,0.5282915234565735
1690467664514836546,,145308,,1690467664,514735391,"""world""",,,3.3042681217193604,13.129755973815918,0.5324172377586365
1690467664524822703,,145309,,1690467664,524733143,"""world""",,,3.3045549392700195,13.131180763244629,0.536717414855957
1690467664534929766,,145310,,1690467664,534779639,"""world""",,,3.3045780658721924,13.132692337036133,0.5407827496528625
1690467664534943714,,145311,,1690467664,534798122,"""world""",,,3.304905652999878,13.134123802185059,0.5451683402061462
1690467664544842131,,145312,,1690467664,544736189,"""world""",,,3.3049421310424805,13.135590553283691,0.548982560634613
1690467664564836236,,145313,,1690467664,564736764,"""world""",,,3.3050713539123535,13.137025833129883,0.5529069900512695
1690467664575078295,,145314,,1690467664,574866448,"""world""",,,3.3053040504455566,13.138524055480957,0.5568963289260864
1690467664575090911,,145315,,1690467664,574925460,"""world""",,,3.3054111003875732,13.140070915222168,0.5608474612236023
1690467664594846882,,145316,,1690467664,594733037,"""world""",,,3.3055925369262695,13.141523361206055,0.5645483136177063
1690467664604875299,,145317,,1690467664,604739715,"""world""",,,3.3058013916015625,13.142996788024902,0.5682904720306396
1690467664604879561,,145318,,1690467664,604756054,"""world""",,,3.3058698177337646,13.144603729248047,0.5719519853591919
1690467664624873665,,145319,,1690467664,624755115,"""world""",,,3.306135416030884,13.145962715148926,0.5753412246704102
1690467664634822470,,145320,,1690467664,634732806,"""world""",,,3.306096076965332,13.147501945495605,0.5790145993232727
1690467664644815183,,145321,,1690467664,644731556,"""world""",,,3.3063464164733887,13.149104118347168,0.5821462869644165
1690467664654800905,,145322,,1690467664,654722055,"""world""",,,3.30659556388855,13.150585174560547,0.5853570103645325
1690467664654806730,,145323,,1690467664,654731705,"""world""",,,3.306541919708252,13.152350425720215,0.5886476635932922
1690467664674901727,,145324,,1690467664,674744459,"""world""",,,3.306931734085083,13.153778076171875,0.5915980935096741
1690467664684816236,,145325,,1690467664,684734121,"""world""",,,3.3071630001068115,13.155421257019043,0.594532310962677
1690467664684824537,,145326,,1690467664,684748506,"""world""",,,3.3071706295013428,13.157061576843262,0.5975462794303894
1690467664704838002,,145327,,1690467664,704760252,"""world""",,,3.3075058460235596,13.158673286437988,0.6000354290008545
1690467664714824750,,145328,,1690467664,714732142,"""world""",,,3.3075315952301025,13.160322189331055,0.6027327179908752
1690467664714829459,,145329,,1690467664,714743882,"""world""",,,3.307607650756836,13.161913871765137,0.6052232980728149
1690467664724876802,,145330,,1690467664,724799123,"""world""",,,3.3080012798309326,13.16349983215332,0.6075305938720703
1690467664744824052,,145331,,1690467664,744737713,"""world""",,,3.308077096939087,13.16511058807373,0.6098044514656067
1690467664744826927,,145332,,1690467664,744751452,"""world""",,,3.308305025100708,13.166769981384277,0.6119057536125183
1690467664754792394,,145333,,1690467664,754721911,"""world""",,,3.3084213733673096,13.168421745300293,0.6139514446258545
1690467664774822452,,145334,,1690467664,774731468,"""world""",,,3.3085076808929443,13.170023918151855,0.61582350730896
1690467664784853043,,145335,,1690467664,784760449,"""world""",,,3.3083345890045166,13.171710968017578,0.61757493019104
1690467664784857032,,145336,,1690467664,784774629,"""world""",,,3.308959722518921,13.173269271850586,0.6191394925117493
1690467664804813623,,145337,,1690467664,804731158,"""world""",,,3.3090763092041016,13.17494010925293,0.6206645369529724
1690467664814807243,,145338,,1690467664,814727759,"""world""",,,3.309297800064087,13.176657676696777,0.6220165491104126
1690467664824834365,,145339,,1690467664,824735978,"""world""",,,3.309319257736206,13.178360939025879,0.6233366131782532
1690467664824837599,,145340,,1690467664,824752713,"""world""",,,3.3097054958343506,13.180034637451172,0.6243295669555664
1690467664844820894,,145341,,1690467664,844733505,"""world""",,,3.3099865913391113,13.181706428527832,0.625316321849823
1690467664854815550,,145342,,1690467664,854726154,"""world""",,,3.3100461959838867,13.183467864990234,0.6262241005897522
1690467664864890876,,145343,,1690467664,864732450,"""world""",,,3.310387372970581,13.18503475189209,0.6268789768218994
1690467664874898028,,145344,,1690467664,874781689,"""world""",,,3.310560464859009,13.186803817749023,0.6275417804718018
1690467664884843592,,145345,,1690467664,884735230,"""world""",,,3.3107736110687256,13.18847942352295,0.6281208395957947
1690467664894810767,,145346,,1690467664,894726545,"""world""",,,3.311039686203003,13.190114974975586,0.6284589171409607
1690467664894821672,,145347,,1690467664,894738050,"""world""",,,3.311147689819336,13.191910743713379,0.6288871765136719
1690467664904809273,,145348,,1690467664,904730349,"""world""",,,3.311354160308838,13.193467140197754,0.6290810108184814
1690467664924815935,,145349,,1690467664,924733786,"""world""",,,3.311506748199463,13.195192337036133,0.629302978515625
1690467664934827735,,145350,,1690467664,934730542,"""world""",,,3.3117735385894775,13.196834564208984,0.6294538974761963
