rosbagTimestamp,header,seq,stamp,secs,nsecs,frame_id,pose,position,x,y,z
1690467349244836084,,114120,,1690467349,244722586,"""world""",,,3.3355202674865723,13.234550476074219,0.20197896659374237
1690467349254780497,,114121,,1690467349,254714093,"""world""",,,3.33552885055542,13.234553337097168,0.20198144018650055
1690467349264817810,,114122,,1690467349,264745522,"""world""",,,3.3355140686035156,13.23454761505127,0.20209747552871704
1690467349274908335,,114123,,1690467349,274759950,"""world""",,,3.335476875305176,13.234532356262207,0.20197147130966187
1690467349284821891,,114124,,1690467349,284736904,"""world""",,,3.335548162460327,13.234553337097168,0.20199310779571533
1690467349294815825,,114125,,1690467349,294727853,"""world""",,,3.335479497909546,13.234521865844727,0.20197181403636932
1690467349304800696,,114126,,1690467349,304728979,"""world""",,,3.3354949951171875,13.234527587890625,0.20200183987617493
1690467349314825248,,114127,,1690467349,314735678,"""world""",,,3.335529088973999,13.234516143798828,0.20198702812194824
1690467349324843598,,114128,,1690467349,324736820,"""world""",,,3.335543632507324,13.234519004821777,0.2019658088684082
1690467349334814126,,114129,,1690467349,334729079,"""world""",,,3.335451364517212,13.23447322845459,0.20199130475521088
1690467349344834342,,114130,,1690467349,344727817,"""world""",,,3.3354876041412354,13.234529495239258,0.20199452340602875
1690467349354806101,,114131,,1690467349,354729616,"""world""",,,3.3354849815368652,13.234517097473145,0.2019956260919571
1690467349364815967,,114132,,1690467349,364741700,"""world""",,,3.3355796337127686,13.234516143798828,0.20199482142925262
1690467349374856466,,114133,,1690467349,374759472,"""world""",,,3.3355326652526855,13.234529495239258,0.20216405391693115
1690467349384819984,,114134,,1690467349,384737682,"""world""",,,3.3355016708374023,13.234505653381348,0.2020004242658615
1690467349394801274,,114135,,1690467349,394720140,"""world""",,,3.335484027862549,13.234490394592285,0.2019846886396408
1690467349404887025,,114136,,1690467349,404747187,"""world""",,,3.3354239463806152,13.234359741210938,0.2019805908203125
1690467349414832091,,114137,,1690467349,414740366,"""world""",,,3.3355178833007812,13.234457015991211,0.2020290642976761
1690467349424838757,,114138,,1690467349,424743699,"""world""",,,3.3355116844177246,13.234421730041504,0.2020474523305893
1690467349434825308,,114139,,1690467349,434728672,"""world""",,,3.335543155670166,13.234442710876465,0.20196156203746796
1690467349444855132,,114140,,1690467349,444732604,"""world""",,,3.335496187210083,13.23433780670166,0.20197980105876923
1690467349454810934,,114141,,1690467349,454729401,"""world""",,,3.3355002403259277,13.234415054321289,0.20201973617076874
1690467349464808121,,114142,,1690467349,464744386,"""world""",,,3.335529327392578,13.234461784362793,0.20201309025287628
1690467349475005858,,114143,,1690467349,474779023,"""world""",,,3.335535764694214,13.234442710876465,0.20201291143894196
1690467349484842337,,114144,,1690467349,484747546,"""world""",,,3.335552215576172,13.234468460083008,0.20202365517616272
1690467349494787354,,114145,,1690467349,494716466,"""world""",,,3.335509777069092,13.234464645385742,0.20200535655021667
1690467349504811638,,114146,,1690467349,504729549,"""world""",,,3.3355345726013184,13.234467506408691,0.20195281505584717
1690467349514845185,,114147,,1690467349,514745962,"""world""",,,3.33553147315979,13.234454154968262,0.2020578682422638
1690467349524842604,,114148,,1690467349,524743641,"""world""",,,3.3355002403259277,13.234442710876465,0.20202435553073883
1690467349534919167,,114149,,1690467349,534746146,"""world""",,,3.3355391025543213,13.234440803527832,0.20200671255588531
1690467349544821010,,114150,,1690467349,544737015,"""world""",,,3.3354697227478027,13.234457015991211,0.2019750475883484
1690467349554807675,,114151,,1690467349,554727240,"""world""",,,3.3354971408843994,13.234441757202148,0.20199263095855713
1690467349564781514,,114152,,1690467349,564714127,"""world""",,,3.3355066776275635,13.234445571899414,0.20199590921401978
1690467349574910945,,114153,,1690467349,574748479,"""world""",,,3.3356144428253174,13.234450340270996,0.2019885778427124
1690467349584812732,,114154,,1690467349,584729244,"""world""",,,3.335566759109497,13.234353065490723,0.20198167860507965
1690467349594789741,,114155,,1690467349,594719447,"""world""",,,3.3355069160461426,13.234456062316895,0.20201382040977478
1690467349604871807,,114156,,1690467349,604748590,"""world""",,,3.3355088233947754,13.234445571899414,0.20200727880001068
1690467349614843163,,114157,,1690467349,614730487,"""world""",,,3.335524559020996,13.234424591064453,0.2020178884267807
1690467349624858604,,114158,,1690467349,624752005,"""world""",,,3.335474729537964,13.234413146972656,0.2020333856344223
1690467349634863320,,114159,,1690467349,634743510,"""world""",,,3.3354909420013428,13.234410285949707,0.2020384669303894
1690467349644814835,,114160,,1690467349,644733665,"""world""",,,3.3356432914733887,13.234434127807617,0.20193077623844147
1690467349654804079,,114161,,1690467349,654728617,"""world""",,,3.3352644443511963,13.234461784362793,0.2020750492811203
1690467349664803931,,114162,,1690467349,664724291,"""world""",,,3.3354930877685547,13.234454154968262,0.2019946426153183
1690467349674856867,,114163,,1690467349,674763396,"""world""",,,3.335496664047241,13.234423637390137,0.20203621685504913
1690467349684881369,,114164,,1690467349,684789274,"""world""",,,3.335537910461426,13.234405517578125,0.2020586133003235
1690467349694830028,,114165,,1690467349,694722065,"""world""",,,3.3355648517608643,13.234416961669922,0.2020518034696579
1690467349704819860,,114166,,1690467349,704729148,"""world""",,,3.335515022277832,13.234392166137695,0.20204521715641022
1690467349714804669,,114167,,1690467349,714728160,"""world""",,,3.3355188369750977,13.234397888183594,0.20203043520450592
1690467349724843779,,114168,,1690467349,724748138,"""world""",,,3.335512638092041,13.234386444091797,0.20206491649150848
1690467349734842793,,114169,,1690467349,734740114,"""world""",,,3.3355228900909424,13.234381675720215,0.20204319059848785
1690467349744838458,,114170,,1690467349,744734322,"""world""",,,3.33559250831604,13.234404563903809,0.20201365649700165
1690467349754889810,,114171,,1690467349,754729533,"""world""",,,3.335531234741211,13.234280586242676,0.20196865499019623
1690467349764787080,,114172,,1690467349,764716132,"""world""",,,3.3354437351226807,13.234420776367188,0.20208026468753815
1690467349774852977,,114173,,1690467349,774749216,"""world""",,,3.335554838180542,13.234404563903809,0.20208054780960083
1690467349784824819,,114174,,1690467349,784731826,"""world""",,,3.3354907035827637,13.234302520751953,0.20200373232364655
1690467349794805871,,114175,,1690467349,794723886,"""world""",,,3.335597515106201,13.23438549041748,0.2020529806613922
1690467349804808315,,114176,,1690467349,804725030,"""world""",,,3.335582733154297,13.234345436096191,0.20206418633460999
1690467349814847613,,114177,,1690467349,814730550,"""world""",,,3.3355419635772705,13.234320640563965,0.2020876705646515
1690467349824875976,,114178,,1690467349,824738271,"""world""",,,3.3355178833007812,13.23434829711914,0.20208048820495605
1690467349834823674,,114179,,1690467349,834737931,"""world""",,,3.3355538845062256,13.234354972839355,0.20206400752067566
1690467349844871835,,114180,,1690467349,844736802,"""world""",,,3.3355987071990967,13.234370231628418,0.20201636850833893
1690467349854805400,,114181,,1690467349,854727154,"""world""",,,3.3355066776275635,13.23427677154541,0.20207169651985168
1690467349864788867,,114182,,1690467349,864716246,"""world""",,,3.3355181217193604,13.23431396484375,0.2020479142665863
1690467349874908742,,114183,,1690467349,874790835,"""world""",,,3.3355178833007812,13.234320640563965,0.20208919048309326
1690467349884821762,,114184,,1690467349,884737465,"""world""",,,3.3355355262756348,13.234332084655762,0.20207086205482483
1690467349894799694,,114185,,1690467349,894718278,"""world""",,,3.335505723953247,13.234336853027344,0.2020331621170044
1690467349904800202,,114186,,1690467349,904724980,"""world""",,,3.3354921340942383,13.234326362609863,0.2020726501941681
1690467349914804660,,114187,,1690467349,914729687,"""world""",,,3.3355302810668945,13.234329223632812,0.20205232501029968
1690467349924837256,,114188,,1690467349,924743876,"""world""",,,3.335493803024292,13.234328269958496,0.20210127532482147
1690467349934847722,,114189,,1690467349,934738438,"""world""",,,3.3354947566986084,13.234357833862305,0.20202793180942535
1690467349944820640,,114190,,1690467349,944736826,"""world""",,,3.33556866645813,13.234375,0.2020234316587448
1690467349954799047,,114191,,1690467349,954725076,"""world""",,,3.335522413253784,13.23434066772461,0.20210504531860352
1690467349964778050,,114192,,1690467349,964717459,"""world""",,,3.335505723953247,13.234386444091797,0.20202749967575073
1690467349974981031,,114193,,1690467349,974822686,"""world""",,,3.3355724811553955,13.234354972839355,0.20204375684261322
1690467349984855672,,114194,,1690467349,984732654,"""world""",,,3.335336923599243,13.23438835144043,0.20211292803287506
1690467349994803118,,114195,,1690467349,994722364,"""world""",,,3.335512399673462,13.234358787536621,0.20206297934055328
1690467350004872709,,114196,,1690467350,4737804,"""world""",,,3.3355135917663574,13.234349250793457,0.202056884765625
1690467350014812333,,114197,,1690467350,14726961,"""world""",,,3.3355586528778076,13.23434829711914,0.20210377871990204
1690467350024835189,,114198,,1690467350,24742760,"""world""",,,3.3355000019073486,13.234352111816406,0.20205006003379822
1690467350034889725,,114199,,1690467350,34737640,"""world""",,,3.335526704788208,13.234294891357422,0.2020624577999115
1690467350044840894,,114200,,1690467350,44729625,"""world""",,,3.3355374336242676,13.234292984008789,0.20208798348903656
1690467350054808309,,114201,,1690467350,54729280,"""world""",,,3.3355350494384766,13.23431396484375,0.20205475389957428
1690467350064839206,,114202,,1690467350,64754714,"""world""",,,3.335587978363037,13.234294891357422,0.20213472843170166
1690467350074854538,,114203,,1690467350,74733106,"""world""",,,3.3354876041412354,13.23423957824707,0.20210939645767212
1690467350084850547,,114204,,1690467350,84734479,"""world""",,,3.3355507850646973,13.234273910522461,0.20208436250686646
1690467350094812837,,114205,,1690467350,94724987,"""world""",,,3.335615396499634,13.234219551086426,0.20208945870399475
1690467350104817797,,114206,,1690467350,104732855,"""world""",,,3.3355820178985596,13.23421573638916,0.2021612524986267
1690467350114876616,,114207,,1690467350,114727440,"""world""",,,3.335545301437378,13.234245300292969,0.20211529731750488
1690467350124838121,,114208,,1690467350,124733576,"""world""",,,3.33555006980896,13.23422908782959,0.20214535295963287
1690467350134875267,,114209,,1690467350,134739193,"""world""",,,3.3355612754821777,13.23422908782959,0.20211438834667206
1690467350144808612,,114210,,1690467350,144729270,"""world""",,,3.3355565071105957,13.234238624572754,0.2021261751651764
1690467350154806531,,114211,,1690467350,154724537,"""world""",,,3.335404634475708,13.234217643737793,0.20220866799354553
1690467350164819032,,114212,,1690467350,164734374,"""world""",,,3.335575819015503,13.234196662902832,0.20216262340545654
1690467350174883865,,114213,,1690467350,174738966,"""world""",,,3.3355624675750732,13.234220504760742,0.2021252065896988
1690467350184863445,,114214,,1690467350,184741697,"""world""",,,3.335587978363037,13.234225273132324,0.20213675498962402
1690467350194807279,,114215,,1690467350,194727103,"""world""",,,3.3355844020843506,13.234187126159668,0.2021501660346985
1690467350204869382,,114216,,1690467350,204768532,"""world""",,,3.3353917598724365,13.234233856201172,0.20218399167060852
1690467350214830587,,114217,,1690467350,214736398,"""world""",,,3.335583448410034,13.234187126159668,0.20214597880840302
1690467350224808181,,114218,,1690467350,224735116,"""world""",,,3.3355419635772705,13.234225273132324,0.20213288068771362
1690467350234899709,,114219,,1690467350,234743661,"""world""",,,3.3355605602264404,13.234196662902832,0.20215986669063568
1690467350244829003,,114220,,1690467350,244730009,"""world""",,,3.335573196411133,13.234167098999023,0.20217709243297577
1690467350254836874,,114221,,1690467350,254740227,"""world""",,,3.3355705738067627,13.23416519165039,0.20225855708122253
1690467350264806327,,114222,,1690467350,264727416,"""world""",,,3.335596799850464,13.234158515930176,0.2021723985671997
1690467350274850412,,114223,,1690467350,274739899,"""world""",,,3.335580587387085,13.23414134979248,0.2021922916173935
1690467350284834824,,114224,,1690467350,284740767,"""world""",,,3.3355772495269775,13.234220504760742,0.20218493044376373
1690467350294784901,,114225,,1690467350,294719266,"""world""",,,3.335679292678833,13.234201431274414,0.20208704471588135
1690467350304881749,,114226,,1690467350,304730693,"""world""",,,3.3355841636657715,13.234199523925781,0.20214693248271942
1690467350314854045,,114227,,1690467350,314741446,"""world""",,,3.3355700969696045,13.234184265136719,0.2021297812461853
1690467350324814965,,114228,,1690467350,324732445,"""world""",,,3.3355932235717773,13.234121322631836,0.2021895796060562
1690467350334857778,,114229,,1690467350,334728347,"""world""",,,3.335554361343384,13.234210968017578,0.20213395357131958
1690467350344823842,,114230,,1690467350,344732348,"""world""",,,3.335740566253662,13.23420238494873,0.2020816206932068
1690467350354806731,,114231,,1690467350,354730575,"""world""",,,3.335576295852661,13.234220504760742,0.20212322473526
1690467350364779317,,114232,,1690467350,364715544,"""world""",,,3.3355510234832764,13.234211921691895,0.20211516320705414
1690467350374855687,,114233,,1690467350,374731780,"""world""",,,3.3354744911193848,13.234201431274414,0.20219434797763824
1690467350384825419,,114234,,1690467350,384731234,"""world""",,,3.3355712890625,13.234186172485352,0.20213629305362701
1690467350394838142,,114235,,1690467350,394725185,"""world""",,,3.335632562637329,13.234216690063477,0.20208995044231415
1690467350404838667,,114236,,1690467350,404729795,"""world""",,,3.3355817794799805,13.234216690063477,0.20214800536632538
1690467350414828068,,114237,,1690467350,414736823,"""world""",,,3.3356170654296875,13.234210968017578,0.20213639736175537
1690467350424831902,,114238,,1690467350,424738220,"""world""",,,3.3355791568756104,13.23415756225586,0.20216765999794006
1690467350434869313,,114239,,1690467350,434745490,"""world""",,,3.335566520690918,13.234206199645996,0.20214755833148956
1690467350444873583,,114240,,1690467350,444752689,"""world""",,,3.3356313705444336,13.234256744384766,0.2020537108182907
1690467350454838228,,114241,,1690467350,454730045,"""world""",,,3.335604190826416,13.234167098999023,0.20216871798038483
1690467350464793098,,114242,,1690467350,464719727,"""world""",,,3.3355579376220703,13.234236717224121,0.20211002230644226
1690467350474841253,,114243,,1690467350,474731165,"""world""",,,3.3354952335357666,13.234057426452637,0.20209860801696777
1690467350484832433,,114244,,1690467350,484727298,"""world""",,,3.3355910778045654,13.234153747558594,0.2021665722131729
1690467350494793826,,114245,,1690467350,494718131,"""world""",,,3.335642099380493,13.234169960021973,0.20211577415466309
1690467350504814903,,114246,,1690467350,504730759,"""world""",,,3.335622549057007,13.23417854309082,0.20214566588401794
1690467350514846896,,114247,,1690467350,514744711,"""world""",,,3.3355720043182373,13.234164237976074,0.20218883454799652
1690467350524851927,,114248,,1690467350,524761189,"""world""",,,3.3355393409729004,13.234142303466797,0.2021750807762146
1690467350534982941,,114249,,1690467350,534738600,"""world""",,,3.3355770111083984,13.234167098999023,0.20220522582530975
1690467350544820095,,114250,,1690467350,544728761,"""world""",,,3.3355555534362793,13.234111785888672,0.202281653881073
1690467350554803238,,114251,,1690467350,554727445,"""world""",,,3.3355889320373535,13.234151840209961,0.20231075584888458
1690467350564856487,,114252,,1690467350,564772940,"""world""",,,3.3355915546417236,13.234122276306152,0.20218098163604736
1690467350575207303,,114253,,1690467350,574850292,"""world""",,,3.3355872631073,13.234156608581543,0.2021835446357727
1690467350584899091,,114254,,1690467350,584747097,"""world""",,,3.335559606552124,13.234167098999023,0.20219440758228302
1690467350594865760,,114255,,1690467350,594742566,"""world""",,,3.3355636596679688,13.234115600585938,0.20221497118473053
1690467350604863876,,114256,,1690467350,604733589,"""world""",,,3.33561372756958,13.234112739562988,0.2021859586238861
1690467350614864014,,114257,,1690467350,614766491,"""world""",,,3.3355703353881836,13.234121322631836,0.20221911370754242
1690467350624847950,,114258,,1690467350,624744028,"""world""",,,3.335526943206787,13.234086036682129,0.2022523283958435
1690467350634823145,,114259,,1690467350,634732894,"""world""",,,3.335559129714966,13.234125137329102,0.20221763849258423
1690467350644823556,,114260,,1690467350,644727204,"""world""",,,3.3356032371520996,13.23409652709961,0.20220285654067993
1690467350654811245,,114261,,1690467350,654727945,"""world""",,,3.335587501525879,13.234070777893066,0.20223185420036316
1690467350664809457,,114262,,1690467350,664724850,"""world""",,,3.3355777263641357,13.234057426452637,0.20228606462478638
1690467350674849431,,114263,,1690467350,674734934,"""world""",,,3.3356311321258545,13.234052658081055,0.20228150486946106
1690467350684827518,,114264,,1690467350,684732005,"""world""",,,3.3356270790100098,13.234026908874512,0.2022867202758789
1690467350694827140,,114265,,1690467350,694718348,"""world""",,,3.3356270790100098,13.234076499938965,0.20236463844776154
1690467350704828194,,114266,,1690467350,704727375,"""world""",,,3.3356127738952637,13.23406982421875,0.20226794481277466
1690467350714866641,,114267,,1690467350,714745087,"""world""",,,3.3356590270996094,13.23392391204834,0.2022373080253601
1690467350724856482,,114268,,1690467350,724730308,"""world""",,,3.3356077671051025,13.234042167663574,0.20226231217384338
1690467350734811036,,114269,,1690467350,734724691,"""world""",,,3.3355181217193604,13.234027862548828,0.20223933458328247
1690467350744850763,,114270,,1690467350,744733152,"""world""",,,3.3355872631073,13.234058380126953,0.20225529372692108
1690467350754813807,,114271,,1690467350,754724563,"""world""",,,3.3356082439422607,13.233983993530273,0.2023063600063324
1690467350764911550,,114272,,1690467350,764748402,"""world""",,,3.3355836868286133,13.234084129333496,0.20225971937179565
1690467350774929992,,114273,,1690467350,774762941,"""world""",,,3.3355841636657715,13.234053611755371,0.20228604972362518
1690467350784870147,,114274,,1690467350,784738044,"""world""",,,3.335622787475586,13.23408031463623,0.20228135585784912
1690467350794812474,,114275,,1690467350,794724912,"""world""",,,3.335613250732422,13.234015464782715,0.2023085355758667
1690467350804844287,,114276,,1690467350,804733606,"""world""",,,3.3355748653411865,13.234075546264648,0.20228078961372375
1690467350814855132,,114277,,1690467350,814737675,"""world""",,,3.335571527481079,13.234063148498535,0.2022920846939087
1690467350824845439,,114278,,1690467350,824740363,"""world""",,,3.3356094360351562,13.23403263092041,0.20227201282978058
1690467350834801071,,114279,,1690467350,834726778,"""world""",,,3.3356645107269287,13.234003067016602,0.20221523940563202
1690467350844827019,,114280,,1690467350,844727612,"""world""",,,3.335582733154297,13.234078407287598,0.2022467404603958
1690467350854840369,,114281,,1690467350,854727188,"""world""",,,3.3355016708374023,13.233946800231934,0.20220738649368286
1690467350864828319,,114282,,1690467350,864743967,"""world""",,,3.33562970161438,13.234061241149902,0.2022678554058075
1690467350874890184,,114283,,1690467350,874741445,"""world""",,,3.335545778274536,13.23393726348877,0.20221510529518127
1690467350884848885,,114284,,1690467350,884729006,"""world""",,,3.3356034755706787,13.234042167663574,0.20226825773715973
1690467350894878324,,114285,,1690467350,894734886,"""world""",,,3.3356142044067383,13.234015464782715,0.202305868268013
1690467350904855754,,114286,,1690467350,904735361,"""world""",,,3.335676431655884,13.23399543762207,0.2022976130247116
1690467350914829274,,114287,,1690467350,914733204,"""world""",,,3.335646152496338,13.233969688415527,0.20233182609081268
1690467350924845010,,114288,,1690467350,924749282,"""world""",,,3.3356101512908936,13.23399543762207,0.20233218371868134
1690467350934936929,,114289,,1690467350,934743913,"""world""",,,3.335613250732422,13.2339448928833,0.20235733687877655
1690467350944843087,,114290,,1690467350,944731064,"""world""",,,3.335643768310547,13.23396110534668,0.20233145356178284
1690467350954822003,,114291,,1690467350,954732585,"""world""",,,3.3356940746307373,13.233905792236328,0.20226413011550903
1690467350964812596,,114292,,1690467350,964724241,"""world""",,,3.3356149196624756,13.234004974365234,0.20232534408569336
1690467350974817722,,114293,,1690467350,974731588,"""world""",,,3.3356223106384277,13.233957290649414,0.20230692625045776
1690467350984805338,,114294,,1690467350,984728568,"""world""",,,3.33566951751709,13.234004020690918,0.20230215787887573
1690467350994805178,,114295,,1690467350,994724307,"""world""",,,3.335618734359741,13.233999252319336,0.2023279368877411
1690467351004824612,,114296,,1690467351,4728274,"""world""",,,3.335627555847168,13.233993530273438,0.20227649807929993
1690467351014809795,,114297,,1690467351,14727097,"""world""",,,3.3356683254241943,13.233989715576172,0.20241619646549225
1690467351024867748,,114298,,1690467351,24737522,"""world""",,,3.335632801055908,13.233938217163086,0.20228908956050873
1690467351034856135,,114299,,1690467351,34733226,"""world""",,,3.3356478214263916,13.233964920043945,0.20233777165412903
1690467351044846915,,114300,,1690467351,44727611,"""world""",,,3.335618019104004,13.233970642089844,0.2023148536682129
1690467351054823108,,114301,,1690467351,54731568,"""world""",,,3.335637092590332,13.233980178833008,0.20231623947620392
1690467351064800968,,114302,,1690467351,64719742,"""world""",,,3.335662364959717,13.233988761901855,0.2023191899061203
1690467351074829406,,114303,,1690467351,74729978,"""world""",,,3.335669994354248,13.233989715576172,0.20229877531528473
1690467351084867657,,114304,,1690467351,84736864,"""world""",,,3.3356471061706543,13.233977317810059,0.20234070718288422
1690467351094798495,,114305,,1690467351,94721779,"""world""",,,3.3356547355651855,13.23399543762207,0.2023262083530426
1690467351104828272,,114306,,1690467351,104729927,"""world""",,,3.3356807231903076,13.233954429626465,0.20233802497386932
1690467351114830521,,114307,,1690467351,114727629,"""world""",,,3.3356680870056152,13.23393726348877,0.20232674479484558
1690467351124902211,,114308,,1690467351,124744073,"""world""",,,3.3355863094329834,13.23396110534668,0.20237590372562408
1690467351134851010,,114309,,1690467351,134751225,"""world""",,,3.33563494682312,13.233946800231934,0.20230010151863098
1690467351144829126,,114310,,1690467351,144729010,"""world""",,,3.3357365131378174,13.233915328979492,0.2022239714860916
1690467351154823577,,114311,,1690467351,154733872,"""world""",,,3.335663318634033,13.233942031860352,0.20230600237846375
1690467351164789678,,114312,,1690467351,164714394,"""world""",,,3.3358919620513916,13.233851432800293,0.20220495760440826
1690467351174824962,,114313,,1690467351,174730033,"""world""",,,3.3356616497039795,13.233960151672363,0.20229291915893555
1690467351184822284,,114314,,1690467351,184731771,"""world""",,,3.3357529640197754,13.233890533447266,0.20226116478443146
1690467351194806458,,114315,,1690467351,194724709,"""world""",,,3.3356881141662598,13.233887672424316,0.2023429125547409
1690467351204814683,,114316,,1690467351,204729270,"""world""",,,3.335726737976074,13.233888626098633,0.20232342183589935
1690467351214839617,,114317,,1690467351,214737753,"""world""",,,3.335692882537842,13.233879089355469,0.20236794650554657
1690467351224836729,,114318,,1690467351,224745723,"""world""",,,3.335615396499634,13.233744621276855,0.20231503248214722
1690467351234811618,,114319,,1690467351,234720512,"""world""",,,3.335740566253662,13.233864784240723,0.2023615837097168
1690467351244834425,,114320,,1690467351,244728735,"""world""",,,3.3356568813323975,13.2338228225708,0.20235152542591095
1690467351254879725,,114321,,1690467351,254729207,"""world""",,,3.335705041885376,13.233867645263672,0.20237839221954346
1690467351264823562,,114322,,1690467351,264715573,"""world""",,,3.3357326984405518,13.233846664428711,0.20237813889980316
1690467351274864394,,114323,,1690467351,274736684,"""world""",,,3.3358235359191895,13.233804702758789,0.20230962336063385
1690467351284849944,,114324,,1690467351,284728752,"""world""",,,3.3357605934143066,13.233784675598145,0.20236746966838837
1690467351294821236,,114325,,1690467351,294714934,"""world""",,,3.335808753967285,13.233746528625488,0.20233938097953796
1690467351304853602,,114326,,1690467351,304733025,"""world""",,,3.3357551097869873,13.23375129699707,0.20238998532295227
1690467351314853293,,114327,,1690467351,314731804,"""world""",,,3.3358421325683594,13.233657836914062,0.20231443643569946
1690467351324855605,,114328,,1690467351,324739567,"""world""",,,3.3358137607574463,13.23377513885498,0.20239195227622986
1690467351334909570,,114329,,1690467351,334758532,"""world""",,,3.3357138633728027,13.233807563781738,0.20237527787685394
1690467351344836857,,114330,,1690467351,344728970,"""world""",,,3.3358230590820312,13.233772277832031,0.20239439606666565
1690467351354878060,,114331,,1690467351,354729728,"""world""",,,3.335758686065674,13.233759880065918,0.20240609347820282
1690467351364841291,,114332,,1690467351,364725500,"""world""",,,3.3357226848602295,13.233654022216797,0.20240788161754608
1690467351374847221,,114333,,1690467351,374730505,"""world""",,,3.335811138153076,13.233695030212402,0.20239154994487762
1690467351384822215,,114334,,1690467351,384733592,"""world""",,,3.335805892944336,13.23370361328125,0.20238886773586273
1690467351394851536,,114335,,1690467351,394729490,"""world""",,,3.335805654525757,13.233694076538086,0.20238573849201202
1690467351404858026,,114336,,1690467351,404729815,"""world""",,,3.3358211517333984,13.23371696472168,0.20239105820655823
1690467351414849064,,114337,,1690467351,414731077,"""world""",,,3.3358805179595947,13.233678817749023,0.2024213969707489
1690467351424840878,,114338,,1690467351,424742429,"""world""",,,3.336000919342041,13.233720779418945,0.20239558815956116
1690467351434897348,,114339,,1690467351,434731341,"""world""",,,3.3358421325683594,13.23367977142334,0.20251645147800446
1690467351444836151,,114340,,1690467351,444726372,"""world""",,,3.3358821868896484,13.233654022216797,0.20250757038593292
1690467351454886482,,114341,,1690467351,454735025,"""world""",,,3.3358912467956543,13.233590126037598,0.20244865119457245
1690467351464826420,,114342,,1690467351,464718426,"""world""",,,3.335841417312622,13.233652114868164,0.20251163840293884
1690467351474852033,,114343,,1690467351,474737356,"""world""",,,3.3358466625213623,13.233636856079102,0.20249934494495392
1690467351484875197,,114344,,1690467351,484743593,"""world""",,,3.335908889770508,13.233598709106445,0.20245102047920227
1690467351494808608,,114345,,1690467351,494729765,"""world""",,,3.335891008377075,13.233702659606934,0.20255593955516815
1690467351504844580,,114346,,1690467351,504732710,"""world""",,,3.3358395099639893,13.233609199523926,0.20244523882865906
1690467351514872568,,114347,,1690467351,514747237,"""world""",,,3.3357927799224854,13.233685493469238,0.20243211090564728
1690467351524821626,,114348,,1690467351,524739455,"""world""",,,3.3358278274536133,13.233646392822266,0.2024078220129013
1690467351534819817,,114349,,1690467351,534728496,"""world""",,,3.3358588218688965,13.233661651611328,0.20241302251815796
1690467351545074760,,114350,,1690467351,544778977,"""world""",,,3.3358309268951416,13.233661651611328,0.20240336656570435
1690467351554828017,,114351,,1690467351,554734034,"""world""",,,3.335834503173828,13.233640670776367,0.20238259434700012
1690467351564828090,,114352,,1690467351,564716662,"""world""",,,3.3357863426208496,13.233651161193848,0.20238105952739716
1690467351574814796,,114353,,1690467351,574732976,"""world""",,,3.335869550704956,13.23367977142334,0.20248152315616608
1690467351584837584,,114354,,1690467351,584733377,"""world""",,,3.335913896560669,13.23362922668457,0.2023845911026001
1690467351594795337,,114355,,1690467351,594719915,"""world""",,,3.335815668106079,13.233672142028809,0.20252251625061035
1690467351604821089,,114356,,1690467351,604726502,"""world""",,,3.3359010219573975,13.23372745513916,0.2025783509016037
1690467351614902179,,114357,,1690467351,614738214,"""world""",,,3.335808038711548,13.233691215515137,0.20249015092849731
1690467351624856423,,114358,,1690467351,624731322,"""world""",,,3.335911750793457,13.233610153198242,0.20243552327156067
1690467351634832768,,114359,,1690467351,634720178,"""world""",,,3.3358476161956787,13.233630180358887,0.20253540575504303
1690467351644838548,,114360,,1690467351,644729782,"""world""",,,3.335845470428467,13.233621597290039,0.202504500746727
1690467351654885649,,114361,,1690467351,654727950,"""world""",,,3.335852861404419,13.233641624450684,0.20253171026706696
1690467351664875775,,114362,,1690467351,664770037,"""world""",,,3.3358116149902344,13.233455657958984,0.20240789651870728
1690467351674828415,,114363,,1690467351,674734752,"""world""",,,3.335844039916992,13.23354721069336,0.20245033502578735
1690467351684892316,,114364,,1690467351,684733404,"""world""",,,3.3358192443847656,13.233587265014648,0.20250459015369415
1690467351694859735,,114365,,1690467351,694716176,"""world""",,,3.3358681201934814,13.233595848083496,0.20249342918395996
1690467351704913431,,114366,,1690467351,704745832,"""world""",,,3.335880994796753,13.233499526977539,0.20248441398143768
1690467351715188321,,114367,,1690467351,714773736,"""world""",,,3.335871458053589,13.233485221862793,0.20248661935329437
1690467351724823115,,114368,,1690467351,724733638,"""world""",,,3.3359193801879883,13.233526229858398,0.202438622713089
1690467351734852290,,114369,,1690467351,734729879,"""world""",,,3.3358957767486572,13.23350715637207,0.20247982442378998
1690467351744868221,,114370,,1690467351,744733645,"""world""",,,3.335906505584717,13.233580589294434,0.20255981385707855
1690467351754834850,,114371,,1690467351,754734819,"""world""",,,3.335916757583618,13.233469009399414,0.20247836410999298
1690467351764864305,,114372,,1690467351,764780437,"""world""",,,3.3359150886535645,13.233466148376465,0.20252501964569092
1690467351774812143,,114373,,1690467351,774729845,"""world""",,,3.3359196186065674,13.23343563079834,0.20252877473831177
1690467351784829478,,114374,,1690467351,784728232,"""world""",,,3.335994005203247,13.233489036560059,0.20253387093544006
1690467351794832412,,114375,,1690467351,794727127,"""world""",,,3.3359146118164062,13.233393669128418,0.20253977179527283
1690467351804835154,,114376,,1690467351,804735022,"""world""",,,3.3359060287475586,13.233390808105469,0.20254278182983398
1690467351814854616,,114377,,1690467351,814733732,"""world""",,,3.3359291553497314,13.233379364013672,0.20252420008182526
1690467351824830998,,114378,,1690467351,824731349,"""world""",,,3.33598256111145,13.233386993408203,0.20252639055252075
1690467351834837587,,114379,,1690467351,834726221,"""world""",,,3.335965633392334,13.233370780944824,0.20258112251758575
1690467351844816048,,114380,,1690467351,844727574,"""world""",,,3.335987091064453,13.23341178894043,0.20255637168884277
1690467351854807274,,114381,,1690467351,854729607,"""world""",,,3.3358685970306396,13.233389854431152,0.2025996297597885
1690467351864857500,,114382,,1690467351,864768088,"""world""",,,3.3360373973846436,13.23337459564209,0.20248205959796906
1690467351874822122,,114383,,1690467351,874742217,"""world""",,,3.335982322692871,13.233389854431152,0.20254436135292053
1690467351884809916,,114384,,1690467351,884730633,"""world""",,,3.335972309112549,13.233359336853027,0.20255127549171448
1690467351894799924,,114385,,1690467351,894724849,"""world""",,,3.3359415531158447,13.233318328857422,0.20258545875549316
1690467351904822012,,114386,,1690467351,904731944,"""world""",,,3.3359525203704834,13.233316421508789,0.20263981819152832
1690467351914878263,,114387,,1690467351,914750041,"""world""",,,3.3359642028808594,13.23335075378418,0.20259524881839752
1690467351924817010,,114388,,1690467351,924731352,"""world""",,,3.335949420928955,13.23332405090332,0.20258519053459167
1690467351934866915,,114389,,1690467351,934733588,"""world""",,,3.3359575271606445,13.233333587646484,0.2025345265865326
1690467351944813342,,114390,,1690467351,944727422,"""world""",,,3.335942506790161,13.233328819274902,0.20255301892757416
1690467351954822799,,114391,,1690467351,954733351,"""world""",,,3.335977792739868,13.233280181884766,0.20256425440311432
1690467351964788552,,114392,,1690467351,964722240,"""world""",,,3.335907459259033,13.233264923095703,0.20259621739387512
1690467351974825538,,114393,,1690467351,974733135,"""world""",,,3.3361992835998535,13.23332691192627,0.2024899423122406
1690467351984831421,,114394,,1690467351,984741040,"""world""",,,3.3360230922698975,13.233319282531738,0.2026108205318451
1690467351994803838,,114395,,1690467351,994725838,"""world""",,,3.33603572845459,13.233246803283691,0.20263980329036713
1690467352004814015,,114396,,1690467352,4729710,"""world""",,,3.3359315395355225,13.233115196228027,0.2025226503610611
1690467352014833936,,114397,,1690467352,14737117,"""world""",,,3.335998773574829,13.233256340026855,0.20260997116565704
1690467352024823572,,114398,,1690467352,24732226,"""world""",,,3.336022138595581,13.23324966430664,0.20258793234825134
1690467352034813826,,114399,,1690467352,34726959,"""world""",,,3.3360228538513184,13.233240127563477,0.20261430740356445
1690467352044888339,,114400,,1690467352,44757583,"""world""",,,3.336047410964966,13.233305931091309,0.20256894826889038
1690467352054873847,,114401,,1690467352,54759261,"""world""",,,3.3359971046447754,13.23330020904541,0.20260708034038544
1690467352064819004,,114402,,1690467352,64719584,"""world""",,,3.3360061645507812,13.233274459838867,0.20262259244918823
1690467352074838516,,114403,,1690467352,74736749,"""world""",,,3.3360414505004883,13.233238220214844,0.202667236328125
1690467352084851582,,114404,,1690467352,84729637,"""world""",,,3.3360612392425537,13.233248710632324,0.20258784294128418
1690467352094838341,,114405,,1690467352,94723795,"""world""",,,3.3360304832458496,13.233175277709961,0.2026475965976715
1690467352104859263,,114406,,1690467352,104759330,"""world""",,,3.3360636234283447,13.233147621154785,0.20265714824199677
1690467352114858259,,114407,,1690467352,114735479,"""world""",,,3.3361034393310547,13.233121871948242,0.202675461769104
1690467352124823837,,114408,,1690467352,124731514,"""world""",,,3.336089611053467,13.233067512512207,0.20270352065563202
1690467352134803541,,114409,,1690467352,134717951,"""world""",,,3.3361988067626953,13.233104705810547,0.20263701677322388
1690467352144831997,,114410,,1690467352,144729321,"""world""",,,3.33614444732666,13.233098983764648,0.20271262526512146
1690467352154809612,,114411,,1690467352,154728875,"""world""",,,3.3361668586730957,13.233084678649902,0.20272867381572723
1690467352164784286,,114412,,1690467352,164714862,"""world""",,,3.336190938949585,13.233099937438965,0.20283347368240356
1690467352174872988,,114413,,1690467352,174762160,"""world""",,,3.3361403942108154,13.233023643493652,0.20268632471561432
1690467352184892491,,114414,,1690467352,184739087,"""world""",,,3.3361997604370117,13.233044624328613,0.20263996720314026
1690467352194870485,,114415,,1690467352,194721661,"""world""",,,3.336099147796631,13.233019828796387,0.20272080600261688
1690467352204846073,,114416,,1690467352,204728969,"""world""",,,3.3361451625823975,13.233010292053223,0.20275969803333282
1690467352214838063,,114417,,1690467352,214732612,"""world""",,,3.3361520767211914,13.232985496520996,0.20276768505573273
1690467352224859454,,114418,,1690467352,224744974,"""world""",,,3.3361620903015137,13.232941627502441,0.20284385979175568
1690467352234834772,,114419,,1690467352,234724856,"""world""",,,3.3361027240753174,13.232844352722168,0.202753484249115
1690467352244834069,,114420,,1690467352,244735041,"""world""",,,3.3363497257232666,13.232876777648926,0.20270991325378418
1690467352254813173,,114421,,1690467352,254727947,"""world""",,,3.3362724781036377,13.232816696166992,0.20282739400863647
1690467352264803277,,114422,,1690467352,264722778,"""world""",,,3.336305856704712,13.232776641845703,0.20284642279148102
1690467352274836244,,114423,,1690467352,274744747,"""world""",,,3.3362839221954346,13.232711791992188,0.20286056399345398
1690467352284884883,,114424,,1690467352,284737187,"""world""",,,3.33632755279541,13.232691764831543,0.20296750962734222
1690467352294808646,,114425,,1690467352,294727371,"""world""",,,3.3363895416259766,13.232686042785645,0.203012615442276
1690467352304860769,,114426,,1690467352,304742077,"""world""",,,3.3363194465637207,13.232603073120117,0.20291684567928314
1690467352314888881,,114427,,1690467352,314737768,"""world""",,,3.3363289833068848,13.232563972473145,0.2029394805431366
1690467352324863899,,114428,,1690467352,324769314,"""world""",,,3.336350679397583,13.23253345489502,0.20295482873916626
1690467352334797512,,114429,,1690467352,334722512,"""world""",,,3.336337089538574,13.232548713684082,0.20297333598136902
1690467352344820969,,114430,,1690467352,344736001,"""world""",,,3.336359977722168,13.232532501220703,0.20295703411102295
1690467352354806139,,114431,,1690467352,354727618,"""world""",,,3.336329221725464,13.232549667358398,0.20300284028053284
1690467352364784489,,114432,,1690467352,364718474,"""world""",,,3.336296558380127,13.232478141784668,0.20287087559700012
1690467352374860988,,114433,,1690467352,374760712,"""world""",,,3.336388111114502,13.232566833496094,0.20293672382831573
1690467352384843989,,114434,,1690467352,384735073,"""world""",,,3.3363566398620605,13.232604026794434,0.20294667780399323
1690467352394805129,,114435,,1690467352,394726332,"""world""",,,3.336324453353882,13.23260498046875,0.2029079794883728
1690467352404846477,,114436,,1690467352,404725876,"""world""",,,3.336336612701416,13.232667922973633,0.20286628603935242
1690467352414848196,,114437,,1690467352,414734033,"""world""",,,3.3363444805145264,13.232712745666504,0.20284903049468994
1690467352424836385,,114438,,1690467352,424752265,"""world""",,,3.336409091949463,13.23276424407959,0.20292893052101135
1690467352434797216,,114439,,1690467352,434724977,"""world""",,,3.3363120555877686,13.23273754119873,0.2028294801712036
1690467352444856204,,114440,,1690467352,444738663,"""world""",,,3.3363423347473145,13.232809066772461,0.20280270278453827
1690467352454811155,,114441,,1690467352,454729490,"""world""",,,3.3364078998565674,13.232812881469727,0.20275138318538666
1690467352464786336,,114442,,1690467352,464716511,"""world""",,,3.3363099098205566,13.232804298400879,0.20281614363193512
1690467352474884858,,114443,,1690467352,474768804,"""world""",,,3.3363170623779297,13.232805252075195,0.202826589345932
1690467352484860060,,114444,,1690467352,484736744,"""world""",,,3.3363301753997803,13.232782363891602,0.20284757018089294
1690467352494843177,,114445,,1690467352,494724803,"""world""",,,3.336318016052246,13.23275375366211,0.20285317301750183
1690467352504828619,,114446,,1690467352,504724642,"""world""",,,3.336336851119995,13.23275375366211,0.2029280811548233
1690467352514893629,,114447,,1690467352,514745008,"""world""",,,3.3363935947418213,13.23270320892334,0.20302371680736542
1690467352524903734,,114448,,1690467352,524736844,"""world""",,,3.3363945484161377,13.232630729675293,0.20293612778186798
1690467352534834357,,114449,,1690467352,534731977,"""world""",,,3.3364245891571045,13.232562065124512,0.20299994945526123
1690467352544870709,,114450,,1690467352,544737608,"""world""",,,3.3364524841308594,13.232527732849121,0.20304718613624573
1690467352554854380,,114451,,1690467352,554728133,"""world""",,,3.3364803791046143,13.23244571685791,0.20310941338539124
1690467352564786248,,114452,,1690467352,564712428,"""world""",,,3.336574077606201,13.232298851013184,0.20305638015270233
1690467352574896216,,114453,,1690467352,574763918,"""world""",,,3.3365485668182373,13.232156753540039,0.20321714878082275
1690467352584842769,,114454,,1690467352,584728990,"""world""",,,3.3365941047668457,13.232028007507324,0.20333537459373474
1690467352594795323,,114455,,1690467352,594722273,"""world""",,,3.336669921875,13.231921195983887,0.20344534516334534
1690467352604845637,,114456,,1690467352,604728356,"""world""",,,3.33671236038208,13.23180103302002,0.20350171625614166
1690467352614848877,,114457,,1690467352,614729214,"""world""",,,3.336716651916504,13.231656074523926,0.20355306565761566
1690467352624815388,,114458,,1690467352,624738129,"""world""",,,3.336686849594116,13.231512069702148,0.2036042958498001
1690467352634886672,,114459,,1690467352,634737692,"""world""",,,3.3367459774017334,13.231389999389648,0.20373743772506714
1690467352644851032,,114460,,1690467352,644737281,"""world""",,,3.3367345333099365,13.23118782043457,0.20371565222740173
1690467352654840321,,114461,,1690467352,654726343,"""world""",,,3.3365418910980225,13.231019020080566,0.2038165181875229
1690467352664835221,,114462,,1690467352,664725755,"""world""",,,3.3366594314575195,13.23101806640625,0.20389790832996368
1690467352674858161,,114463,,1690467352,674736716,"""world""",,,3.3366940021514893,13.230950355529785,0.2038983553647995
1690467352684852951,,114464,,1690467352,684768218,"""world""",,,3.3366944789886475,13.230925559997559,0.20393960177898407
1690467352694836916,,114465,,1690467352,694728366,"""world""",,,3.336714029312134,13.23088550567627,0.20396682620048523
1690467352704841484,,114466,,1690467352,704732569,"""world""",,,3.3367397785186768,13.230864524841309,0.20398108661174774
1690467352714826118,,114467,,1690467352,714735593,"""world""",,,3.3367927074432373,13.230809211730957,0.2039676457643509
1690467352724830291,,114468,,1690467352,724738050,"""world""",,,3.33685302734375,13.230779647827148,0.20399461686611176
1690467352734808778,,114469,,1690467352,734722130,"""world""",,,3.3368782997131348,13.230716705322266,0.20402206480503082
1690467352744817387,,114470,,1690467352,744725332,"""world""",,,3.336876392364502,13.230644226074219,0.20407338440418243
1690467352754819180,,114471,,1690467352,754727341,"""world""",,,3.336876630783081,13.230552673339844,0.20416811108589172
1690467352764859573,,114472,,1690467352,764745182,"""world""",,,3.336857795715332,13.230416297912598,0.20426003634929657
1690467352774823367,,114473,,1690467352,774740251,"""world""",,,3.3368165493011475,13.23023509979248,0.2043776959180832
1690467352784843834,,114474,,1690467352,784740135,"""world""",,,3.3367908000946045,13.230010986328125,0.2045113891363144
1690467352794818730,,114475,,1690467352,794728720,"""world""",,,3.3367979526519775,13.229734420776367,0.20469458401203156
1690467352804814808,,114476,,1690467352,804726818,"""world""",,,3.336583375930786,13.229379653930664,0.20501364767551422
1690467352814831186,,114477,,1690467352,814740703,"""world""",,,3.336674213409424,13.228986740112305,0.20518429577350616
1690467352824820212,,114478,,1690467352,824740172,"""world""",,,3.336794376373291,13.228543281555176,0.20537523925304413
1690467352834786233,,114479,,1690467352,834721097,"""world""",,,3.336728096008301,13.228048324584961,0.20568184554576874
1690467352844837102,,114480,,1690467352,844729025,"""world""",,,3.3367323875427246,13.227458953857422,0.2060071974992752
1690467352854810265,,114481,,1690467352,854726972,"""world""",,,3.3366706371307373,13.226861000061035,0.20637525618076324
1690467352864804595,,114482,,1690467352,864724333,"""world""",,,3.3367085456848145,13.226133346557617,0.20672008395195007
1690467352874904287,,114483,,1690467352,874765227,"""world""",,,3.3368136882781982,13.22533130645752,0.20715530216693878
1690467352884841445,,114484,,1690467352,884733643,"""world""",,,3.3367884159088135,13.224600791931152,0.20761559903621674
1690467352894801385,,114485,,1690467352,894726164,"""world""",,,3.336782217025757,13.223811149597168,0.20802375674247742
1690467352904792213,,114486,,1690467352,904705364,"""world""",,,3.3367719650268555,13.222908973693848,0.20850378274917603
1690467352914994855,,114487,,1690467352,914761356,"""world""",,,3.3366992473602295,13.22207260131836,0.20895734429359436
1690467352924838471,,114488,,1690467352,924741557,"""world""",,,3.336970806121826,13.221166610717773,0.20936639606952667
1690467352934783904,,114489,,1690467352,934717618,"""world""",,,3.337045669555664,13.220369338989258,0.209901824593544
1690467352944815074,,114490,,1690467352,944724340,"""world""",,,3.337148427963257,13.219573020935059,0.2103932797908783
1690467352954804965,,114491,,1690467352,954726357,"""world""",,,3.3372342586517334,13.218605995178223,0.21088208258152008
1690467352964806603,,114492,,1690467352,964731793,"""world""",,,3.3371737003326416,13.217814445495605,0.21130549907684326
1690467352975122100,,114493,,1690467352,974801147,"""world""",,,3.337329864501953,13.216912269592285,0.21166014671325684
1690467352984920643,,114494,,1690467352,984740745,"""world""",,,3.337381362915039,13.216021537780762,0.21199508011341095
1690467352994886095,,114495,,1690467352,994730929,"""world""",,,3.337071657180786,13.215283393859863,0.21264244616031647
1690467353004871837,,114496,,1690467353,4734578,"""world""",,,3.3370909690856934,13.214461326599121,0.21299470961093903
1690467353014884690,,114497,,1690467353,14734351,"""world""",,,3.3371973037719727,13.213690757751465,0.21321019530296326
1690467353024812351,,114498,,1690467353,24736646,"""world""",,,3.337043523788452,13.212896347045898,0.21373941004276276
1690467353034837160,,114499,,1690467353,34726448,"""world""",,,3.3369264602661133,13.21212387084961,0.21412718296051025
1690467353044813398,,114500,,1690467353,44723748,"""world""",,,3.336686849594116,13.211431503295898,0.21462774276733398
1690467353054846852,,114501,,1690467353,54727293,"""world""",,,3.336747407913208,13.210640907287598,0.21497111022472382
1690467353064813001,,114502,,1690467353,64722950,"""world""",,,3.336705207824707,13.209981918334961,0.21521849930286407
1690467353074896624,,114503,,1690467353,74745698,"""world""",,,3.336484670639038,13.20926284790039,0.2156357616186142
1690467353084861748,,114504,,1690467353,84732180,"""world""",,,3.33647084236145,13.208588600158691,0.21588867902755737
1690467353094883838,,114505,,1690467353,94725876,"""world""",,,3.3364217281341553,13.207852363586426,0.21627992391586304
1690467353104833838,,114506,,1690467353,104728746,"""world""",,,3.336317300796509,13.207124710083008,0.21632523834705353
1690467353114866966,,114507,,1690467353,114731708,"""world""",,,3.336449146270752,13.20637321472168,0.21632267534732819
1690467353124911431,,114508,,1690467353,124754561,"""world""",,,3.336423873901367,13.20553970336914,0.21632768213748932
1690467353134843576,,114509,,1690467353,134726977,"""world""",,,3.3363897800445557,13.20468521118164,0.21630977094173431
1690467353144897782,,114510,,1690467353,144747448,"""world""",,,3.336690902709961,13.203700065612793,0.21606290340423584
1690467353154845171,,114511,,1690467353,154739920,"""world""",,,3.336354970932007,13.202796936035156,0.2160641998052597
1690467353164814099,,114512,,1690467353,164721548,"""world""",,,3.336399793624878,13.20186996459961,0.21568317711353302
1690467353174852647,,114513,,1690467353,174732563,"""world""",,,3.3363475799560547,13.20083236694336,0.215270534157753
1690467353184841098,,114514,,1690467353,184737414,"""world""",,,3.336113452911377,13.199836730957031,0.2150217592716217
1690467353194815364,,114515,,1690467353,194725500,"""world""",,,3.335883617401123,13.198786735534668,0.21451207995414734
1690467353204842893,,114516,,1690467353,204727333,"""world""",,,3.335747003555298,13.197924613952637,0.21421954035758972
1690467353214863114,,114517,,1690467353,214747295,"""world""",,,3.335829019546509,13.196855545043945,0.2135133296251297
1690467353224821652,,114518,,1690467353,224736986,"""world""",,,3.3357014656066895,13.19577407836914,0.2130126804113388
1690467353234802931,,114519,,1690467353,234726364,"""world""",,,3.33561372756958,13.194710731506348,0.21268989145755768
1690467353244809123,,114520,,1690467353,244726262,"""world""",,,3.335550546646118,13.193603515625,0.21226659417152405
1690467353254814322,,114521,,1690467353,254728148,"""world""",,,3.3357455730438232,13.19249439239502,0.21176692843437195
1690467353264789176,,114522,,1690467353,264718744,"""world""",,,3.3357677459716797,13.191370010375977,0.21141912043094635
1690467353274818665,,114523,,1690467353,274730836,"""world""",,,3.3357093334198,13.190229415893555,0.21115615963935852
1690467353284810878,,114524,,1690467353,284727224,"""world""",,,3.3358817100524902,13.1890287399292,0.21074320375919342
1690467353294794052,,114525,,1690467353,294724364,"""world""",,,3.3357532024383545,13.187989234924316,0.21047943830490112
1690467353304838492,,114526,,1690467353,304722650,"""world""",,,3.3356168270111084,13.1867036819458,0.2103247046470642
1690467353314834060,,114527,,1690467353,314741155,"""world""",,,3.335440158843994,13.185422897338867,0.20999392867088318
1690467353324812118,,114528,,1690467353,324731527,"""world""",,,3.3351223468780518,13.184301376342773,0.2098873257637024
1690467353334799386,,114529,,1690467353,334723454,"""world""",,,3.3349926471710205,13.182969093322754,0.2094862014055252
1690467353344830768,,114530,,1690467353,344731668,"""world""",,,3.3348169326782227,13.18166446685791,0.20910918712615967
1690467353354816694,,114531,,1690467353,354728829,"""world""",,,3.3346683979034424,13.180403709411621,0.20895296335220337
1690467353364787238,,114532,,1690467353,364715829,"""world""",,,3.334667921066284,13.178938865661621,0.2087591290473938
1690467353374906161,,114533,,1690467353,374777060,"""world""",,,3.334455966949463,13.177772521972656,0.20860016345977783
1690467353384930063,,114534,,1690467353,384778174,"""world""",,,3.3344643115997314,13.176398277282715,0.20825886726379395
1690467353394808810,,114535,,1690467353,394726606,"""world""",,,3.3343684673309326,13.175019264221191,0.20807936787605286
1690467353404842164,,114536,,1690467353,404728453,"""world""",,,3.3343398571014404,13.173685073852539,0.2076917439699173
1690467353414834070,,114537,,1690467353,414736917,"""world""",,,3.3343300819396973,13.17242431640625,0.20743758976459503
1690467353424841148,,114538,,1690467353,424737483,"""world""",,,3.3340680599212646,13.171060562133789,0.20721493661403656
1690467353434798971,,114539,,1690467353,434720801,"""world""",,,3.3338637351989746,13.169794082641602,0.20706738531589508
1690467353444877062,,114540,,1690467353,444734484,"""world""",,,3.3337013721466064,13.168437957763672,0.20684757828712463
1690467353454868997,,114541,,1690467353,454732523,"""world""",,,3.333500623703003,13.167027473449707,0.20657828450202942
1690467353464787571,,114542,,1690467353,464716808,"""world""",,,3.333211898803711,13.16567325592041,0.20648062229156494
1690467353474843543,,114543,,1690467353,474740362,"""world""",,,3.3329057693481445,13.164398193359375,0.20636367797851562
1690467353484848064,,114544,,1690467353,484749403,"""world""",,,3.3326022624969482,13.16285228729248,0.20625129342079163
1690467353494799993,,114545,,1690467353,494723207,"""world""",,,3.3324484825134277,13.161436080932617,0.20609277486801147
1690467353504863564,,114546,,1690467353,504739256,"""world""",,,3.3322203159332275,13.159987449645996,0.20601752400398254
1690467353514854073,,114547,,1690467353,514740733,"""world""",,,3.3320071697235107,13.158299446105957,0.20599578320980072
1690467353524816867,,114548,,1690467353,524728496,"""world""",,,3.3318188190460205,13.156853675842285,0.20605233311653137
1690467353534848749,,114549,,1690467353,534730862,"""world""",,,3.331690549850464,13.15538501739502,0.20611971616744995
1690467353544821328,,114550,,1690467353,544735190,"""world""",,,3.331589698791504,13.153874397277832,0.20632028579711914
1690467353554831322,,114551,,1690467353,554737738,"""world""",,,3.331435203552246,13.15231990814209,0.20650562644004822
1690467353564837183,,114552,,1690467353,564728964,"""world""",,,3.3311731815338135,13.15074634552002,0.20686160027980804
1690467353574888308,,114553,,1690467353,574756696,"""world""",,,3.3311567306518555,13.149209976196289,0.20714601874351501
1690467353584853684,,114554,,1690467353,584738193,"""world""",,,3.3309431076049805,13.147473335266113,0.2074599415063858
1690467353594823001,,114555,,1690467353,594726062,"""world""",,,3.330660820007324,13.145915985107422,0.2079152762889862
1690467353604861088,,114556,,1690467353,604764006,"""world""",,,3.3305745124816895,13.144240379333496,0.20821550488471985
1690467353614816431,,114557,,1690467353,614734226,"""world""",,,3.3305022716522217,13.14267635345459,0.20851024985313416
1690467353624844486,,114558,,1690467353,624743619,"""world""",,,3.330148696899414,13.140932083129883,0.20900920033454895
1690467353634819684,,114559,,1690467353,634725946,"""world""",,,3.3297629356384277,13.139198303222656,0.20953573286533356
1690467353644797877,,114560,,1690467353,644723281,"""world""",,,3.329805850982666,13.137491226196289,0.20975536108016968
1690467353654811021,,114561,,1690467353,654725769,"""world""",,,3.329559803009033,13.135690689086914,0.21013179421424866
1690467353664800928,,114562,,1690467353,664724927,"""world""",,,3.3294501304626465,13.133994102478027,0.21054187417030334
1690467353674836836,,114563,,1690467353,674737321,"""world""",,,3.329150915145874,13.132158279418945,0.2110036164522171
1690467353684835603,,114564,,1690467353,684735633,"""world""",,,3.3289544582366943,13.130472183227539,0.21147285401821136
1690467353694811434,,114565,,1690467353,694729557,"""world""",,,3.328772783279419,13.128591537475586,0.21191447973251343
1690467353704850337,,114566,,1690467353,704758339,"""world""",,,3.3286986351013184,13.126852989196777,0.21243427693843842
1690467353714850588,,114567,,1690467353,714740364,"""world""",,,3.3287363052368164,13.125072479248047,0.21312177181243896
1690467353724863069,,114568,,1690467353,724771754,"""world""",,,3.3285679817199707,13.123226165771484,0.2135363519191742
1690467353734813027,,114569,,1690467353,734746230,"""world""",,,3.3284409046173096,13.121382713317871,0.2141880840063095
1690467353744806335,,114570,,1690467353,744731683,"""world""",,,3.328439235687256,13.119562149047852,0.21490652859210968
1690467353754820502,,114571,,1690467353,754725724,"""world""",,,3.328361988067627,13.117709159851074,0.21579468250274658
1690467353764810545,,114572,,1690467353,764743610,"""world""",,,3.328198194503784,13.115883827209473,0.21679089963436127
1690467353774827764,,114573,,1690467353,774733993,"""world""",,,3.3280599117279053,13.114068984985352,0.21772390604019165
1690467353784838826,,114574,,1690467353,784734460,"""world""",,,3.3280317783355713,13.112045288085938,0.21878179907798767
1690467353794836467,,114575,,1690467353,794731605,"""world""",,,3.328026056289673,13.110085487365723,0.2199939787387848
1690467353804832111,,114576,,1690467353,804732049,"""world""",,,3.3278968334198,13.108114242553711,0.22119495272636414
1690467353814866729,,114577,,1690467353,814749273,"""world""",,,3.3277978897094727,13.106141090393066,0.2225576788187027
1690467353824855513,,114578,,1690467353,824731986,"""world""",,,3.327807664871216,13.104308128356934,0.22401170432567596
1690467353834859339,,114579,,1690467353,834730314,"""world""",,,3.327850341796875,13.10246753692627,0.22562557458877563
1690467353844865430,,114580,,1690467353,844730250,"""world""",,,3.327608823776245,13.1004638671875,0.22743172943592072
1690467353854895162,,114581,,1690467353,854732288,"""world""",,,3.327580690383911,13.098640441894531,0.22940993309020996
1690467353864888090,,114582,,1690467353,864804841,"""world""",,,3.3278985023498535,13.096701622009277,0.23124641180038452
1690467353874948804,,114583,,1690467353,874786956,"""world""",,,3.3277010917663574,13.0947847366333,0.23329319059848785
1690467353884847998,,114584,,1690467353,884734914,"""world""",,,3.327697515487671,13.092961311340332,0.23564264178276062
1690467353894877659,,114585,,1690467353,894722663,"""world""",,,3.327699661254883,13.091178894042969,0.23805174231529236
1690467353904836030,,114586,,1690467353,904730098,"""world""",,,3.3277456760406494,13.089213371276855,0.24048198759555817
1690467353914879162,,114587,,1690467353,914749315,"""world""",,,3.327690362930298,13.087316513061523,0.24305793642997742
1690467353924824111,,114588,,1690467353,924748143,"""world""",,,3.327627182006836,13.08558177947998,0.245853453874588
1690467353934806354,,114589,,1690467353,934725037,"""world""",,,3.3276638984680176,13.083587646484375,0.24838171899318695
1690467353944809469,,114590,,1690467353,944729161,"""world""",,,3.3277642726898193,13.081730842590332,0.2512938678264618
1690467353954808845,,114591,,1690467353,954725748,"""world""",,,3.3276894092559814,13.079894065856934,0.2541303038597107
1690467353964873100,,114592,,1690467353,964792275,"""world""",,,3.327672004699707,13.078051567077637,0.2571589946746826
1690467353974831626,,114593,,1690467353,974739340,"""world""",,,3.327755928039551,13.076118469238281,0.26022660732269287
1690467353984852005,,114594,,1690467353,984737553,"""world""",,,3.3276946544647217,13.074286460876465,0.26322510838508606
1690467353994837289,,114595,,1690467353,994726226,"""world""",,,3.3277194499969482,13.072474479675293,0.26640135049819946
1690467354004901794,,114596,,1690467354,4752132,"""world""",,,3.3276307582855225,13.070571899414062,0.2696157991886139
1690467354014814743,,114597,,1690467354,14737156,"""world""",,,3.3278627395629883,13.06902027130127,0.27285122871398926
1690467354024832034,,114598,,1690467354,24736027,"""world""",,,3.327817440032959,13.067337036132812,0.2764136493206024
1690467354034813447,,114599,,1690467354,34727649,"""world""",,,3.327981472015381,13.065473556518555,0.2794937491416931
1690467354044821603,,114600,,1690467354,44730145,"""world""",,,3.328112840652466,13.063796997070312,0.2828563451766968
1690467354054906502,,114601,,1690467354,54742507,"""world""",,,3.328110456466675,13.062118530273438,0.2863187789916992
1690467354064876389,,114602,,1690467354,64790786,"""world""",,,3.32824444770813,13.0603666305542,0.2896856963634491
1690467354074869022,,114603,,1690467354,74738940,"""world""",,,3.328265905380249,13.058808326721191,0.2931510806083679
1690467354084818882,,114604,,1690467354,84733180,"""world""",,,3.328287363052368,13.057053565979004,0.29652681946754456
1690467354094815604,,114605,,1690467354,94726535,"""world""",,,3.3283350467681885,13.055436134338379,0.3003236651420593
1690467354104810298,,114606,,1690467354,104723216,"""world""",,,3.3284757137298584,13.053723335266113,0.30364787578582764
1690467354114828386,,114607,,1690467354,114730330,"""world""",,,3.32839298248291,13.052102088928223,0.3073521852493286
1690467354124841447,,114608,,1690467354,124751710,"""world""",,,3.3284575939178467,13.050416946411133,0.3109852969646454
1690467354134794646,,114609,,1690467354,134720850,"""world""",,,3.3285412788391113,13.048826217651367,0.31478771567344666
1690467354144859856,,114610,,1690467354,144736495,"""world""",,,3.3286519050598145,13.047261238098145,0.31834152340888977
