rosbagTimestamp,header,seq,stamp,secs,nsecs,frame_id,pose,position,x,y,z
1690899086439580953,,16978,,1690899086,439488080,"""world""",,,3.5740041732788086,3.724355697631836,0.2853860557079315
1690899086439593069,,16979,,1690899086,439500682,"""world""",,,3.573789119720459,3.7244203090667725,0.2854350805282593
1690899086439613980,,16980,,1690899086,439518721,"""world""",,,3.5738160610198975,3.7244327068328857,0.28543415665626526
1690899086439619923,,16984,,1690899086,439535135,"""world""",,,3.5738723278045654,3.7244713306427,0.2854536473751068
1690899086450956046,,16985,,1690899086,449491345,"""world""",,,3.573890447616577,3.7245001792907715,0.28545206785202026
1690899086459596441,,16986,,1690899086,459495883,"""world""",,,3.5738909244537354,3.7245230674743652,0.2854630947113037
1690899086569544624,,16987,,1690899086,569483243,"""world""",,,3.573808431625366,3.7245681285858154,0.28549453616142273
1690899086569554269,,16988,,1690899086,569495021,"""world""",,,3.5736258029937744,3.7245938777923584,0.28558778762817383
1690899086569594691,,16989,,1690899086,569508598,"""world""",,,3.573601245880127,3.7246150970458984,0.28558894991874695
1690899086569600293,,16995,,1690899086,569534362,"""world""",,,3.5735602378845215,3.7246174812316895,0.2855595648288727
1690899086569632566,,16996,,1690899086,569544834,"""world""",,,3.5738697052001953,3.7245607376098633,0.28548797965049744
1690899086569638323,,16997,,1690899086,569549802,"""world""",,,3.5738632678985596,3.7245678901672363,0.28548556566238403
1690899086579556460,,16998,,1690899086,579491903,"""world""",,,3.5739526748657227,3.724529266357422,0.28548893332481384
1690899086609521810,,16999,,1690899086,609459575,"""world""",,,3.573918342590332,3.7245523929595947,0.28548580408096313
1690899086609529026,,17000,,1690899086,609471239,"""world""",,,3.5739378929138184,3.7245492935180664,0.2854940891265869
1690899086609559551,,17001,,1690899086,609483052,"""world""",,,3.5735435485839844,3.7246510982513428,0.2856192886829376
1690899086619573323,,17002,,1690899086,619493882,"""world""",,,3.5731375217437744,3.7246713638305664,0.28574874997138977
1690899086629516532,,17003,,1690899086,629457977,"""world""",,,3.5731253623962402,3.724660873413086,0.28573983907699585
1690899086689560111,,17004,,1690899086,689487356,"""world""",,,3.5731935501098633,3.724658489227295,0.2857322096824646
1690899086689564355,,17005,,1690899086,689499134,"""world""",,,3.5735676288604736,3.7246365547180176,0.2855905294418335
1690899086689567400,,17006,,1690899086,689514319,"""world""",,,3.573486566543579,3.724660634994507,0.2856305241584778
1690899086689575681,,17009,,1690899086,689528754,"""world""",,,3.57399845123291,3.7245678901672363,0.2854527235031128
1690899086699558861,,17010,,1690899086,699486704,"""world""",,,3.5737690925598145,3.724628210067749,0.2855386734008789
1690899086709548183,,17011,,1690899086,709489946,"""world""",,,3.573683977127075,3.724651575088501,0.28556203842163086
1690899086719577558,,17012,,1690899086,719494651,"""world""",,,3.573512554168701,3.724660634994507,0.2856470048427582
1690899086729541027,,17013,,1690899086,729481108,"""world""",,,3.5737497806549072,3.7246179580688477,0.28553158044815063
1690899086739560797,,17014,,1690899086,739484871,"""world""",,,3.57361102104187,3.724660873413086,0.2855936288833618
1690899086749620274,,17015,,1690899086,749489641,"""world""",,,3.5735840797424316,3.7246856689453125,0.28559747338294983
1690899086759556058,,17016,,1690899086,759489355,"""world""",,,3.5737721920013428,3.7246501445770264,0.2855532467365265
1690899086769523228,,17017,,1690899086,769471829,"""world""",,,3.5735466480255127,3.7246944904327393,0.285643607378006
1690899086779659757,,17018,,1690899086,779514768,"""world""",,,3.5738885402679443,3.724660634994507,0.285541296005249
1690899086809550230,,17019,,1690899086,809479557,"""world""",,,3.5741374492645264,3.7246031761169434,0.28546154499053955
1690899086809553645,,17020,,1690899086,809491334,"""world""",,,3.574129819869995,3.724663019180298,0.2855254113674164
1690899086809567772,,17021,,1690899086,809504872,"""world""",,,3.574035406112671,3.724738836288452,0.2855837941169739
1690899086819547184,,17022,,1690899086,819484817,"""world""",,,3.574178457260132,3.7247538566589355,0.2855824828147888
1690899086829529024,,17023,,1690899086,829476188,"""world""",,,3.5740604400634766,3.7248406410217285,0.2856205403804779
1690899086959551885,,17024,,1690899086,959484650,"""world""",,,3.574073553085327,3.724886417388916,0.2856476306915283
1690899086959559903,,17025,,1690899086,959496542,"""world""",,,3.5739457607269287,3.724925994873047,0.28571227192878723
1690899086959570225,,17026,,1690899086,959509205,"""world""",,,3.574443817138672,3.724867105484009,0.28557267785072327
1690899086959586317,,17032,,1690899086,959532933,"""world""",,,3.5746824741363525,3.7249693870544434,0.28546959161758423
1690899086959607837,,17033,,1690899086,959545157,"""world""",,,3.5747759342193604,3.7249505519866943,0.2854539155960083
1690899086959613263,,17036,,1690899086,959559872,"""world""",,,3.574901580810547,3.7251381874084473,0.28566762804985046
1690899086969523136,,17037,,1690899086,969474849,"""world""",,,3.5749080181121826,3.725208282470703,0.2857320308685303
1690899086979552750,,17038,,1690899086,979487653,"""world""",,,3.573760747909546,3.725269079208374,0.2862986624240875
1690899086989551150,,17039,,1690899086,989484662,"""world""",,,3.5748517513275146,3.7253496646881104,0.28574857115745544
1690899087059549709,,17040,,1690899087,59485821,"""world""",,,3.5749926567077637,3.725383758544922,0.28575679659843445
1690899087059558104,,17041,,1690899087,59496485,"""world""",,,3.575160503387451,3.725463628768921,0.2857586145401001
1690899087059570043,,17042,,1690899087,59511242,"""world""",,,3.575201988220215,3.7255449295043945,0.2858290374279022
1690899087059574101,,17046,,1690899087,59527757,"""world""",,,3.575651168823242,3.72591495513916,0.28598901629447937
1690899087069606941,,17047,,1690899087,69491169,"""world""",,,3.5756494998931885,3.72599196434021,0.2859734892845154
1690899087079539786,,17048,,1690899087,79482711,"""world""",,,3.5757172107696533,3.7260756492614746,0.28598999977111816
1690899087089513881,,17049,,1690899087,89450443,"""world""",,,3.575704574584961,3.726149797439575,0.28598812222480774
1690899087099592825,,17050,,1690899087,99505705,"""world""",,,3.5757546424865723,3.726209878921509,0.28597491979599
1690899087109581759,,17051,,1690899087,109488418,"""world""",,,3.575819492340088,3.7262766361236572,0.2859736382961273
1690899087119562901,,17052,,1690899087,119493826,"""world""",,,3.575836658477783,3.726297378540039,0.28602084517478943
1690899087129548398,,17053,,1690899087,129484866,"""world""",,,3.5759873390197754,3.726262092590332,0.2860305607318878
1690899087139559857,,17054,,1690899087,139487165,"""world""",,,3.575998544692993,3.7262630462646484,0.2860344350337982
1690899087149601153,,17055,,1690899087,149512789,"""world""",,,3.576145648956299,3.726284980773926,0.28606942296028137
1690899087159558796,,17056,,1690899087,159494121,"""world""",,,3.5762219429016113,3.726292371749878,0.2860246002674103
1690899087169545235,,17057,,1690899087,169484558,"""world""",,,3.576209545135498,3.7262494564056396,0.28607070446014404
1690899087179548659,,17058,,1690899087,179487042,"""world""",,,3.576367139816284,3.726128101348877,0.2859308421611786
1690899087189553086,,17059,,1690899087,189486380,"""world""",,,3.576580762863159,3.7260706424713135,0.28540903329849243
1690899087199571946,,17060,,1690899087,199502315,"""world""",,,3.5766992568969727,3.7258646488189697,0.28548523783683777
1690899087319574644,,17061,,1690899087,319487344,"""world""",,,3.5765225887298584,3.725374460220337,0.28580784797668457
1690899087319581771,,17063,,1690899087,319503397,"""world""",,,3.577329158782959,3.7257604598999023,0.28558745980262756
1690899087319613729,,17064,,1690899087,319519255,"""world""",,,3.5772833824157715,3.725776433944702,0.28565868735313416
1690899087319616599,,17072,,1690899087,319551610,"""world""",,,3.578327178955078,3.725679397583008,0.2852681875228882
1690899087329545199,,17073,,1690899087,329484232,"""world""",,,3.5786449909210205,3.7256436347961426,0.2850619852542877
1690899087339557405,,17074,,1690899087,339482121,"""world""",,,3.5787782669067383,3.7256245613098145,0.2851957082748413
1690899087349638187,,17075,,1690899087,349515009,"""world""",,,3.57889461517334,3.7257039546966553,0.28528445959091187
1690899087359572138,,17076,,1690899087,359486749,"""world""",,,3.579082489013672,3.725754976272583,0.28528866171836853
1690899087369524166,,17077,,1690899087,369472454,"""world""",,,3.5793874263763428,3.7257542610168457,0.2852226793766022
1690899087379539848,,17078,,1690899087,379482672,"""world""",,,3.579456090927124,3.7258551120758057,0.28521928191185
1690899087389558902,,17079,,1690899087,389485548,"""world""",,,3.5793399810791016,3.725799560546875,0.2854185402393341
1690899087399557681,,17080,,1690899087,399488097,"""world""",,,3.578575849533081,3.725992202758789,0.28577935695648193
1690899087529556194,,17081,,1690899087,529484274,"""world""",,,3.578558921813965,3.725924491882324,0.2859470248222351
1690899087529563622,,17082,,1690899087,529498791,"""world""",,,3.57875394821167,3.726154088973999,0.28574058413505554
1690899087529600671,,17083,,1690899087,529514584,"""world""",,,3.579711437225342,3.726135015487671,0.28542280197143555
1690899087529612466,,17089,,1690899087,529537816,"""world""",,,3.580965995788574,3.7264251708984375,0.28531527519226074
1690899087529614601,,17090,,1690899087,529550957,"""world""",,,3.581064462661743,3.726573944091797,0.2853265404701233
1690899087529629849,,17093,,1690899087,529565938,"""world""",,,3.5807645320892334,3.7267870903015137,0.28553488850593567
1690899087539549925,,17094,,1690899087,539481624,"""world""",,,3.5815324783325195,3.7268359661102295,0.2854984402656555
1690899087549774714,,17095,,1690899087,549567788,"""world""",,,3.580883741378784,3.7266414165496826,0.2859812378883362
1690899087559579053,,17096,,1690899087,559493772,"""world""",,,3.5808980464935303,3.7267656326293945,0.28605133295059204
1690899087569536027,,17097,,1690899087,569478558,"""world""",,,3.5810158252716064,3.7268481254577637,0.2860592305660248
1690899087579614832,,17098,,1690899087,579505168,"""world""",,,3.5811290740966797,3.7268731594085693,0.2860143184661865
1690899087589552295,,17099,,1690899087,589486589,"""world""",,,3.581233263015747,3.7269198894500732,0.2859349250793457
1690899087599563990,,17100,,1690899087,599497878,"""world""",,,3.5813889503479004,3.727017641067505,0.28592970967292786
1690899087609607737,,17101,,1690899087,609513815,"""world""",,,3.581479549407959,3.7270891666412354,0.28597286343574524
1690899087729556305,,17102,,1690899087,729484339,"""world""",,,3.5815701484680176,3.7272050380706787,0.2860061526298523
1690899087729562053,,17103,,1690899087,729495263,"""world""",,,3.5816946029663086,3.7272789478302,0.285995215177536
1690899087729583651,,17104,,1690899087,729510459,"""world""",,,3.581840991973877,3.727323055267334,0.28596851229667664
1690899087729596452,,17111,,1690899087,729536853,"""world""",,,3.584409475326538,3.7277214527130127,0.28536924719810486
1690899087729634382,,17112,,1690899087,729549309,"""world""",,,3.584632396697998,3.7277259826660156,0.2853764295578003
1690899087729638808,,17113,,1690899087,729553971,"""world""",,,3.584650993347168,3.7278623580932617,0.2854130268096924
1690899087739643221,,17114,,1690899087,739505015,"""world""",,,3.585131883621216,3.7278695106506348,0.2853583097457886
1690899087749568743,,17115,,1690899087,749499598,"""world""",,,3.585165500640869,3.7279975414276123,0.28535205125808716
1690899087769552985,,17116,,1690899087,769484664,"""world""",,,3.585296392440796,3.728099822998047,0.2853507995605469
1690899087769560956,,17117,,1690899087,769509847,"""world""",,,3.585495948791504,3.7282307147979736,0.28538021445274353
1690899087779561687,,17118,,1690899087,779493406,"""world""",,,3.5854709148406982,3.728292465209961,0.28558653593063354
1690899087789559939,,17119,,1690899087,789492167,"""world""",,,3.585224151611328,3.728147029876709,0.28596100211143494
1690899087799584020,,17120,,1690899087,799500887,"""world""",,,3.58596134185791,3.728386402130127,0.28574231266975403
1690899087809558009,,17121,,1690899087,809486276,"""world""",,,3.5865414142608643,3.728436231613159,0.2856549024581909
1690899087949571372,,17122,,1690899087,949489459,"""world""",,,3.586555242538452,3.728569269180298,0.28571876883506775
1690899087949577470,,17123,,1690899087,949515147,"""world""",,,3.58707594871521,3.7286999225616455,0.28568440675735474
1690899087949582130,,17128,,1690899087,949537261,"""world""",,,3.5879247188568115,3.7297303676605225,0.28569403290748596
1690899087949631132,,17129,,1690899087,949550176,"""world""",,,3.588407516479492,3.7298803329467773,0.28556177020072937
1690899087949637972,,17132,,1690899087,949561681,"""world""",,,3.5894320011138916,3.730328321456909,0.2855075001716614
1690899087949662619,,17133,,1690899087,949577072,"""world""",,,3.589653730392456,3.7304553985595703,0.2855073809623718
1690899087949669487,,17135,,1690899087,949604544,"""world""",,,3.5902302265167236,3.730828046798706,0.285571426153183
1690899087959533158,,17136,,1690899087,959474643,"""world""",,,3.589583396911621,3.7306556701660156,0.2863787114620209
1690899087969542342,,17137,,1690899087,969483772,"""world""",,,3.5898518562316895,3.730841875076294,0.2863180935382843
1690899087999562184,,17138,,1690899087,999493864,"""world""",,,3.5902657508850098,3.731064558029175,0.28623586893081665
1690899087999579253,,17139,,1690899087,999519871,"""world""",,,3.590602397918701,3.7312490940093994,0.2861674427986145
1690899087999582085,,17140,,1690899087,999528606,"""world""",,,3.5909271240234375,3.7312304973602295,0.286050945520401
1690899088009539903,,17141,,1690899088,9488741,"""world""",,,3.5920164585113525,3.7316160202026367,0.285916805267334
1690899088019542716,,17142,,1690899088,19469352,"""world""",,,3.591865062713623,3.7318694591522217,0.2861228287220001
1690899088029659289,,17143,,1690899088,29493207,"""world""",,,3.5923898220062256,3.7320284843444824,0.2861185371875763
1690899088039575531,,17144,,1690899088,39489320,"""world""",,,3.5922555923461914,3.7321741580963135,0.28658339381217957
1690899088049514674,,17145,,1690899088,49444243,"""world""",,,3.5929577350616455,3.7325408458709717,0.28639206290245056
1690899088059556354,,17146,,1690899088,59487210,"""world""",,,3.593142032623291,3.7327070236206055,0.2865123450756073
1690899088069519859,,17147,,1690899088,69443108,"""world""",,,3.592879295349121,3.732773542404175,0.2869877815246582
1690899088079556610,,17148,,1690899088,79487236,"""world""",,,3.5933492183685303,3.732996940612793,0.2870127558708191
1690899088089609013,,17149,,1690899088,89493180,"""world""",,,3.594064235687256,3.733365774154663,0.2868722677230835
1690899088099568216,,17150,,1690899088,99488483,"""world""",,,3.594083070755005,3.7337634563446045,0.2869545817375183
1690899088109541869,,17151,,1690899088,109488498,"""world""",,,3.5945816040039062,3.7343482971191406,0.2867557108402252
1690899088119578717,,17152,,1690899088,119488994,"""world""",,,3.5942702293395996,3.7346386909484863,0.28714150190353394
1690899088129557855,,17153,,1690899088,129485715,"""world""",,,3.5950229167938232,3.7349331378936768,0.28701508045196533
1690899088139565572,,17154,,1690899088,139484948,"""world""",,,3.5950534343719482,3.7353670597076416,0.28701522946357727
1690899088149569370,,17155,,1690899088,149500047,"""world""",,,3.594475746154785,3.735265016555786,0.28788208961486816
1690899088159609815,,17156,,1690899088,159499970,"""world""",,,3.5947635173797607,3.7356085777282715,0.288082480430603
1690899088169528608,,17157,,1690899088,169473848,"""world""",,,3.5951592922210693,3.7358052730560303,0.28811588883399963
1690899088179549076,,17158,,1690899088,179484976,"""world""",,,3.595487117767334,3.736267328262329,0.2880094647407532
1690899088189527297,,17159,,1690899088,189448196,"""world""",,,3.5957484245300293,3.736557960510254,0.2881892919540405
1690899088199590570,,17160,,1690899088,199498654,"""world""",,,3.5961596965789795,3.73703670501709,0.28809961676597595
1690899088209552402,,17161,,1690899088,209487206,"""world""",,,3.596409320831299,3.737579107284546,0.2880013585090637
1690899088219570334,,17162,,1690899088,219488359,"""world""",,,3.5966460704803467,3.7378089427948,0.2879932224750519
1690899088229516449,,17163,,1690899088,229455749,"""world""",,,3.5969929695129395,3.738182306289673,0.2879534363746643
1690899088239553585,,17164,,1690899088,239483653,"""world""",,,3.597209930419922,3.738326072692871,0.28808146715164185
1690899088249562150,,17165,,1690899088,249489955,"""world""",,,3.5983059406280518,3.7387895584106445,0.28744757175445557
1690899088259580072,,17166,,1690899088,259493761,"""world""",,,3.597729206085205,3.7386765480041504,0.2882354259490967
1690899088269525709,,17167,,1690899088,269470928,"""world""",,,3.5980639457702637,3.7388525009155273,0.28824904561042786
1690899088279543108,,17168,,1690899088,279483205,"""world""",,,3.598945140838623,3.739069700241089,0.2881280779838562
1690899088289551453,,17169,,1690899088,289483256,"""world""",,,3.599773645401001,3.7394182682037354,0.2877312898635864
1690899088299585464,,17170,,1690899088,299512274,"""world""",,,3.6003530025482178,3.7397515773773193,0.2878093123435974
1690899088309558710,,17171,,1690899088,309489029,"""world""",,,3.600043296813965,3.7400407791137695,0.2877911329269409
1690899088319561609,,17172,,1690899088,319485607,"""world""",,,3.601010799407959,3.7403790950775146,0.2875538170337677
1690899088329533148,,17173,,1690899088,329478732,"""world""",,,3.600480794906616,3.74053955078125,0.28799691796302795
1690899088339542244,,17174,,1690899088,339478973,"""world""",,,3.60083270072937,3.740744113922119,0.2880115509033203
1690899088349660631,,17175,,1690899088,349533807,"""world""",,,3.6011719703674316,3.7410411834716797,0.2880610227584839
1690899088359509466,,17176,,1690899088,359439550,"""world""",,,3.6014018058776855,3.74133563041687,0.28824183344841003
1690899088369524970,,17177,,1690899088,369470855,"""world""",,,3.6016311645507812,3.741558074951172,0.288400799036026
1690899088379525515,,17178,,1690899088,379456492,"""world""",,,3.6020431518554688,3.741335153579712,0.2886517643928528
1690899088389552299,,17179,,1690899088,389484618,"""world""",,,3.602550745010376,3.7417547702789307,0.2885526120662689
1690899088399559721,,17180,,1690899088,399485982,"""world""",,,3.603029251098633,3.742135763168335,0.288485586643219
1690899088409559300,,17181,,1690899088,409490123,"""world""",,,3.603411912918091,3.742710590362549,0.2883680462837219
1690899088419573901,,17182,,1690899088,419502131,"""world""",,,3.6036922931671143,3.7429323196411133,0.28843954205513
1690899088429503852,,17183,,1690899088,429444408,"""world""",,,3.604052782058716,3.743210792541504,0.2884511649608612
1690899088439560409,,17184,,1690899088,439485793,"""world""",,,3.604207992553711,3.7435052394866943,0.28852638602256775
1690899088449600241,,17185,,1690899088,449498551,"""world""",,,3.6045141220092773,3.7438273429870605,0.2884776294231415
1690899088459548611,,17186,,1690899088,459485481,"""world""",,,3.6047654151916504,3.7441446781158447,0.2884123921394348
1690899088469521489,,17187,,1690899088,469472546,"""world""",,,3.6062324047088623,3.7446634769439697,0.2876199781894684
1690899088479580052,,17188,,1690899088,479487673,"""world""",,,3.6060049533843994,3.7446842193603516,0.28806638717651367
1690899088489553578,,17189,,1690899088,489486555,"""world""",,,3.6059718132019043,3.744861602783203,0.28815504908561707
1690899088499586646,,17190,,1690899088,499498677,"""world""",,,3.6062393188476562,3.745020866394043,0.28830990195274353
1690899088509688586,,17191,,1690899088,509527944,"""world""",,,3.6065776348114014,3.7452468872070312,0.2880941927433014
1690899088519522990,,17192,,1690899088,519459895,"""world""",,,3.606755495071411,3.7454166412353516,0.2882910370826721
1690899088529539102,,17193,,1690899088,529481417,"""world""",,,3.607025146484375,3.7456881999969482,0.2882855534553528
1690899088539687994,,17194,,1690899088,539500919,"""world""",,,3.6075305938720703,3.7461185455322266,0.28813451528549194
1690899088549582323,,17195,,1690899088,549507629,"""world""",,,3.607696294784546,3.7463793754577637,0.2881908118724823
1690899088559592722,,17196,,1690899088,559504023,"""world""",,,3.607905864715576,3.7466485500335693,0.288383424282074
1690899088569536926,,17197,,1690899088,569456027,"""world""",,,3.6080410480499268,3.74694561958313,0.28848397731781006
1690899088579550478,,17198,,1690899088,579486305,"""world""",,,3.6085739135742188,3.7473061084747314,0.28841865062713623
1690899088589565970,,17199,,1690899088,589497461,"""world""",,,3.6084048748016357,3.747426986694336,0.28861379623413086
1690899088599564451,,17200,,1690899088,599493528,"""world""",,,3.608478546142578,3.747828722000122,0.28870320320129395
1690899088609559275,,17201,,1690899088,609489149,"""world""",,,3.608649969100952,3.7482337951660156,0.28878843784332275
1690899088619547896,,17202,,1690899088,619485579,"""world""",,,3.6089189052581787,3.7486379146575928,0.28870993852615356
1690899088629537770,,17203,,1690899088,629482171,"""world""",,,3.6090619564056396,3.748957872390747,0.28886646032333374
1690899088639573696,,17204,,1690899088,639490447,"""world""",,,3.6092982292175293,3.749386787414551,0.28894704580307007
1690899088649555126,,17205,,1690899088,649492526,"""world""",,,3.6092770099639893,3.7499186992645264,0.2891187071800232
1690899088659550812,,17206,,1690899088,659486087,"""world""",,,3.6099886894226074,3.7505156993865967,0.2888496220111847
1690899088669551726,,17207,,1690899088,669446933,"""world""",,,3.609773874282837,3.750664710998535,0.28948646783828735
1690899088679548704,,17208,,1690899088,679486498,"""world""",,,3.61055064201355,3.7515010833740234,0.2891509532928467
1690899088689545568,,17209,,1690899088,689484373,"""world""",,,3.6105127334594727,3.7519631385803223,0.28935059905052185
1690899088699590354,,17210,,1690899088,699494269,"""world""",,,3.609851837158203,3.752354860305786,0.29003235697746277
1690899088709550099,,17211,,1690899088,709486319,"""world""",,,3.610079765319824,3.7528061866760254,0.28988295793533325
1690899088719560980,,17212,,1690899088,719488512,"""world""",,,3.6102542877197266,3.753214120864868,0.2901473343372345
1690899088729559939,,17213,,1690899088,729485762,"""world""",,,3.610438585281372,3.753554582595825,0.2903535068035126
1690899088739601519,,17214,,1690899088,739504191,"""world""",,,3.610684871673584,3.7541515827178955,0.29024773836135864
1690899088749538546,,17215,,1690899088,749461136,"""world""",,,3.6109631061553955,3.7546684741973877,0.29035815596580505
1690899088759558095,,17216,,1690899088,759488822,"""world""",,,3.6110424995422363,3.755244016647339,0.29051467776298523
1690899088769543830,,17217,,1690899088,769485211,"""world""",,,3.6112024784088135,3.7555794715881348,0.29061296582221985
1690899088779542986,,17218,,1690899088,779483965,"""world""",,,3.6115150451660156,3.7561213970184326,0.2905609607696533
1690899088789547549,,17219,,1690899088,789484977,"""world""",,,3.6116068363189697,3.756544589996338,0.29079484939575195
1690899088799548518,,17220,,1690899088,799452539,"""world""",,,3.6116433143615723,3.756995916366577,0.29095861315727234
1690899088809550963,,17221,,1690899088,809487137,"""world""",,,3.611729383468628,3.7573018074035645,0.29116231203079224
1690899088819554021,,17222,,1690899088,819483759,"""world""",,,3.611809730529785,3.757768154144287,0.29127469658851624
1690899088829617571,,17223,,1690899088,829496048,"""world""",,,3.611961841583252,3.758030891418457,0.29173967242240906
1690899088839596177,,17224,,1690899088,839503534,"""world""",,,3.611982583999634,3.758572578430176,0.2918117940425873
1690899088849567985,,17225,,1690899088,849487203,"""world""",,,3.6121952533721924,3.758967399597168,0.29186320304870605
1690899088859550048,,17226,,1690899088,859472643,"""world""",,,3.612466335296631,3.7594878673553467,0.29184120893478394
1690899088869529571,,17227,,1690899088,869469090,"""world""",,,3.612520933151245,3.7600369453430176,0.2919372022151947
1690899088879542905,,17228,,1690899088,879481954,"""world""",,,3.612722396850586,3.7602453231811523,0.29206132888793945
1690899088889579483,,17229,,1690899088,889471517,"""world""",,,3.6128673553466797,3.7606372833251953,0.2921725809574127
1690899088899528000,,17230,,1690899088,899449250,"""world""",,,3.6129326820373535,3.761340379714966,0.2921486496925354
1690899088909552302,,17231,,1690899088,909486720,"""world""",,,3.61332368850708,3.761786460876465,0.29220861196517944
1690899088919556865,,17232,,1690899088,919486225,"""world""",,,3.613243341445923,3.762080192565918,0.2926156222820282
1690899088929533457,,17233,,1690899088,929466932,"""world""",,,3.6133487224578857,3.76240611076355,0.29275819659233093
1690899088939578184,,17234,,1690899088,939487342,"""world""",,,3.613374710083008,3.7628440856933594,0.29295337200164795
1690899088949605916,,17235,,1690899088,949490936,"""world""",,,3.6134860515594482,3.7633166313171387,0.2930692136287689
1690899088959608427,,17236,,1690899088,959491632,"""world""",,,3.6135447025299072,3.7638344764709473,0.29319900274276733
1690899088969521674,,17237,,1690899088,969446934,"""world""",,,3.6135435104370117,3.7642760276794434,0.2933530807495117
1690899088979581994,,17238,,1690899088,979495235,"""world""",,,3.613741874694824,3.76450514793396,0.2935434579849243
1690899088989640560,,17239,,1690899088,989496868,"""world""",,,3.6137661933898926,3.764961004257202,0.2935681641101837
1690899088999569893,,17240,,1690899088,999486048,"""world""",,,3.6136605739593506,3.7653887271881104,0.29373422265052795
1690899089009553534,,17241,,1690899089,9486998,"""world""",,,3.613715171813965,3.765777826309204,0.29383352398872375
1690899089019616131,,17242,,1690899089,19532167,"""world""",,,3.6137535572052,3.766141891479492,0.2939727008342743
1690899089029554838,,17243,,1690899089,29493814,"""world""",,,3.6138148307800293,3.766526460647583,0.29410064220428467
1690899089039577251,,17244,,1690899089,39488679,"""world""",,,3.613863468170166,3.767019033432007,0.29417356848716736
1690899089049642361,,17245,,1690899089,49521811,"""world""",,,3.613903760910034,3.7673487663269043,0.29429206252098083
1690899089059596417,,17246,,1690899089,59486670,"""world""",,,3.6139001846313477,3.767852783203125,0.29430004954338074
1690899089069556019,,17247,,1690899089,69471443,"""world""",,,3.6138951778411865,3.7682535648345947,0.2945062518119812
1690899089079574962,,17248,,1690899089,79497806,"""world""",,,3.613920211791992,3.768871307373047,0.2943713366985321
1690899089089556849,,17249,,1690899089,89489685,"""world""",,,3.6148555278778076,3.769547462463379,0.2940886616706848
1690899089099564183,,17250,,1690899089,99486079,"""world""",,,3.6140592098236084,3.7696926593780518,0.2945905029773712
1690899089109562773,,17251,,1690899089,109492536,"""world""",,,3.6141390800476074,3.7699787616729736,0.29488155245780945
1690899089119574459,,17252,,1690899089,119496342,"""world""",,,3.6141934394836426,3.770329475402832,0.29502710700035095
1690899089129538237,,17253,,1690899089,129484717,"""world""",,,3.61423397064209,3.770771026611328,0.2952118515968323
1690899089139547965,,17254,,1690899089,139474103,"""world""",,,3.6142499446868896,3.771125078201294,0.2953818440437317
1690899089149714849,,17255,,1690899089,149581190,"""world""",,,3.614245653152466,3.7714600563049316,0.29549452662467957
1690899089159555744,,17256,,1690899089,159487677,"""world""",,,3.6142139434814453,3.771822452545166,0.29561087489128113
1690899089169526797,,17257,,1690899089,169471444,"""world""",,,3.6141953468322754,3.7721140384674072,0.29572755098342896
1690899089179659448,,17258,,1690899089,179518545,"""world""",,,3.614215135574341,3.7724647521972656,0.29576995968818665
1690899089189547447,,17259,,1690899089,189486022,"""world""",,,3.6142048835754395,3.7727444171905518,0.2958751916885376
1690899089199557267,,17260,,1690899089,199486079,"""world""",,,3.614276647567749,3.7731032371520996,0.2958182692527771
1690899089209568399,,17261,,1690899089,209473700,"""world""",,,3.6142802238464355,3.7733633518218994,0.2958367168903351
1690899089219554360,,17262,,1690899089,219491382,"""world""",,,3.614278554916382,3.773768663406372,0.2957542836666107
1690899089229540105,,17263,,1690899089,229480438,"""world""",,,3.6143178939819336,3.7740113735198975,0.2957783043384552
1690899089239548989,,17264,,1690899089,239475658,"""world""",,,3.6143970489501953,3.774231433868408,0.295621782541275
1690899089249556240,,17265,,1690899089,249487950,"""world""",,,3.614382266998291,3.77443265914917,0.29564252495765686
1690899089259570638,,17266,,1690899089,259506956,"""world""",,,3.6143975257873535,3.7745988368988037,0.2956985533237457
1690899089269523751,,17267,,1690899089,269471052,"""world""",,,3.6144020557403564,3.7747135162353516,0.2957151532173157
1690899089279607935,,17268,,1690899089,279501398,"""world""",,,3.6144208908081055,3.7748196125030518,0.2957475781440735
1690899089289597832,,17269,,1690899089,289484803,"""world""",,,3.614450693130493,3.774949073791504,0.295758455991745
1690899089299557271,,17270,,1690899089,299469936,"""world""",,,3.6143903732299805,3.775092124938965,0.29592275619506836
1690899089309675715,,17271,,1690899089,309504044,"""world""",,,3.61445951461792,3.7751734256744385,0.2957371473312378
1690899089319505739,,17272,,1690899089,319441053,"""world""",,,3.6143388748168945,3.7751541137695312,0.29583317041397095
1690899089329506356,,17273,,1690899089,329447371,"""world""",,,3.614365577697754,3.775242567062378,0.2957552671432495
1690899089339640066,,17274,,1690899089,339497427,"""world""",,,3.614358901977539,3.775562047958374,0.29568755626678467
1690899089349570315,,17275,,1690899089,349492474,"""world""",,,3.614607095718384,3.775585651397705,0.2956194579601288
1690899089359549914,,17276,,1690899089,359485232,"""world""",,,3.614403009414673,3.7754907608032227,0.2956863045692444
1690899089369565298,,17277,,1690899089,369505219,"""world""",,,3.614858865737915,3.7756004333496094,0.2955942451953888
1690899089379531220,,17278,,1690899089,379465534,"""world""",,,3.6151769161224365,3.7755844593048096,0.2956257164478302
1690899089389557109,,17279,,1690899089,389487741,"""world""",,,3.6152117252349854,3.7755095958709717,0.2956942617893219
1690899089399561029,,17280,,1690899089,399487332,"""world""",,,3.6148014068603516,3.7754387855529785,0.29571399092674255
1690899089409547030,,17281,,1690899089,409469117,"""world""",,,3.6148626804351807,3.775442600250244,0.2955867648124695
1690899089419545749,,17282,,1690899089,419471759,"""world""",,,3.6149373054504395,3.775383710861206,0.2955324947834015
1690899089429533329,,17283,,1690899089,429477718,"""world""",,,3.6151628494262695,3.7750091552734375,0.2955905795097351
1690899089439569469,,17284,,1690899089,439488842,"""world""",,,3.6151647567749023,3.775118827819824,0.29528236389160156
1690899089449658723,,17285,,1690899089,449522808,"""world""",,,3.6151628494262695,3.77517032623291,0.2951340675354004
1690899089459550409,,17286,,1690899089,459487781,"""world""",,,3.6152727603912354,3.7750983238220215,0.2947573661804199
1690899089469602187,,17287,,1690899089,469492747,"""world""",,,3.6153507232666016,3.7749645709991455,0.2946501076221466
1690899089479571740,,17288,,1690899089,479487974,"""world""",,,3.615493059158325,3.774778366088867,0.29458197951316833
1690899089489556903,,17289,,1690899089,489486210,"""world""",,,3.6156158447265625,3.774678945541382,0.29451194405555725
1690899089499651560,,17290,,1690899089,499527064,"""world""",,,3.6155896186828613,3.774517774581909,0.2946343719959259
1690899089509565512,,17291,,1690899089,509487574,"""world""",,,3.6157546043395996,3.774393081665039,0.29459348320961
1690899089519512319,,17292,,1690899089,519443950,"""world""",,,3.6157939434051514,3.774221420288086,0.29455748200416565
1690899089529546814,,17293,,1690899089,529488252,"""world""",,,3.615839719772339,3.774081230163574,0.29447653889656067
1690899089539555745,,17294,,1690899089,539485233,"""world""",,,3.6159000396728516,3.7739548683166504,0.2943967282772064
1690899089549572895,,17295,,1690899089,549475944,"""world""",,,3.6159985065460205,3.7736241817474365,0.2945915460586548
1690899089559538509,,17296,,1690899089,559472099,"""world""",,,3.615929365158081,3.773712635040283,0.294198215007782
1690899089569553773,,17297,,1690899089,569487349,"""world""",,,3.616023063659668,3.773344039916992,0.29432669281959534
1690899089579568695,,17298,,1690899089,579487925,"""world""",,,3.6160004138946533,3.77314829826355,0.2942301630973816
1690899089589563204,,17299,,1690899089,589489283,"""world""",,,3.6165285110473633,3.7730698585510254,0.29401570558547974
1690899089599570699,,17300,,1690899089,599494133,"""world""",,,3.616009473800659,3.7727575302124023,0.294118732213974
1690899089609574833,,17301,,1690899089,609495351,"""world""",,,3.615907907485962,3.77266526222229,0.29384657740592957
1690899089619545232,,17302,,1690899089,619485446,"""world""",,,3.6158623695373535,3.7726423740386963,0.29369744658470154
1690899089629621776,,17303,,1690899089,629499572,"""world""",,,3.6161880493164062,3.772704839706421,0.29344823956489563
1690899089639536892,,17304,,1690899089,639480725,"""world""",,,3.6158485412597656,3.7720465660095215,0.29364582896232605
1690899089649583349,,17305,,1690899089,649491124,"""world""",,,3.615830183029175,3.771850109100342,0.29358604550361633
1690899089659586246,,17306,,1690899089,659493863,"""world""",,,3.616187810897827,3.7717490196228027,0.2933875620365143
1690899089669504478,,17307,,1690899089,669447573,"""world""",,,3.6159205436706543,3.7714929580688477,0.2933546006679535
1690899089679550017,,17308,,1690899089,679484754,"""world""",,,3.6157851219177246,3.7711822986602783,0.2933126986026764
1690899089689656824,,17309,,1690899089,689505597,"""world""",,,3.6157078742980957,3.7709078788757324,0.2932303547859192
1690899089699580041,,17310,,1690899089,699496009,"""world""",,,3.6157689094543457,3.77058482170105,0.2930971384048462
1690899089709524180,,17311,,1690899089,709457535,"""world""",,,3.6157453060150146,3.770275354385376,0.2930012345314026
1690899089719552052,,17312,,1690899089,719484753,"""world""",,,3.615685224533081,3.7701303958892822,0.2928805649280548
1690899089729563217,,17313,,1690899089,729485707,"""world""",,,3.6155567169189453,3.7698941230773926,0.29272523522377014
1690899089739539388,,17314,,1690899089,739472575,"""world""",,,3.6156084537506104,3.769388437271118,0.29282933473587036
1690899089749532689,,17315,,1690899089,749465081,"""world""",,,3.6154770851135254,3.7690978050231934,0.29272621870040894
1690899089759607196,,17316,,1690899089,759470333,"""world""",,,3.6154184341430664,3.7688992023468018,0.29258546233177185
1690899089769522801,,17317,,1690899089,769473249,"""world""",,,3.615353584289551,3.7686243057250977,0.2925069034099579
1690899089779512900,,17318,,1690899089,779447955,"""world""",,,3.6153151988983154,3.7682859897613525,0.2924100458621979
1690899089789608615,,17319,,1690899089,789492568,"""world""",,,3.6153335571289062,3.76794171333313,0.2923027276992798
1690899089799613304,,17320,,1690899089,799491321,"""world""",,,3.6152865886688232,3.767582416534424,0.2922388017177582
1690899089809553088,,17321,,1690899089,809486510,"""world""",,,3.6152331829071045,3.767242908477783,0.29209643602371216
1690899089819625694,,17322,,1690899089,819515980,"""world""",,,3.6152689456939697,3.766998291015625,0.2918766140937805
1690899089829542710,,17323,,1690899089,829483732,"""world""",,,3.6150765419006348,3.7667481899261475,0.29198014736175537
1690899089839529049,,17324,,1690899089,839472488,"""world""",,,3.614891767501831,3.76648211479187,0.2919957935810089
1690899089849601682,,17325,,1690899089,849499347,"""world""",,,3.6149353981018066,3.7660202980041504,0.29196012020111084
1690899089859588233,,17326,,1690899089,859494392,"""world""",,,3.614805221557617,3.765869140625,0.29192036390304565
1690899089869529970,,17327,,1690899089,869476460,"""world""",,,3.6145572662353516,3.765634536743164,0.29175662994384766
1690899089879587604,,17328,,1690899089,879495271,"""world""",,,3.614433765411377,3.765366315841675,0.29169026017189026
1690899089889546677,,17329,,1690899089,889487429,"""world""",,,3.614288330078125,3.765132188796997,0.2915078103542328
1690899089899568424,,17330,,1690899089,899485456,"""world""",,,3.614269256591797,3.76454496383667,0.2914927899837494
1690899089909563235,,17331,,1690899089,909488513,"""world""",,,3.6141600608825684,3.7642831802368164,0.29137080907821655
1690899089919562371,,17332,,1690899089,919494319,"""world""",,,3.614017963409424,3.763974189758301,0.29125550389289856
1690899089929536791,,17333,,1690899089,929480568,"""world""",,,3.613874912261963,3.763660430908203,0.29119566082954407
1690899089939529640,,17334,,1690899089,939473028,"""world""",,,3.6137800216674805,3.7633113861083984,0.29111185669898987
1690899089949716571,,17335,,1690899089,949538235,"""world""",,,3.6138951778411865,3.762882947921753,0.29103294014930725
1690899089959551172,,17336,,1690899089,959487447,"""world""",,,3.613502025604248,3.7623960971832275,0.2910996079444885
1690899089969526045,,17337,,1690899089,969476082,"""world""",,,3.6135334968566895,3.7619125843048096,0.2907830476760864
1690899089979611092,,17338,,1690899089,979491073,"""world""",,,3.613250732421875,3.761489152908325,0.2907603979110718
1690899089989572694,,17339,,1690899089,989486007,"""world""",,,3.613110065460205,3.7610507011413574,0.2906619906425476
1690899089999594217,,17340,,1690899089,999487753,"""world""",,,3.6129348278045654,3.7606418132781982,0.29061129689216614
1690899090009613888,,17341,,1690899090,9501640,"""world""",,,3.6126389503479004,3.7602694034576416,0.29056498408317566
1690899090019629341,,17342,,1690899090,19498149,"""world""",,,3.61250638961792,3.7599005699157715,0.2904568910598755
1690899090029556617,,17343,,1690899090,29493114,"""world""",,,3.6123385429382324,3.759774684906006,0.290006548166275
1690899090039538079,,17344,,1690899090,39475831,"""world""",,,3.6121950149536133,3.7591261863708496,0.29026052355766296
1690899090049674881,,17345,,1690899090,49520672,"""world""",,,3.611844539642334,3.7589802742004395,0.2899254560470581
1690899090059524820,,17346,,1690899090,59459022,"""world""",,,3.611616373062134,3.758573055267334,0.28989163041114807
1690899090069536011,,17347,,1690899090,69475336,"""world""",,,3.6113533973693848,3.7580106258392334,0.2898872196674347
1690899090079558868,,17348,,1690899090,79490828,"""world""",,,3.611069440841675,3.757702350616455,0.2898252010345459
1690899090089582612,,17349,,1690899090,89503167,"""world""",,,3.611114501953125,3.757298469543457,0.28959670662879944
1690899090099558486,,17350,,1690899090,99489579,"""world""",,,3.610996723175049,3.756739377975464,0.28963321447372437
1690899090109680907,,17351,,1690899090,109518126,"""world""",,,3.6107964515686035,3.756606101989746,0.28949370980262756
1690899090119570030,,17352,,1690899090,119496684,"""world""",,,3.6104791164398193,3.7559945583343506,0.28965380787849426
1690899090129538013,,17353,,1690899090,129480574,"""world""",,,3.6102607250213623,3.755620002746582,0.2896064519882202
1690899090139655796,,17354,,1690899090,139513375,"""world""",,,3.609795570373535,3.755437135696411,0.28936243057250977
1690899090149604279,,17355,,1690899090,149503191,"""world""",,,3.6095738410949707,3.7548205852508545,0.2896764278411865
1690899090159556269,,17356,,1690899090,159490121,"""world""",,,3.60922908782959,3.7545742988586426,0.2892920970916748
1690899090169527267,,17357,,1690899090,169464430,"""world""",,,3.6089580059051514,3.7542216777801514,0.2892487943172455
1690899090179561442,,17358,,1690899090,179494934,"""world""",,,3.6087188720703125,3.753835678100586,0.2891973853111267
1690899090189559248,,17359,,1690899090,189493070,"""world""",,,3.6086435317993164,3.7534372806549072,0.28910404443740845
1690899090199567863,,17360,,1690899090,199491110,"""world""",,,3.6084237098693848,3.753074884414673,0.2891635000705719
1690899090209584207,,17361,,1690899090,209496937,"""world""",,,3.608257532119751,3.752749443054199,0.28895291686058044
1690899090219576354,,17362,,1690899090,219495284,"""world""",,,3.6080129146575928,3.7522964477539062,0.2889499068260193
1690899090229532967,,17363,,1690899090,229479881,"""world""",,,3.607651948928833,3.7518298625946045,0.28906652331352234
1690899090239550964,,17364,,1690899090,239486031,"""world""",,,3.607219696044922,3.751408100128174,0.28909552097320557
1690899090249572971,,17365,,1690899090,249499783,"""world""",,,3.6070034503936768,3.751024007797241,0.2890446186065674
1690899090259560150,,17366,,1690899090,259489050,"""world""",,,3.606609344482422,3.7508206367492676,0.2890031635761261
1690899090269614725,,17367,,1690899090,269494518,"""world""",,,3.606333017349243,3.7502219676971436,0.28909435868263245
1690899090279543314,,17368,,1690899090,279486445,"""world""",,,3.605926036834717,3.7502894401550293,0.28881123661994934
1690899090289545472,,17369,,1690899090,289485659,"""world""",,,3.605719566345215,3.7499542236328125,0.2885988652706146
1690899090299628257,,17370,,1690899090,299498709,"""world""",,,3.605360746383667,3.749479293823242,0.2886098027229309
1690899090309555102,,17371,,1690899090,309488888,"""world""",,,3.6048383712768555,3.749054431915283,0.28876933455467224
1690899090319614472,,17372,,1690899090,319554253,"""world""",,,3.604423999786377,3.7486915588378906,0.28873690962791443
1690899090329546383,,17373,,1690899090,329485960,"""world""",,,3.604063034057617,3.7483253479003906,0.28859061002731323
1690899090339598135,,17374,,1690899090,339485686,"""world""",,,3.6045496463775635,3.7482669353485107,0.2879234552383423
1690899090349581017,,17375,,1690899090,349498628,"""world""",,,3.603430986404419,3.747744560241699,0.28852343559265137
1690899090359578485,,17376,,1690899090,359496059,"""world""",,,3.603147506713867,3.7473807334899902,0.28848227858543396
1690899090369545528,,17377,,1690899090,369488420,"""world""",,,3.6038320064544678,3.74715518951416,0.2881702482700348
1690899090379550609,,17378,,1690899090,379492928,"""world""",,,3.6024603843688965,3.7466559410095215,0.2886159420013428
1690899090389545289,,17379,,1690899090,389487945,"""world""",,,3.6020569801330566,3.7463746070861816,0.28872111439704895
1690899090399550000,,17380,,1690899090,399490692,"""world""",,,3.601604461669922,3.7461342811584473,0.2886119484901428
1690899090409575965,,17381,,1690899090,409501037,"""world""",,,3.602168560028076,3.7459864616394043,0.2881634533405304
1690899090419530441,,17382,,1690899090,419467507,"""world""",,,3.6020429134368896,3.745640516281128,0.2882104516029358
1690899090429548871,,17383,,1690899090,429454235,"""world""",,,3.6009280681610107,3.745426654815674,0.288445383310318
1690899090439525246,,17384,,1690899090,439475609,"""world""",,,3.6005313396453857,3.7450926303863525,0.28852567076683044
1690899090449604595,,17385,,1690899090,449507797,"""world""",,,3.6002213954925537,3.7449846267700195,0.28853070735931396
1690899090459549118,,17386,,1690899090,459488273,"""world""",,,3.5999550819396973,3.744662284851074,0.28855231404304504
1690899090469539317,,17387,,1690899090,469484511,"""world""",,,3.59958553314209,3.744117021560669,0.28880372643470764
1690899090479552934,,17388,,1690899090,479490822,"""world""",,,3.5992324352264404,3.744044303894043,0.28866663575172424
1690899090489650448,,17389,,1690899090,489499360,"""world""",,,3.5989062786102295,3.7435312271118164,0.2887711226940155
1690899090499563874,,17390,,1690899090,499490694,"""world""",,,3.5993335247039795,3.7436580657958984,0.28823304176330566
1690899090509576241,,17391,,1690899090,509503955,"""world""",,,3.598322868347168,3.7429139614105225,0.2886476516723633
1690899090519627686,,17392,,1690899090,519527526,"""world""",,,3.597987174987793,3.743039846420288,0.2885996699333191
1690899090529551429,,17393,,1690899090,529490102,"""world""",,,3.5977730751037598,3.7427687644958496,0.2882569134235382
1690899090539526663,,17394,,1690899090,539477111,"""world""",,,3.5972678661346436,3.7424798011779785,0.2884259521961212
1690899090549814682,,17395,,1690899090,549617826,"""world""",,,3.597047805786133,3.742093801498413,0.2882627844810486
1690899090559681156,,17396,,1690899090,559513172,"""world""",,,3.596982002258301,3.741650342941284,0.2881610095500946
1690899090569549282,,17397,,1690899090,569486762,"""world""",,,3.5963199138641357,3.741246461868286,0.28839820623397827
1690899090579550171,,17398,,1690899090,579490010,"""world""",,,3.5960326194763184,3.7407660484313965,0.2886306345462799
1690899090589586181,,17399,,1690899090,589495617,"""world""",,,3.5956873893737793,3.740661859512329,0.2884907126426697
1690899090599600633,,17400,,1690899090,599515756,"""world""",,,3.5961759090423584,3.7406976222991943,0.2879772186279297
1690899090609603015,,17401,,1690899090,609502414,"""world""",,,3.595726251602173,3.7403814792633057,0.2879412770271301
1690899090619823886,,17402,,1690899090,619549432,"""world""",,,3.5953762531280518,3.740018367767334,0.2879529297351837
1690899090629543937,,17403,,1690899090,629486753,"""world""",,,3.5947258472442627,3.739733934402466,0.28802210092544556
1690899090639521982,,17404,,1690899090,639470499,"""world""",,,3.594381332397461,3.739431142807007,0.28802087903022766
1690899090649602567,,17405,,1690899090,649472839,"""world""",,,3.5947535037994385,3.7391698360443115,0.28781116008758545
1690899090659643487,,17406,,1690899090,659516391,"""world""",,,3.5945663452148438,3.738894462585449,0.28782570362091064
1690899090669540272,,17407,,1690899090,669480954,"""world""",,,3.5940332412719727,3.738574504852295,0.28800538182258606
1690899090679556210,,17408,,1690899090,679490656,"""world""",,,3.59421706199646,3.7385470867156982,0.2877494990825653
1690899090689554185,,17409,,1690899090,689488511,"""world""",,,3.594062089920044,3.7382771968841553,0.2878269851207733
1690899090699596623,,17410,,1690899090,699505377,"""world""",,,3.5930559635162354,3.738088846206665,0.2881353199481964
1690899090709540640,,17411,,1690899090,709448876,"""world""",,,3.592874765396118,3.7380120754241943,0.28815504908561707
1690899090719580803,,17412,,1690899090,719498293,"""world""",,,3.5923078060150146,3.737877130508423,0.2882959544658661
1690899090729540252,,17413,,1690899090,729483131,"""world""",,,3.592693328857422,3.73762845993042,0.2880760729312897
1690899090739521604,,17414,,1690899090,739471793,"""world""",,,3.5921764373779297,3.7375636100769043,0.2881799638271332
1690899090749910730,,17415,,1690899090,749547595,"""world""",,,3.591721534729004,3.7373886108398438,0.28826475143432617
1690899090759539872,,17416,,1690899090,759478484,"""world""",,,3.591252565383911,3.737332582473755,0.288336843252182
1690899090769538610,,17417,,1690899090,769479062,"""world""",,,3.5909106731414795,3.7369773387908936,0.2884199917316437
1690899090779586145,,17418,,1690899090,779499199,"""world""",,,3.5907514095306396,3.737175226211548,0.2882513701915741
1690899090789556499,,17419,,1690899090,789489907,"""world""",,,3.5912258625030518,3.7371981143951416,0.2876894772052765
1690899090799560354,,17420,,1690899090,799486719,"""world""",,,3.5902411937713623,3.7367873191833496,0.28822827339172363
1690899090809630967,,17421,,1690899090,809508984,"""world""",,,3.5902040004730225,3.7368640899658203,0.28803181648254395
1690899090819592916,,17422,,1690899090,819503213,"""world""",,,3.589982032775879,3.7367451190948486,0.28808027505874634
1690899090829574105,,17423,,1690899090,829482966,"""world""",,,3.58988881111145,3.736508846282959,0.28817036747932434
1690899090839525339,,17424,,1690899090,839471967,"""world""",,,3.589540958404541,3.7363555431365967,0.2882508933544159
1690899090849698679,,17425,,1690899090,849542631,"""world""",,,3.5902230739593506,3.736421823501587,0.2877461314201355
1690899090859583035,,17426,,1690899090,859504767,"""world""",,,3.5892319679260254,3.7361555099487305,0.28834065794944763
1690899090869527495,,17427,,1690899090,869474749,"""world""",,,3.5890746116638184,3.7360637187957764,0.2883799970149994
1690899090879554383,,17428,,1690899090,879497276,"""world""",,,3.5896806716918945,3.7359063625335693,0.28807544708251953
1690899090889565344,,17429,,1690899090,889494889,"""world""",,,3.5892703533172607,3.7357771396636963,0.2882238030433655
1690899090899565020,,17430,,1690899090,899487895,"""world""",,,3.588498592376709,3.735708713531494,0.28841185569763184
1690899090909627297,,17431,,1690899090,909500929,"""world""",,,3.5883405208587646,3.7355594635009766,0.28844839334487915
1690899090919569800,,17432,,1690899090,919492899,"""world""",,,3.5883965492248535,3.735628128051758,0.2882296144962311
1690899090929544207,,17433,,1690899090,929485305,"""world""",,,3.5880866050720215,3.7352795600891113,0.28853529691696167
1690899090939576136,,17434,,1690899090,939491251,"""world""",,,3.5878264904022217,3.735111713409424,0.2886958122253418
1690899090949744327,,17435,,1690899090,949554265,"""world""",,,3.587641477584839,3.735137939453125,0.2887113690376282
1690899090959551601,,17436,,1690899090,959487103,"""world""",,,3.587458372116089,3.7350029945373535,0.28872233629226685
1690899090969532592,,17437,,1690899090,969472570,"""world""",,,3.587327241897583,3.734995126724243,0.2887553870677948
1690899090979559347,,17438,,1690899090,979492552,"""world""",,,3.5878593921661377,3.735349178314209,0.28828755021095276
1690899090989550604,,17439,,1690899090,989489101,"""world""",,,3.5877492427825928,3.7353005409240723,0.2883935272693634
1690899090999563157,,17440,,1690899090,999487991,"""world""",,,3.58711576461792,3.735330581665039,0.2885529100894928
1690899091009860383,,17441,,1690899091,9773593,"""world""",,,3.5874876976013184,3.735382556915283,0.2883683145046234
1690899091019757456,,17442,,1690899091,19667516,"""world""",,,3.5863518714904785,3.735142707824707,0.28894737362861633
1690899091029552972,,17443,,1690899091,29489117,"""world""",,,3.586162567138672,3.735182285308838,0.28902480006217957
1690899091039550178,,17444,,1690899091,39484377,"""world""",,,3.5869786739349365,3.7354722023010254,0.28839418292045593
1690899091049704259,,17445,,1690899091,49530824,"""world""",,,3.586754322052002,3.7354631423950195,0.28855547308921814
1690899091059552888,,17446,,1690899091,59489514,"""world""",,,3.5865724086761475,3.735583543777466,0.28888896107673645
1690899091069580004,,17447,,1690899091,69489016,"""world""",,,3.586459159851074,3.735530376434326,0.28887492418289185
1690899091079531766,,17448,,1690899091,79475207,"""world""",,,3.586306095123291,3.7355446815490723,0.28888171911239624
1690899091089555068,,17449,,1690899091,89493244,"""world""",,,3.586240530014038,3.7356362342834473,0.2889554798603058
1690899091099699856,,17450,,1690899091,99525351,"""world""",,,3.586103916168213,3.7356419563293457,0.28906217217445374
1690899091109567220,,17451,,1690899091,109490637,"""world""",,,3.5858418941497803,3.7356696128845215,0.2891080379486084
1690899091119568584,,17452,,1690899091,119493927,"""world""",,,3.5849883556365967,3.7356245517730713,0.28963184356689453
1690899091129553060,,17453,,1690899091,129489560,"""world""",,,3.585758686065674,3.7357842922210693,0.2891171872615814
1690899091139542768,,17454,,1690899091,139484550,"""world""",,,3.584923505783081,3.7357847690582275,0.28960302472114563
1690899091149674993,,17455,,1690899091,149540134,"""world""",,,3.5856223106384277,3.735867500305176,0.28936994075775146
1690899091159604767,,17456,,1690899091,159508107,"""world""",,,3.584690570831299,3.735935926437378,0.28977686166763306
1690899091169550917,,17457,,1690899091,169486703,"""world""",,,3.5853376388549805,3.736081600189209,0.28934794664382935
1690899091179550943,,17458,,1690899091,179483975,"""world""",,,3.5850939750671387,3.73610782623291,0.28965824842453003
1690899091189545806,,17459,,1690899091,189485735,"""world""",,,3.584275484085083,3.7359495162963867,0.29028037190437317
1690899091199613831,,17460,,1690899091,199502847,"""world""",,,3.5851595401763916,3.7362186908721924,0.2896782457828522
1690899091209559221,,17461,,1690899091,209486405,"""world""",,,3.5843875408172607,3.736248016357422,0.290059357881546
1690899091219604818,,17462,,1690899091,219514463,"""world""",,,3.583984613418579,3.7361836433410645,0.29025065898895264
1690899091229616952,,17463,,1690899091,229497690,"""world""",,,3.5839107036590576,3.7362725734710693,0.29029470682144165
1690899091239529317,,17464,,1690899091,239474079,"""world""",,,3.583754539489746,3.736431121826172,0.2903050184249878
1690899091249643076,,17465,,1690899091,249531398,"""world""",,,3.5835416316986084,3.736518383026123,0.2904832661151886
1690899091259595347,,17466,,1690899091,259497282,"""world""",,,3.583446502685547,3.7366092205047607,0.2904838025569916
1690899091269533199,,17467,,1690899091,269468803,"""world""",,,3.5833349227905273,3.736696481704712,0.2905915677547455
1690899091279544584,,17468,,1690899091,279486379,"""world""",,,3.584012746810913,3.736783266067505,0.29055601358413696
1690899091289635614,,17469,,1690899091,289506621,"""world""",,,3.5829429626464844,3.7364273071289062,0.29136940836906433
1690899091299578446,,17470,,1690899091,299491994,"""world""",,,3.5828683376312256,3.736504316329956,0.2915128171443939
1690899091309563212,,17471,,1690899091,309491575,"""world""",,,3.5827391147613525,3.736542224884033,0.2916136085987091
1690899091319555835,,17472,,1690899091,319490304,"""world""",,,3.582906484603882,3.737041473388672,0.29103976488113403
1690899091329508885,,17473,,1690899091,329438913,"""world""",,,3.5825014114379883,3.7371609210968018,0.2916399836540222
1690899091339502064,,17474,,1690899091,339451338,"""world""",,,3.5823328495025635,3.737154960632324,0.29190802574157715
1690899091349639003,,17475,,1690899091,349508363,"""world""",,,3.582122564315796,3.737339735031128,0.29189831018447876
1690899091359579931,,17476,,1690899091,359489714,"""world""",,,3.5820045471191406,3.737468957901001,0.2920156419277191
1690899091369526329,,17477,,1690899091,369474581,"""world""",,,3.5818698406219482,3.737555503845215,0.2920912504196167
1690899091379540425,,17478,,1690899091,379483738,"""world""",,,3.581775426864624,3.73763370513916,0.2921558916568756
1690899091389580216,,17479,,1690899091,389490828,"""world""",,,3.5816967487335205,3.7378499507904053,0.29201674461364746
1690899091399563141,,17480,,1690899091,399488272,"""world""",,,3.5814027786254883,3.7378809452056885,0.2922472655773163
1690899091409555351,,17481,,1690899091,409486446,"""world""",,,3.5824246406555176,3.7382619380950928,0.29150909185409546
1690899091419631331,,17482,,1690899091,419510377,"""world""",,,3.5821242332458496,3.7383430004119873,0.29160070419311523
1690899091429543171,,17483,,1690899091,429485557,"""world""",,,3.5818285942077637,3.7383408546447754,0.2917526960372925
1690899091439540353,,17484,,1690899091,439456546,"""world""",,,3.5811080932617188,3.738177537918091,0.2921265959739685
1690899091449648184,,17485,,1690899091,449516786,"""world""",,,3.5810325145721436,3.738121509552002,0.292241632938385
1690899091459586603,,17486,,1690899091,459476573,"""world""",,,3.5811028480529785,3.738358497619629,0.29208314418792725
1690899091469526709,,17487,,1690899091,469472290,"""world""",,,3.5812668800354004,3.7384045124053955,0.2920093238353729
1690899091479555644,,17488,,1690899091,479483990,"""world""",,,3.5805256366729736,3.7380619049072266,0.29247918725013733
1690899091489545489,,17489,,1690899091,489485868,"""world""",,,3.581512689590454,3.7383553981781006,0.2917206585407257
1690899091499542941,,17490,,1690899091,499449283,"""world""",,,3.580383777618408,3.738086462020874,0.2924913763999939
1690899091509567543,,17491,,1690899091,509485346,"""world""",,,3.5812463760375977,3.7383620738983154,0.2918034493923187
1690899091519695702,,17492,,1690899091,519545857,"""world""",,,3.5803399085998535,3.7380940914154053,0.2924080491065979
1690899091529583056,,17493,,1690899091,529488605,"""world""",,,3.5802454948425293,3.738077402114868,0.2924250066280365
1690899091539524683,,17494,,1690899091,539472531,"""world""",,,3.5804269313812256,3.738114356994629,0.2923557460308075
1690899091549685861,,17495,,1690899091,549497437,"""world""",,,3.5801026821136475,3.7380247116088867,0.2924591302871704
1690899091559561782,,17496,,1690899091,559486389,"""world""",,,3.580031633377075,3.7379708290100098,0.2924939692020416
1690899091569552384,,17497,,1690899091,569487259,"""world""",,,3.5799379348754883,3.7379488945007324,0.2925487160682678
1690899091579549149,,17498,,1690899091,579489391,"""world""",,,3.579892158508301,3.7379705905914307,0.2925601303577423
1690899091589550627,,17499,,1690899091,589486144,"""world""",,,3.5797975063323975,3.737868547439575,0.2926413118839264
1690899091599562604,,17500,,1690899091,599486324,"""world""",,,3.579918622970581,3.73796010017395,0.2926091253757477
1690899091609581768,,17501,,1690899091,609496946,"""world""",,,3.579667568206787,3.7378363609313965,0.29266297817230225
1690899091619523906,,17502,,1690899091,619456677,"""world""",,,3.580641746520996,3.7381906509399414,0.29175886511802673
1690899091629553277,,17503,,1690899091,629488254,"""world""",,,3.5795300006866455,3.737774610519409,0.292708158493042
1690899091639527408,,17504,,1690899091,639474564,"""world""",,,3.580137014389038,3.7380166053771973,0.29219579696655273
1690899091649574472,,17505,,1690899091,649500259,"""world""",,,3.5794920921325684,3.7378742694854736,0.29257965087890625
1690899091659568113,,17506,,1690899091,659493536,"""world""",,,3.579169988632202,3.7375662326812744,0.2927464544773102
1690899091669544840,,17507,,1690899091,669491443,"""world""",,,3.5789589881896973,3.737464427947998,0.29268673062324524
1690899091679583775,,17508,,1690899091,679495171,"""world""",,,3.5789594650268555,3.7373147010803223,0.29253554344177246
1690899091689530417,,17509,,1690899091,689464701,"""world""",,,3.57924485206604,3.737154722213745,0.292495995759964
1690899091699595803,,17510,,1690899091,699502434,"""world""",,,3.578594446182251,3.7372851371765137,0.2923356294631958
1690899091709647118,,17511,,1690899091,709501841,"""world""",,,3.578702449798584,3.737335205078125,0.29187285900115967
1690899091719535440,,17512,,1690899091,719457811,"""world""",,,3.5787315368652344,3.7371926307678223,0.29165396094322205
1690899091729546913,,17513,,1690899091,729486247,"""world""",,,3.579169273376465,3.7374539375305176,0.2912401854991913
1690899091739592497,,17514,,1690899091,739492006,"""world""",,,3.5791196823120117,3.7374536991119385,0.2910698354244232
1690899091749582302,,17515,,1690899091,749506659,"""world""",,,3.5778353214263916,3.7373459339141846,0.29158490896224976
1690899091759549820,,17516,,1690899091,759486062,"""world""",,,3.578544855117798,3.7373437881469727,0.29102829098701477
1690899091769551413,,17517,,1690899091,769489626,"""world""",,,3.5785012245178223,3.737356185913086,0.29077228903770447
1690899091779563326,,17518,,1690899091,779494210,"""world""",,,3.57824444770813,3.7372026443481445,0.29073402285575867
1690899091789514789,,17519,,1690899091,789444938,"""world""",,,3.577634334564209,3.737088680267334,0.29083940386772156
1690899091799528804,,17520,,1690899091,799451280,"""world""",,,3.577524423599243,3.737015724182129,0.2907738983631134
1690899091809567091,,17521,,1690899091,809492232,"""world""",,,3.5768721103668213,3.7367827892303467,0.2910209894180298
1690899091819576755,,17522,,1690899091,819493822,"""world""",,,3.5765364170074463,3.7367331981658936,0.2911348044872284
1690899091829542374,,17523,,1690899091,829484219,"""world""",,,3.5763773918151855,3.7365663051605225,0.2911103665828705
