rosbagTimestamp,header,seq,stamp,secs,nsecs,frame_id,pose,position,x,y,z
1690467449864865912,,124123,,1690467449,864735798,"""world""",,,3.3254573345184326,13.200766563415527,0.20192685723304749
1690467449874896750,,124124,,1690467449,874750373,"""world""",,,3.3254690170288086,13.200864791870117,0.20197142660617828
1690467449885757647,,124125,,1690467449,884734024,"""world""",,,3.325397491455078,13.200814247131348,0.20205317437648773
1690467449894864413,,124126,,1690467449,894733442,"""world""",,,3.3253002166748047,13.20082950592041,0.2021230310201645
1690467449904784077,,124127,,1690467449,904715715,"""world""",,,3.325399398803711,13.200855255126953,0.20202460885047913
1690467449914801922,,124128,,1690467449,914726700,"""world""",,,3.3256359100341797,13.200852394104004,0.20188070833683014
1690467449924861581,,124129,,1690467449,924750550,"""world""",,,3.3254566192626953,13.20085334777832,0.2019588202238083
1690467449934806077,,124130,,1690467449,934728609,"""world""",,,3.325500249862671,13.200847625732422,0.20197546482086182
1690467449944809553,,124131,,1690467449,944729882,"""world""",,,3.325486898422241,13.200838088989258,0.20197686553001404
1690467449954852348,,124132,,1690467449,954740970,"""world""",,,3.32548451423645,13.200817108154297,0.20199614763259888
1690467449964799392,,124133,,1690467449,964725903,"""world""",,,3.325401544570923,13.200811386108398,0.2020682990550995
1690467449974921762,,124134,,1690467449,974778305,"""world""",,,3.325484037399292,13.200746536254883,0.2020094245672226
1690467449984820811,,124135,,1690467449,984734458,"""world""",,,3.3254714012145996,13.20077896118164,0.2020181119441986
1690467449994832931,,124136,,1690467449,994729550,"""world""",,,3.325493812561035,13.200752258300781,0.2020096480846405
1690467450004810417,,124137,,1690467450,4715903,"""world""",,,3.325479030609131,13.20068073272705,0.20201866328716278
1690467450014870501,,124138,,1690467450,14733164,"""world""",,,3.325503349304199,13.200817108154297,0.20200850069522858
1690467450024815973,,124139,,1690467450,24732672,"""world""",,,3.3256797790527344,13.200774192810059,0.20192080736160278
1690467450034838968,,124140,,1690467450,34727691,"""world""",,,3.325515031814575,13.200773239135742,0.20200994610786438
1690467450044837331,,124141,,1690467450,44728555,"""world""",,,3.3254013061523438,13.200767517089844,0.20206019282341003
1690467450054812218,,124142,,1690467450,54727004,"""world""",,,3.325385332107544,13.200745582580566,0.2020387500524521
1690467450064804793,,124143,,1690467450,64719553,"""world""",,,3.3254780769348145,13.200760841369629,0.2019946128129959
1690467450074914559,,124144,,1690467450,74781421,"""world""",,,3.325378179550171,13.200770378112793,0.2020728886127472
1690467450084889068,,124145,,1690467450,84737256,"""world""",,,3.325218915939331,13.200749397277832,0.2021142840385437
1690467450094870100,,124146,,1690467450,94733787,"""world""",,,3.325485944747925,13.200757026672363,0.20201188325881958
1690467450104825022,,124147,,1690467450,104720048,"""world""",,,3.325486660003662,13.200764656066895,0.20201465487480164
1690467450114835728,,124148,,1690467450,114739120,"""world""",,,3.3254735469818115,13.200745582580566,0.20200525224208832
1690467450124832378,,124149,,1690467450,124737762,"""world""",,,3.325517416000366,13.200705528259277,0.20202341675758362
1690467450134806251,,124150,,1690467450,134727734,"""world""",,,3.3256285190582275,13.200820922851562,0.20212939381599426
1690467450144823136,,124151,,1690467450,144732239,"""world""",,,3.325509786605835,13.200695991516113,0.20204344391822815
1690467450154828106,,124152,,1690467450,154735054,"""world""",,,3.325521230697632,13.200645446777344,0.20202773809432983
1690467450164795500,,124153,,1690467450,164719616,"""world""",,,3.3255295753479004,13.200643539428711,0.20203347504138947
1690467450174927635,,124154,,1690467450,174773141,"""world""",,,3.325512409210205,13.20063591003418,0.20204424858093262
1690467450184817980,,124155,,1690467450,184728596,"""world""",,,3.325305461883545,13.200749397277832,0.20234861969947815
1690467450204814878,,124156,,1690467450,204720354,"""world""",,,3.325552225112915,13.200639724731445,0.2020397186279297
1690467450204819681,,124157,,1690467450,204731180,"""world""",,,3.3255536556243896,13.200650215148926,0.20203715562820435
1690467450214810550,,124158,,1690467450,214725518,"""world""",,,3.32553768157959,13.200630187988281,0.2020396888256073
1690467450224822817,,124159,,1690467450,224726725,"""world""",,,3.3255667686462402,13.200630187988281,0.2020605355501175
1690467450234815847,,124160,,1690467450,234728340,"""world""",,,3.325469732284546,13.2006254196167,0.20212645828723907
1690467450244829353,,124161,,1690467450,244730822,"""world""",,,3.325549364089966,13.200606346130371,0.20204198360443115
1690467450254859958,,124162,,1690467450,254734786,"""world""",,,3.3255653381347656,13.200579643249512,0.20204275846481323
1690467450264768595,,124163,,1690467450,264686431,"""world""",,,3.3255600929260254,13.200571060180664,0.2020372897386551
1690467450274947375,,124164,,1690467450,274784513,"""world""",,,3.325538396835327,13.200607299804688,0.20204272866249084
1690467450284832762,,124165,,1690467450,284734038,"""world""",,,3.3255467414855957,13.200589179992676,0.20206259191036224
1690467450294847056,,124166,,1690467450,294757993,"""world""",,,3.325580596923828,13.200601577758789,0.20203378796577454
1690467450304799839,,124167,,1690467450,304721130,"""world""",,,3.3256678581237793,13.200669288635254,0.20196087658405304
1690467450314817402,,124168,,1690467450,314729782,"""world""",,,3.3255395889282227,13.200641632080078,0.2020445615053177
1690467450324866823,,124169,,1690467450,324751931,"""world""",,,3.3255670070648193,13.200650215148926,0.20205187797546387
1690467450334801169,,124170,,1690467450,334723993,"""world""",,,3.325512647628784,13.20055866241455,0.20204435288906097
1690467450344845050,,124171,,1690467450,344742521,"""world""",,,3.3255302906036377,13.200661659240723,0.20203597843647003
1690467450354818716,,124172,,1690467450,354728713,"""world""",,,3.325531244277954,13.200640678405762,0.2020425647497177
1690467450364798768,,124173,,1690467450,364721788,"""world""",,,3.325540781021118,13.200623512268066,0.20205752551555634
1690467450374921905,,124174,,1690467450,374776297,"""world""",,,3.3255221843719482,13.200624465942383,0.20204952359199524
1690467450384852855,,124175,,1690467450,384757732,"""world""",,,3.325514316558838,13.20062255859375,0.2020568996667862
1690467450394840874,,124176,,1690467450,394758795,"""world""",,,3.3255438804626465,13.200599670410156,0.20208479464054108
1690467450404813150,,124177,,1690467450,404715901,"""world""",,,3.325568199157715,13.200540542602539,0.20203176140785217
1690467450414847205,,124178,,1690467450,414760097,"""world""",,,3.325550079345703,13.200606346130371,0.2020658403635025
1690467450424997427,,124179,,1690467450,424758491,"""world""",,,3.325591564178467,13.200567245483398,0.20208173990249634
1690467450434841665,,124180,,1690467450,434727713,"""world""",,,3.3255796432495117,13.200529098510742,0.20209765434265137
1690467450444821190,,124181,,1690467450,444728729,"""world""",,,3.3256146907806396,13.200522422790527,0.20210301876068115
1690467450454824462,,124182,,1690467450,454730735,"""world""",,,3.3255438804626465,13.200486183166504,0.2020973116159439
1690467450464797473,,124183,,1690467450,464722775,"""world""",,,3.325587511062622,13.20047664642334,0.2020973116159439
1690467450474872600,,124184,,1690467450,474747110,"""world""",,,3.3255181312561035,13.200423240661621,0.20211245119571686
1690467450484822404,,124185,,1690467450,484729412,"""world""",,,3.325551748275757,13.200555801391602,0.20209698379039764
1690467450494810756,,124186,,1690467450,494728444,"""world""",,,3.3255488872528076,13.2004976272583,0.20208866894245148
1690467450504815645,,124187,,1690467450,504744389,"""world""",,,3.3255558013916016,13.200562477111816,0.20208916068077087
1690467450514845144,,124188,,1690467450,514732833,"""world""",,,3.325545072555542,13.200592041015625,0.20204509794712067
1690467450524822497,,124189,,1690467450,524735722,"""world""",,,3.3255200386047363,13.200614929199219,0.20205824077129364
1690467450534889252,,124190,,1690467450,534736970,"""world""",,,3.325552463531494,13.200589179992676,0.20204292237758636
1690467450544827722,,124191,,1690467450,544730465,"""world""",,,3.32533597946167,13.200706481933594,0.20230823755264282
1690467450554821323,,124192,,1690467450,554732452,"""world""",,,3.325496196746826,13.20059871673584,0.20205722749233246
1690467450564798883,,124193,,1690467450,564723851,"""world""",,,3.3255064487457275,13.200559616088867,0.202203169465065
1690467450575005569,,124194,,1690467450,574741314,"""world""",,,3.325521945953369,13.200549125671387,0.2020770013332367
1690467450584819247,,124195,,1690467450,584727739,"""world""",,,3.3256022930145264,13.200587272644043,0.20209845900535583
1690467450594805455,,124196,,1690467450,594726744,"""world""",,,3.325535297393799,13.200572967529297,0.2020583599805832
1690467450604815757,,124197,,1690467450,604724045,"""world""",,,3.325546979904175,13.200516700744629,0.2020665556192398
1690467450614819450,,124198,,1690467450,614727437,"""world""",,,3.3255927562713623,13.200531959533691,0.20209431648254395
1690467450624830527,,124199,,1690467450,624731978,"""world""",,,3.3255863189697266,13.20052433013916,0.20206288993358612
1690467450634812418,,124200,,1690467450,634725703,"""world""",,,3.3255839347839355,13.200475692749023,0.20206573605537415
1690467450644835501,,124201,,1690467450,644731910,"""world""",,,3.3256335258483887,13.200453758239746,0.2020828127861023
1690467450654816429,,124202,,1690467450,654727836,"""world""",,,3.3255951404571533,13.200424194335938,0.2020987868309021
1690467450664826232,,124203,,1690467450,664727951,"""world""",,,3.3255903720855713,13.200441360473633,0.20209598541259766
1690467450674848842,,124204,,1690467450,674733175,"""world""",,,3.3255953788757324,13.200427055358887,0.2021140307188034
1690467450684816038,,124205,,1690467450,684726626,"""world""",,,3.3256454467773438,13.200431823730469,0.2021133154630661
1690467450694886206,,124206,,1690467450,694774525,"""world""",,,3.325636625289917,13.20044994354248,0.20219695568084717
1690467450704822104,,124207,,1690467450,704750163,"""world""",,,3.3255844116210938,13.200448036193848,0.2020881474018097
1690467450714857380,,124208,,1690467450,714766063,"""world""",,,3.3254313468933105,13.200425148010254,0.20219141244888306
1690467450724845082,,124209,,1690467450,724748486,"""world""",,,3.325608491897583,13.200417518615723,0.20210030674934387
1690467450734837817,,124210,,1690467450,734758634,"""world""",,,3.325498342514038,13.20037841796875,0.20210818946361542
1690467450744819184,,124211,,1690467450,744728192,"""world""",,,3.3255996704101562,13.200432777404785,0.2021091729402542
1690467450754851147,,124212,,1690467450,754765138,"""world""",,,3.325615882873535,13.200309753417969,0.2020617425441742
1690467450764844298,,124213,,1690467450,764755518,"""world""",,,3.3256359100341797,13.200410842895508,0.20212985575199127
1690467450774901274,,124214,,1690467450,774768911,"""world""",,,3.325640916824341,13.200371742248535,0.20210249722003937
1690467450784861127,,124215,,1690467450,784763870,"""world""",,,3.325603485107422,13.200387954711914,0.2021159827709198
1690467450794811175,,124216,,1690467450,794727821,"""world""",,,3.3256914615631104,13.200288772583008,0.20214705169200897
1690467450804859543,,124217,,1690467450,804754409,"""world""",,,3.3256852626800537,13.200336456298828,0.20214718580245972
1690467450814833925,,124218,,1690467450,814732900,"""world""",,,3.3256986141204834,13.200286865234375,0.20211665332317352
1690467450824813737,,124219,,1690467450,824727506,"""world""",,,3.3256499767303467,13.200336456298828,0.20214246213436127
1690467450834808218,,124220,,1690467450,834725840,"""world""",,,3.3256547451019287,13.200174331665039,0.20212092995643616
1690467450844829219,,124221,,1690467450,844724432,"""world""",,,3.325676441192627,13.200289726257324,0.20216922461986542
1690467450854834417,,124222,,1690467450,854734749,"""world""",,,3.3254759311676025,13.20026683807373,0.20222996175289154
1690467450864817609,,124223,,1690467450,864722292,"""world""",,,3.325622320175171,13.200315475463867,0.20213355123996735
1690467450874854580,,124224,,1690467450,874736604,"""world""",,,3.325709342956543,13.200284957885742,0.20234403014183044
1690467450884815185,,124225,,1690467450,884729220,"""world""",,,3.325687885284424,13.200285911560059,0.2021637260913849
1690467450904818140,,124226,,1690467450,904725044,"""world""",,,3.325714349746704,13.200289726257324,0.20215368270874023
1690467450904823962,,124227,,1690467450,904739505,"""world""",,,3.3257062435150146,13.200300216674805,0.20216339826583862
1690467450914867048,,124228,,1690467450,914741914,"""world""",,,3.325723648071289,13.200294494628906,0.20217512547969818
1690467450924829645,,124229,,1690467450,924735225,"""world""",,,3.325756311416626,13.20022201538086,0.20216596126556396
1690467450934814942,,124230,,1690467450,934721047,"""world""",,,3.3257358074188232,13.200201034545898,0.20217257738113403
1690467450944832633,,124231,,1690467450,944729332,"""world""",,,3.325706720352173,13.200236320495605,0.2021765559911728
1690467450954858421,,124232,,1690467450,954727976,"""world""",,,3.325707197189331,13.200212478637695,0.20220769941806793
1690467450964806486,,124233,,1690467450,964727683,"""world""",,,3.325726270675659,13.200186729431152,0.20223064720630646
1690467450974853509,,124234,,1690467450,974739318,"""world""",,,3.325770854949951,13.200167655944824,0.20219101011753082
1690467450984864237,,124235,,1690467450,984745885,"""world""",,,3.3255691528320312,13.200169563293457,0.2022978663444519
1690467450994801182,,124236,,1690467450,994728547,"""world""",,,3.32576060295105,13.200155258178711,0.20217517018318176
1690467451004801238,,124237,,1690467451,4719222,"""world""",,,3.325779676437378,13.20014762878418,0.2022145539522171
1690467451014860639,,124238,,1690467451,14740658,"""world""",,,3.3257980346679688,13.200145721435547,0.20220139622688293
1690467451024809237,,124239,,1690467451,24730735,"""world""",,,3.325840473175049,13.200138092041016,0.20219582319259644
1690467451034819827,,124240,,1690467451,34730979,"""world""",,,3.3258252143859863,13.200121879577637,0.20221640169620514
1690467451044824726,,124241,,1690467451,44729114,"""world""",,,3.325784683227539,13.200152397155762,0.20223554968833923
1690467451054859200,,124242,,1690467451,54753228,"""world""",,,3.3258121013641357,13.20009994506836,0.20239195227622986
1690467451064831545,,124243,,1690467451,64731310,"""world""",,,3.325815200805664,13.200074195861816,0.20223554968833923
1690467451074857170,,124244,,1690467451,74741699,"""world""",,,3.325814962387085,13.200075149536133,0.20224089920520782
1690467451084807982,,124245,,1690467451,84729439,"""world""",,,3.325793743133545,13.200057029724121,0.2022339254617691
1690467451094818240,,124246,,1690467451,94736362,"""world""",,,3.3258368968963623,13.200052261352539,0.2022562175989151
1690467451104796766,,124247,,1690467451,104722763,"""world""",,,3.325904369354248,13.200016021728516,0.2024635225534439
1690467451114852746,,124248,,1690467451,114732747,"""world""",,,3.3258895874023438,13.199972152709961,0.20233462750911713
1690467451124854095,,124249,,1690467451,124736481,"""world""",,,3.3259353637695312,13.19992733001709,0.2023191750049591
1690467451134813581,,124250,,1690467451,134727880,"""world""",,,3.325939655303955,13.199801445007324,0.2022777646780014
1690467451144823014,,124251,,1690467451,144728370,"""world""",,,3.3260457515716553,13.199921607971191,0.2023584544658661
1690467451154817869,,124252,,1690467451,154736975,"""world""",,,3.3260498046875,13.199941635131836,0.20238463580608368
1690467451164798329,,124253,,1690467451,164723888,"""world""",,,3.3259737491607666,13.199906349182129,0.20233581960201263
1690467451174882341,,124254,,1690467451,174748776,"""world""",,,3.3260657787323,13.199885368347168,0.20238833129405975
1690467451184823475,,124255,,1690467451,184733469,"""world""",,,3.3260293006896973,13.199901580810547,0.20237328112125397
1690467451194819281,,124256,,1690467451,194728978,"""world""",,,3.3258602619171143,13.199888229370117,0.20237062871456146
1690467451204784250,,124257,,1690467451,204715420,"""world""",,,3.326040506362915,13.199883460998535,0.20241141319274902
1690467451214807896,,124258,,1690467451,214727246,"""world""",,,3.3260018825531006,13.199856758117676,0.20236890017986298
1690467451224807108,,124259,,1690467451,224727412,"""world""",,,3.3259947299957275,13.199831008911133,0.20235750079154968
1690467451234805298,,124260,,1690467451,234726601,"""world""",,,3.326070785522461,13.1998291015625,0.20241673290729523
1690467451244817237,,124261,,1690467451,244725497,"""world""",,,3.3260438442230225,13.199790000915527,0.20242950320243835
1690467451254827004,,124262,,1690467451,254728809,"""world""",,,3.3260674476623535,13.199750900268555,0.20248790085315704
1690467451264801257,,124263,,1690467451,264723076,"""world""",,,3.3261260986328125,13.199793815612793,0.2024255245923996
1690467451274905145,,124264,,1690467451,274816119,"""world""",,,3.3261396884918213,13.199816703796387,0.20242592692375183
1690467451284857694,,124265,,1690467451,284761769,"""world""",,,3.3259191513061523,13.199760437011719,0.20256629586219788
1690467451294838712,,124266,,1690467451,294756927,"""world""",,,3.326131582260132,13.199755668640137,0.20246973633766174
1690467451304805689,,124267,,1690467451,304741479,"""world""",,,3.32611346244812,13.199700355529785,0.2025362104177475
1690467451314849023,,124268,,1690467451,314760283,"""world""",,,3.326111078262329,13.199640274047852,0.20252609252929688
1690467451324822491,,124269,,1690467451,324732565,"""world""",,,3.326112985610962,13.19966983795166,0.20251202583312988
1690467451334835562,,124270,,1690467451,334724794,"""world""",,,3.326087713241577,13.19962215423584,0.20254288613796234
1690467451344854113,,124271,,1690467451,344732722,"""world""",,,3.3260817527770996,13.19968032836914,0.20261284708976746
1690467451354810806,,124272,,1690467451,354727066,"""world""",,,3.326115608215332,13.199536323547363,0.2024877369403839
1690467451364794450,,124273,,1690467451,364720473,"""world""",,,3.326205253601074,13.199624061584473,0.20258215069770813
1690467451374861623,,124274,,1690467451,374757130,"""world""",,,3.3261799812316895,13.199601173400879,0.20259690284729004
1690467451384822431,,124275,,1690467451,384730405,"""world""",,,3.326016426086426,13.19958209991455,0.20270057022571564
1690467451394810954,,124276,,1690467451,394729254,"""world""",,,3.3263614177703857,13.199616432189941,0.20244653522968292
1690467451404805197,,124277,,1690467451,404713221,"""world""",,,3.3261704444885254,13.199531555175781,0.2025812715291977
1690467451414841526,,124278,,1690467451,414730113,"""world""",,,3.3261828422546387,13.199516296386719,0.20256514847278595
1690467451424812434,,124279,,1690467451,424731333,"""world""",,,3.326054573059082,13.199390411376953,0.20258350670337677
1690467451434806101,,124280,,1690467451,434726111,"""world""",,,3.326134443283081,13.199468612670898,0.20269107818603516
1690467451444866106,,124281,,1690467451,444747550,"""world""",,,3.326188802719116,13.199470520019531,0.20268289744853973
1690467451454862401,,124282,,1690467451,454762969,"""world""",,,3.3261916637420654,13.1994047164917,0.2027493715286255
1690467451464827684,,124283,,1690467451,464751544,"""world""",,,3.325986385345459,13.19948673248291,0.2029009312391281
1690467451474851052,,124284,,1690467451,474752234,"""world""",,,3.3262882232666016,13.199390411376953,0.20276793837547302
1690467451484809518,,124285,,1690467451,484728233,"""world""",,,3.32631254196167,13.199376106262207,0.20275388658046722
1690467451494808426,,124286,,1690467451,494725676,"""world""",,,3.326369047164917,13.199349403381348,0.20287716388702393
1690467451504813195,,124287,,1690467451,504725539,"""world""",,,3.3263590335845947,13.199346542358398,0.20278878509998322
1690467451514831531,,124288,,1690467451,514731604,"""world""",,,3.326371669769287,13.19933032989502,0.20278972387313843
1690467451524840048,,124289,,1690467451,524736950,"""world""",,,3.3263399600982666,13.19930648803711,0.20280930399894714
1690467451534853276,,124290,,1690467451,534733953,"""world""",,,3.326263189315796,13.199319839477539,0.20287367701530457
1690467451544842634,,124291,,1690467451,544737164,"""world""",,,3.326308012008667,13.199320793151855,0.20279282331466675
1690467451554847213,,124292,,1690467451,554743777,"""world""",,,3.326300859451294,13.19936752319336,0.20275436341762543
1690467451564809025,,124293,,1690467451,564723813,"""world""",,,3.3262743949890137,13.199350357055664,0.2027740627527237
1690467451574849603,,124294,,1690467451,574736209,"""world""",,,3.325995683670044,13.19945240020752,0.20295614004135132
1690467451585000571,,124295,,1690467451,584766522,"""world""",,,3.3263211250305176,13.199310302734375,0.20282019674777985
1690467451594864750,,124296,,1690467451,594737490,"""world""",,,3.3262672424316406,13.199286460876465,0.2027854025363922
1690467451604810948,,124297,,1690467451,604725373,"""world""",,,3.3263814449310303,13.199230194091797,0.20282556116580963
1690467451614814738,,124298,,1690467451,614730945,"""world""",,,3.3263564109802246,13.199131965637207,0.2028660625219345
1690467451624817123,,124299,,1690467451,624730488,"""world""",,,3.3265342712402344,13.199058532714844,0.20290561020374298
1690467451634827711,,124300,,1690467451,634733356,"""world""",,,3.326519012451172,13.19892692565918,0.20294082164764404
1690467451644867241,,124301,,1690467451,644736871,"""world""",,,3.326620578765869,13.198921203613281,0.2029627114534378
1690467451654838273,,124302,,1690467451,654742263,"""world""",,,3.3266422748565674,13.19885540008545,0.2030126005411148
1690467451664804773,,124303,,1690467451,664725595,"""world""",,,3.3266942501068115,13.198834419250488,0.20304584503173828
1690467451674850828,,124304,,1690467451,674742148,"""world""",,,3.3267219066619873,13.198817253112793,0.20306162536144257
1690467451684825434,,124305,,1690467451,684733097,"""world""",,,3.326727867126465,13.198766708374023,0.20309361815452576
1690467451694828467,,124306,,1690467451,694731998,"""world""",,,3.326707124710083,13.198692321777344,0.203118234872818
1690467451704855810,,124307,,1690467451,704736568,"""world""",,,3.326727867126465,13.198647499084473,0.20313909649848938
1690467451714818856,,124308,,1690467451,714730334,"""world""",,,3.3266944885253906,13.198600769042969,0.20314724743366241
1690467451724896575,,124309,,1690467451,724776863,"""world""",,,3.326693534851074,13.198505401611328,0.20317187905311584
1690467451734827610,,124310,,1690467451,734732529,"""world""",,,3.3266913890838623,13.198409080505371,0.20314793288707733
1690467451744826758,,124311,,1690467451,744729213,"""world""",,,3.3267123699188232,13.198320388793945,0.20323121547698975
1690467451754817117,,124312,,1690467451,754729657,"""world""",,,3.3267288208007812,13.1982421875,0.20322974026203156
1690467451764800233,,124313,,1690467451,764725976,"""world""",,,3.3268797397613525,13.198240280151367,0.20316505432128906
1690467451774873170,,124314,,1690467451,774751002,"""world""",,,3.326782464981079,13.198150634765625,0.20326170325279236
1690467451784827310,,124315,,1690467451,784729055,"""world""",,,3.326828718185425,13.19807243347168,0.20326876640319824
1690467451794810714,,124316,,1690467451,794727019,"""world""",,,3.3268275260925293,13.197997093200684,0.20332226157188416
1690467451804781205,,124317,,1690467451,804712870,"""world""",,,3.3269338607788086,13.197949409484863,0.20339103043079376
1690467451814813479,,124318,,1690467451,814731010,"""world""",,,3.326882839202881,13.197758674621582,0.2033211588859558
1690467451824834724,,124319,,1690467451,824730883,"""world""",,,3.3270435333251953,13.197824478149414,0.20336921513080597
1690467451834801555,,124320,,1690467451,834725761,"""world""",,,3.326930284500122,13.197760581970215,0.20340704917907715
1690467451844828200,,124321,,1690467451,844730235,"""world""",,,3.3269059658050537,13.197708129882812,0.203471839427948
1690467451854815734,,124322,,1690467451,854735380,"""world""",,,3.3268933296203613,13.197649002075195,0.2034531980752945
1690467451864801146,,124323,,1690467451,864725660,"""world""",,,3.3269059658050537,13.197623252868652,0.20348195731639862
1690467451874921275,,124324,,1690467451,874739647,"""world""",,,3.326846122741699,13.197575569152832,0.2034609019756317
1690467451884816276,,124325,,1690467451,884727782,"""world""",,,3.326733112335205,13.197554588317871,0.20345322787761688
1690467451894811490,,124326,,1690467451,894727610,"""world""",,,3.3268418312072754,13.19754695892334,0.20353113114833832
1690467451904793053,,124327,,1690467451,904722440,"""world""",,,3.3268778324127197,13.197572708129883,0.20353420078754425
1690467451914820041,,124328,,1690467451,914736648,"""world""",,,3.3269689083099365,13.197598457336426,0.20353497564792633
1690467451924813656,,124329,,1690467451,924730238,"""world""",,,3.3269548416137695,13.197579383850098,0.20354528725147247
1690467451934848336,,124330,,1690467451,934732794,"""world""",,,3.3269786834716797,13.197575569152832,0.2035519927740097
1690467451944931568,,124331,,1690467451,944753887,"""world""",,,3.3269734382629395,13.197515487670898,0.20357410609722137
1690467451954842546,,124332,,1690467451,954745598,"""world""",,,3.327003002166748,13.19754695892334,0.20351262390613556
1690467451964776540,,124333,,1690467451,964688840,"""world""",,,3.3270773887634277,13.197638511657715,0.20351237058639526
1690467451974857361,,124334,,1690467451,974732992,"""world""",,,3.327047109603882,13.197649002075195,0.20355114340782166
1690467451984809352,,124335,,1690467451,984727266,"""world""",,,3.3269965648651123,13.197654724121094,0.2035100907087326
1690467451994823802,,124336,,1690467451,994729912,"""world""",,,3.3269882202148438,13.197675704956055,0.2035200446844101
1690467452004817299,,124337,,1690467452,4727526,"""world""",,,3.326870918273926,13.197685241699219,0.20347321033477783
1690467452014818950,,124338,,1690467452,14734458,"""world""",,,3.3269689083099365,13.19771671295166,0.2034454494714737
1690467452024853806,,124339,,1690467452,24737394,"""world""",,,3.326913833618164,13.19772720336914,0.2035406082868576
1690467452034828532,,124340,,1690467452,34734543,"""world""",,,3.326870918273926,13.197712898254395,0.2034599930047989
1690467452044854472,,124341,,1690467452,44735315,"""world""",,,3.3268814086914062,13.197696685791016,0.20344632863998413
1690467452054815328,,124342,,1690467452,54731550,"""world""",,,3.3269248008728027,13.197685241699219,0.20341067016124725
1690467452064812414,,124343,,1690467452,64735313,"""world""",,,3.326937198638916,13.197668075561523,0.20348595082759857
1690467452074888028,,124344,,1690467452,74745803,"""world""",,,3.3269519805908203,13.197636604309082,0.20352007448673248
1690467452084812839,,124345,,1690467452,84728850,"""world""",,,3.3269667625427246,13.197538375854492,0.20356783270835876
1690467452104805232,,124346,,1690467452,104722207,"""world""",,,3.327014446258545,13.19743824005127,0.2036273181438446
1690467452104813369,,124347,,1690467452,104733958,"""world""",,,3.3270697593688965,13.197348594665527,0.20371456444263458
1690467452114811624,,124348,,1690467452,114728620,"""world""",,,3.3271548748016357,13.197258949279785,0.20380203425884247
1690467452124843959,,124349,,1690467452,124730382,"""world""",,,3.327193021774292,13.197162628173828,0.20386524498462677
1690467452134819364,,124350,,1690467452,134737262,"""world""",,,3.3272130489349365,13.196985244750977,0.20397964119911194
1690467452144869875,,124351,,1690467452,144741623,"""world""",,,3.3270938396453857,13.196717262268066,0.20431622862815857
1690467452154839177,,124352,,1690467452,154738088,"""world""",,,3.3270843029022217,13.196422576904297,0.20429162681102753
1690467452164800164,,124353,,1690467452,164728195,"""world""",,,3.3270766735076904,13.196170806884766,0.20452769100666046
1690467452174829291,,124354,,1690467452,174733443,"""world""",,,3.3270130157470703,13.195836067199707,0.20465239882469177
1690467452184862681,,124355,,1690467452,184749814,"""world""",,,3.3270602226257324,13.195631980895996,0.20486266911029816
1690467452194815497,,124356,,1690467452,194733687,"""world""",,,3.3270413875579834,13.195310592651367,0.2050815224647522
1690467452204872665,,124357,,1690467452,204741530,"""world""",,,3.3269906044006348,13.19493293762207,0.20525772869586945
1690467452214994646,,124358,,1690467452,214754951,"""world""",,,3.326908588409424,13.194469451904297,0.20546382665634155
1690467452227642743,,124359,,1690467452,226066270,"""world""",,,3.3268327713012695,13.194059371948242,0.20568275451660156
1690467452234890016,,124360,,1690467452,234743997,"""world""",,,3.326845407485962,13.193659782409668,0.20590049028396606
1690467452244962916,,124361,,1690467452,244752813,"""world""",,,3.326772689819336,13.19325065612793,0.20624224841594696
1690467452255581632,,124362,,1690467452,254748390,"""world""",,,3.326831340789795,13.192778587341309,0.20653009414672852
1690467452264852847,,124363,,1690467452,264729098,"""world""",,,3.326791286468506,13.19226360321045,0.2067323476076126
1690467452274944416,,124364,,1690467452,274746634,"""world""",,,3.326829195022583,13.191845893859863,0.20702938735485077
1690467452284867511,,124365,,1690467452,284732102,"""world""",,,3.326840400695801,13.191401481628418,0.20717275142669678
1690467452294866820,,124366,,1690467452,294749503,"""world""",,,3.3268346786499023,13.191045761108398,0.2073717564344406
1690467452304861726,,124367,,1690467452,304745063,"""world""",,,3.326829195022583,13.190593719482422,0.20765437185764313
1690467452314902066,,124368,,1690467452,314767240,"""world""",,,3.3268630504608154,13.190114974975586,0.2079341560602188
1690467452324862595,,124369,,1690467452,324734557,"""world""",,,3.326869249343872,13.189658164978027,0.20820459723472595
1690467452334883999,,124370,,1690467452,334763086,"""world""",,,3.3268961906433105,13.18925952911377,0.20844650268554688
1690467452344893566,,124371,,1690467452,344766753,"""world""",,,3.3269405364990234,13.188939094543457,0.208709716796875
1690467452354860244,,124372,,1690467452,354732234,"""world""",,,3.3269879817962646,13.188529968261719,0.20871303975582123
1690467452364799393,,124373,,1690467452,364720038,"""world""",,,3.327097177505493,13.188264846801758,0.2087998390197754
1690467452374836694,,124374,,1690467452,374728704,"""world""",,,3.327260971069336,13.187856674194336,0.20873355865478516
1690467452384807076,,124375,,1690467452,384727894,"""world""",,,3.327326774597168,13.187378883361816,0.20884612202644348
1690467452404815926,,124376,,1690467452,404724300,"""world""",,,3.3273978233337402,13.18691635131836,0.2088213562965393
1690467452404825299,,124377,,1690467452,404735948,"""world""",,,3.3274788856506348,13.186471939086914,0.2087932676076889
1690467452414807428,,124378,,1690467452,414728186,"""world""",,,3.3274636268615723,13.185907363891602,0.2086840122938156
1690467452424867439,,124379,,1690467452,424762885,"""world""",,,3.3274495601654053,13.185554504394531,0.20860126614570618
1690467452434835418,,124380,,1690467452,434738743,"""world""",,,3.327413320541382,13.185127258300781,0.2085455358028412
1690467452444820784,,124381,,1690467452,444732916,"""world""",,,3.327340602874756,13.184596061706543,0.20848625898361206
1690467452454845872,,124382,,1690467452,454732402,"""world""",,,3.327169895172119,13.183927536010742,0.20849598944187164
1690467452464811579,,124383,,1690467452,464727925,"""world""",,,3.3271472454071045,13.183331489562988,0.20837274193763733
1690467452474855564,,124384,,1690467452,474728635,"""world""",,,3.326958179473877,13.182680130004883,0.20831887423992157
1690467452484848714,,124385,,1690467452,484736861,"""world""",,,3.326843500137329,13.18203067779541,0.2083497792482376
1690467452494812719,,124386,,1690467452,494728973,"""world""",,,3.3267736434936523,13.181360244750977,0.2084520012140274
1690467452504833828,,124387,,1690467452,504723445,"""world""",,,3.326611280441284,13.180686950683594,0.2085391879081726
1690467452514847682,,124388,,1690467452,514732898,"""world""",,,3.326529026031494,13.180047035217285,0.20879629254341125
1690467452524889117,,124389,,1690467452,524747123,"""world""",,,3.3265459537506104,13.179308891296387,0.20895925164222717
1690467452534840667,,124390,,1690467452,534735315,"""world""",,,3.326566696166992,13.178540229797363,0.20919427275657654
1690467452544842575,,124391,,1690467452,544739139,"""world""",,,3.326622724533081,13.177580833435059,0.2095506638288498
1690467452554846627,,124392,,1690467452,554735378,"""world""",,,3.3265674114227295,13.176679611206055,0.20992599427700043
1690467452564806091,,124393,,1690467452,564725782,"""world""",,,3.3264551162719727,13.175775527954102,0.21047210693359375
1690467452574833912,,124394,,1690467452,574741803,"""world""",,,3.3263144493103027,13.174798011779785,0.211033895611763
1690467452584900794,,124395,,1690467452,584756720,"""world""",,,3.3259899616241455,13.173787117004395,0.21171219646930695
1690467452594887756,,124396,,1690467452,594761891,"""world""",,,3.325985908508301,13.172720909118652,0.21244044601917267
1690467452604843008,,124397,,1690467452,604757481,"""world""",,,3.325819969177246,13.171662330627441,0.21340635418891907
1690467452614853956,,124398,,1690467452,614769851,"""world""",,,3.325618028640747,13.170605659484863,0.21452179551124573
1690467452625043347,,124399,,1690467452,624827735,"""world""",,,3.3253421783447266,13.169447898864746,0.2157200276851654
1690467452634824669,,124400,,1690467452,634728101,"""world""",,,3.325192928314209,13.16823673248291,0.21714837849140167
1690467452644829886,,124401,,1690467452,644732538,"""world""",,,3.325153112411499,13.167076110839844,0.21873509883880615
1690467452654838727,,124402,,1690467452,654732053,"""world""",,,3.3248987197875977,13.165789604187012,0.22024990618228912
1690467452664800044,,124403,,1690467452,664723232,"""world""",,,3.324921131134033,13.164560317993164,0.2220235913991928
1690467452674833537,,124404,,1690467452,674739998,"""world""",,,3.3245694637298584,13.163238525390625,0.22395507991313934
1690467452684832712,,124405,,1690467452,684733415,"""world""",,,3.3244974613189697,13.161924362182617,0.2258172631263733
1690467452694858696,,124406,,1690467452,694727614,"""world""",,,3.3242955207824707,13.160560607910156,0.22786639630794525
1690467452704777875,,124407,,1690467452,704711931,"""world""",,,3.324002504348755,13.159141540527344,0.2300814837217331
1690467452714804003,,124408,,1690467452,714723562,"""world""",,,3.3237249851226807,13.157686233520508,0.2323041409254074
1690467452724824068,,124409,,1690467452,724737829,"""world""",,,3.3236260414123535,13.156249046325684,0.23447707295417786
1690467452734805841,,124410,,1690467452,734723663,"""world""",,,3.3234238624572754,13.154740333557129,0.23679396510124207
1690467452744833806,,124411,,1690467452,744729064,"""world""",,,3.3231425285339355,13.153226852416992,0.23937860131263733
1690467452754865539,,124412,,1690467452,754767183,"""world""",,,3.3228116035461426,13.1517972946167,0.2419065237045288
1690467452764791857,,124413,,1690467452,764719880,"""world""",,,3.3225936889648438,13.15031623840332,0.24452732503414154
1690467452774810469,,124414,,1690467452,774729759,"""world""",,,3.3223347663879395,13.14885425567627,0.24711543321609497
1690467452784877468,,124415,,1690467452,784776703,"""world""",,,3.322208881378174,13.147418022155762,0.2497919201850891
1690467452794858687,,124416,,1690467452,794759647,"""world""",,,3.3219454288482666,13.145752906799316,0.2525159418582916
1690467452804842421,,124417,,1690467452,804753980,"""world""",,,3.321596622467041,13.144253730773926,0.2553676962852478
1690467452814810050,,124418,,1690467452,814729837,"""world""",,,3.3214752674102783,13.14268970489502,0.25815075635910034
1690467452824840371,,124419,,1690467452,824740985,"""world""",,,3.3208858966827393,13.141276359558105,0.26133131980895996
1690467452834857279,,124420,,1690467452,834729107,"""world""",,,3.320803642272949,13.139604568481445,0.2637858986854553
1690467452844867839,,124421,,1690467452,844734117,"""world""",,,3.3206241130828857,13.138006210327148,0.2667263448238373
1690467452854827507,,124422,,1690467452,854734794,"""world""",,,3.3201067447662354,13.136507987976074,0.26979827880859375
1690467452864813689,,124423,,1690467452,864723607,"""world""",,,3.320117235183716,13.134868621826172,0.27253076434135437
1690467452874827184,,124424,,1690467452,874734739,"""world""",,,3.319713592529297,13.133380889892578,0.27555617690086365
1690467452884849855,,124425,,1690467452,884740784,"""world""",,,3.319334030151367,13.131791114807129,0.278556764125824
1690467452894845384,,124426,,1690467452,894726270,"""world""",,,3.319098711013794,13.13016414642334,0.2815380394458771
1690467452904796954,,124427,,1690467452,904718881,"""world""",,,3.318732976913452,13.128583908081055,0.2846178114414215
1690467452914804757,,124428,,1690467452,914725352,"""world""",,,3.318650007247925,13.127038955688477,0.28765249252319336
1690467452924834104,,124429,,1690467452,924729760,"""world""",,,3.318223237991333,13.125362396240234,0.2907877564430237
1690467452934819380,,124430,,1690467452,934728751,"""world""",,,3.3178656101226807,13.123748779296875,0.29391974210739136
1690467452944826528,,124431,,1690467452,944730179,"""world""",,,3.3176255226135254,13.122275352478027,0.2971983850002289
1690467452954935217,,124432,,1690467452,954783049,"""world""",,,3.3173317909240723,13.120688438415527,0.30039098858833313
1690467452974895422,,124433,,1690467452,974744075,"""world""",,,3.3170530796051025,13.119132995605469,0.30358532071113586
1690467452974909377,,124434,,1690467452,974759103,"""world""",,,3.316633462905884,13.117616653442383,0.30694669485092163
1690467452984827580,,124435,,1690467452,984726770,"""world""",,,3.3164658546447754,13.11603832244873,0.310206800699234
1690467452994803648,,124436,,1690467452,994727256,"""world""",,,3.316159963607788,13.114624977111816,0.3136967122554779
1690467453004784194,,124437,,1690467453,4713723,"""world""",,,3.315796136856079,13.113076210021973,0.31690821051597595
1690467453014902463,,124438,,1690467453,14752704,"""world""",,,3.3153789043426514,13.111592292785645,0.32036805152893066
1690467453024993394,,124439,,1690467453,24800599,"""world""",,,3.3149285316467285,13.109954833984375,0.3236875534057617
1690467453034857650,,124440,,1690467453,34741742,"""world""",,,3.3146731853485107,13.108625411987305,0.3271064758300781
1690467453154861690,,124441,,1690467453,154730075,"""world""",,,3.3142476081848145,13.107280731201172,0.3307991921901703
1690467453154875431,,124442,,1690467453,154746622,"""world""",,,3.31396484375,13.105711936950684,0.33413729071617126
1690467453154880974,,124443,,1690467453,154770197,"""world""",,,3.313558340072632,13.104293823242188,0.33776921033859253
1690467453154885567,,124449,,1690467453,154809445,"""world""",,,3.311682939529419,13.09595775604248,0.36003172397613525
1690467453154898559,,124450,,1690467453,154826905,"""world""",,,3.3115246295928955,13.094666481018066,0.3638191819190979
1690467453154902579,,124452,,1690467453,154841686,"""world""",,,3.3109874725341797,13.092158317565918,0.3715510070323944
1690467453164811411,,124453,,1690467453,164730355,"""world""",,,3.3108277320861816,13.090890884399414,0.37549564242362976
1690467453174842156,,124454,,1690467453,174733896,"""world""",,,3.310359477996826,13.089632034301758,0.37955528497695923
1690467453184855303,,124455,,1690467453,184734831,"""world""",,,3.310063600540161,13.088287353515625,0.38350898027420044
1690467453194823058,,124456,,1690467453,194731278,"""world""",,,3.3097352981567383,13.087098121643066,0.3875712454319
1690467453204823183,,124457,,1690467453,204728046,"""world""",,,3.3093059062957764,13.085958480834961,0.3918370306491852
1690467453214827569,,124458,,1690467453,214738620,"""world""",,,3.3093347549438477,13.084593772888184,0.3956994414329529
1690467453334826610,,124459,,1690467453,334724932,"""world""",,,3.309058666229248,13.083541870117188,0.3999060392379761
1690467453334833032,,124461,,1690467453,334741093,"""world""",,,3.3084065914154053,13.08120346069336,0.4083726108074188
1690467453334842094,,124462,,1690467453,334759103,"""world""",,,3.30826473236084,13.08013916015625,0.41259220242500305
1690467453334895015,,124468,,1690467453,334789765,"""world""",,,3.3071987628936768,13.074209213256836,0.4388381838798523
1690467453334903352,,124469,,1690467453,334804492,"""world""",,,3.3070013523101807,13.073403358459473,0.44350701570510864
1690467453334906440,,124470,,1690467453,334813185,"""world""",,,3.306901454925537,13.072456359863281,0.4480012059211731
1690467453344818043,,124471,,1690467453,344724586,"""world""",,,3.3066368103027344,13.071537971496582,0.45255765318870544
1690467453354835953,,124472,,1690467453,354734785,"""world""",,,3.306323766708374,13.070695877075195,0.45731982588768005
1690467453414850398,,124473,,1690467453,414734998,"""world""",,,3.306269645690918,13.069990158081055,0.4618649482727051
1690467453414858473,,124474,,1690467453,414746873,"""world""",,,3.3060801029205322,13.06917953491211,0.466730535030365
1690467453414872896,,124475,,1690467453,414766575,"""world""",,,3.305854558944702,13.068538665771484,0.47159212827682495
1690467453414895566,,124478,,1690467453,414780342,"""world""",,,3.3056068420410156,13.066582679748535,0.48598742485046387
1690467453474831928,,124479,,1690467453,474738257,"""world""",,,3.305591583251953,13.06596565246582,0.4909045100212097
1690467453474860455,,124480,,1690467453,474769875,"""world""",,,3.3055262565612793,13.065214157104492,0.4959143102169037
1690467453474871768,,124484,,1690467453,474789469,"""world""",,,3.3049445152282715,13.06220817565918,0.5161250829696655
1690467453484812546,,124485,,1690467453,484726138,"""world""",,,3.304811477661133,13.061248779296875,0.5214109420776367
1690467453494814906,,124486,,1690467453,494727993,"""world""",,,3.304755210876465,13.060373306274414,0.526681661605835
1690467453614870549,,124487,,1690467453,614734460,"""world""",,,3.3046255111694336,13.05945110321045,0.5320163369178772
1690467453614879828,,124496,,1690467453,614776595,"""world""",,,3.3047993183135986,13.051301002502441,0.5818213820457458
1690467453614885979,,124497,,1690467453,614797975,"""world""",,,3.304838180541992,13.050405502319336,0.5875296592712402
1690467453614892060,,124498,,1690467453,614803710,"""world""",,,3.30475115776062,13.049654006958008,0.5933431386947632
1690467453624872695,,124499,,1690467453,624752929,"""world""",,,3.3049464225769043,13.048685073852539,0.599149227142334
1690467453634815805,,124500,,1690467453,634730199,"""world""",,,3.3050715923309326,13.047797203063965,0.6049116253852844
1690467453654856001,,124501,,1690467453,654728444,"""world""",,,3.3051912784576416,13.04689884185791,0.6108457446098328
1690467453664822385,,124502,,1690467453,664729068,"""world""",,,3.305155038833618,13.045985221862793,0.6166373491287231
1690467453664833053,,124503,,1690467453,664742558,"""world""",,,3.305530309677124,13.044872283935547,0.6228257417678833
1690467453674864973,,124504,,1690467453,674738803,"""world""",,,3.3055217266082764,13.043953895568848,0.628546416759491
1690467453724832346,,124505,,1690467453,724742893,"""world""",,,3.3053407669067383,13.043069839477539,0.6344078183174133
1690467453724873768,,124506,,1690467453,724771200,"""world""",,,3.3054447174072266,13.041876792907715,0.6405600905418396
1690467453724880637,,124509,,1690467453,724791472,"""world""",,,3.305577039718628,13.038415908813477,0.6584351658821106
1690467453734846449,,124510,,1690467453,734725596,"""world""",,,3.3054986000061035,13.037226676940918,0.6644678115844727
1690467453744859651,,124511,,1690467453,744737777,"""world""",,,3.3055713176727295,13.035943984985352,0.6706835031509399
1690467453764821191,,124512,,1690467453,764726640,"""world""",,,3.3059816360473633,13.034529685974121,0.6765824556350708
1690467453764829941,,124513,,1690467453,764741061,"""world""",,,3.3058838844299316,13.033109664916992,0.6827130317687988
1690467453774840712,,124514,,1690467453,774738235,"""world""",,,3.3058054447174072,13.03178596496582,0.689085841178894
1690467453784814310,,124515,,1690467453,784727399,"""world""",,,3.305772066116333,13.030313491821289,0.6953346729278564
1690467453794818433,,124516,,1690467453,794726130,"""world""",,,3.3058786392211914,13.028891563415527,0.7016101479530334
1690467453804818491,,124517,,1690467453,804726242,"""world""",,,3.3060569763183594,13.027246475219727,0.7077065706253052
1690467453814814559,,124518,,1690467453,814725522,"""world""",,,3.305889368057251,13.025745391845703,0.7141350507736206
1690467453824940832,,124519,,1690467453,824815636,"""world""",,,3.306021213531494,13.024165153503418,0.7204608917236328
1690467453834844489,,124520,,1690467453,834726651,"""world""",,,3.305992841720581,13.022459030151367,0.7268397212028503
1690467453924847382,,124521,,1690467453,924736031,"""world""",,,3.3062100410461426,13.020577430725098,0.7329846620559692
1690467453924852748,,124522,,1690467453,924750369,"""world""",,,3.306096076965332,13.01900577545166,0.7397348284721375
1690467453924855571,,124523,,1690467453,924768071,"""world""",,,3.3064544200897217,13.017167091369629,0.7458851337432861
1690467453924864782,,124529,,1690467453,924793399,"""world""",,,3.3068034648895264,13.005475997924805,0.7851631045341492
1690467453934808582,,124530,,1690467453,934725012,"""world""",,,3.3068015575408936,13.003477096557617,0.7916533946990967
1690467453944832891,,124531,,1690467453,944728803,"""world""",,,3.306896448135376,13.001204490661621,0.7982834577560425
1690467453954865968,,124532,,1690467453,954731040,"""world""",,,3.3070197105407715,12.999128341674805,0.8048815131187439
1690467453964813970,,124533,,1690467453,964721100,"""world""",,,3.3070268630981445,12.99693775177002,0.8114226460456848
1690467453974812279,,124534,,1690467453,974726075,"""world""",,,3.3070404529571533,12.994684219360352,0.8179897665977478
1690467453984816292,,124535,,1690467453,984726767,"""world""",,,3.3070011138916016,12.992438316345215,0.8246288299560547
1690467453994814631,,124536,,1690467453,994727762,"""world""",,,3.3070309162139893,12.990096092224121,0.8313409686088562
1690467454004817385,,124537,,1690467454,4728804,"""world""",,,3.3071258068084717,12.987724304199219,0.8377397656440735
1690467454014823895,,124538,,1690467454,14732830,"""world""",,,3.3072540760040283,12.985326766967773,0.8442421555519104
1690467454025018740,,124539,,1690467454,24832385,"""world""",,,3.3071446418762207,12.98289680480957,0.850798487663269
1690467454034854152,,124540,,1690467454,34730191,"""world""",,,3.3073253631591797,12.98042106628418,0.8573672771453857
1690467454184828857,,124541,,1690467454,184727603,"""world""",,,3.307227611541748,12.977930068969727,0.8637240529060364
1690467454184839478,,124542,,1690467454,184739083,"""world""",,,3.307222604751587,12.975323677062988,0.8702096939086914
1690467454184846482,,124543,,1690467454,184753721,"""world""",,,3.3072566986083984,12.972846031188965,0.8765592575073242
1690467454184851290,,124550,,1690467454,184783302,"""world""",,,3.3069190979003906,12.953716278076172,0.9212101101875305
1690467454184868573,,124551,,1690467454,184796034,"""world""",,,3.306609630584717,12.950809478759766,0.92772376537323
1690467454184873035,,124552,,1690467454,184805110,"""world""",,,3.3067872524261475,12.947978973388672,0.9337663054466248
1690467454184899980,,124553,,1690467454,184820742,"""world""",,,3.3067028522491455,12.945015907287598,0.9400229454040527
1690467454184910324,,124554,,1690467454,184830259,"""world""",,,3.306696891784668,12.94205379486084,0.9462600946426392
1690467454184927214,,124555,,1690467454,184837099,"""world""",,,3.306608200073242,12.938962936401367,0.9523325562477112
1690467454194810632,,124556,,1690467454,194727525,"""world""",,,3.3065977096557617,12.93591594696045,0.9585051536560059
1690467454204820907,,124557,,1690467454,204719649,"""world""",,,3.3063888549804688,12.932854652404785,0.9643352031707764
1690467454234852745,,124558,,1690467454,234727890,"""world""",,,3.306248188018799,12.929750442504883,0.9703595042228699
1690467454234858649,,124560,,1690467454,234743661,"""world""",,,3.30597186088562,12.923315048217773,0.9819298982620239
1690467454244887548,,124561,,1690467454,244766525,"""world""",,,3.3059990406036377,12.919912338256836,0.9876474738121033
1690467454254856745,,124562,,1690467454,254759027,"""world""",,,3.3057258129119873,12.916749000549316,0.993159830570221
1690467454384824714,,124563,,1690467454,384727205,"""world""",,,3.3055291175842285,12.913485527038574,0.9986311197280884
1690467454384868218,,124564,,1690467454,384755860,"""world""",,,3.3056983947753906,12.910112380981445,1.0041149854660034
1690467454384872531,,124569,,1690467454,384790394,"""world""",,,3.304783821105957,12.892621994018555,1.0290614366531372
1690467454384898718,,124570,,1690467454,384807779,"""world""",,,3.304795742034912,12.888984680175781,1.0336897373199463
1690467454384926289,,124574,,1690467454,384834819,"""world""",,,3.304478168487549,12.874180793762207,1.0503199100494385
1690467454384932353,,124575,,1690467454,384852009,"""world""",,,3.3039114475250244,12.870360374450684,1.053965449333191
1690467454394814425,,124576,,1690467454,394727427,"""world""",,,3.303786277770996,12.866510391235352,1.0574826002120972
1690467454425208731,,124577,,1690467454,424839954,"""world""",,,3.3035881519317627,12.862688064575195,1.0608644485473633
1690467454425217329,,124579,,1690467454,424885251,"""world""",,,3.3032710552215576,12.854775428771973,1.0668777227401733
1690467454434869735,,124580,,1690467454,434733443,"""world""",,,3.3032591342926025,12.850798606872559,1.0695359706878662
1690467454445059520,,124581,,1690467454,444770957,"""world""",,,3.3031318187713623,12.846735000610352,1.0718666315078735
1690467454454825705,,124582,,1690467454,454727491,"""world""",,,3.3030049800872803,12.8426513671875,1.0741957426071167
1690467454585009943,,124583,,1690467454,584738965,"""world""",,,3.3029935359954834,12.83843994140625,1.076271891593933
1690467454585035887,,124584,,1690467454,584755189,"""world""",,,3.3024377822875977,12.834362030029297,1.0781582593917847
1690467454585085682,,124585,,1690467454,584774954,"""world""",,,3.302523136138916,12.830162048339844,1.0796269178390503
1690467454585090629,,124594,,1690467454,584816935,"""world""",,,3.3009591102600098,12.790570259094238,1.0859423875808716
1690467454594828003,,124595,,1690467454,594734996,"""world""",,,3.3007686138153076,12.785942077636719,1.0858638286590576
1690467454594837988,,124596,,1690467454,594747258,"""world""",,,3.300760269165039,12.78127670288086,1.0855287313461304
1690467454604806410,,124597,,1690467454,604724660,"""world""",,,3.3004205226898193,12.776566505432129,1.0851305723190308
1690467454644853544,,124598,,1690467454,644732602,"""world""",,,3.300309181213379,12.771737098693848,1.0844988822937012
1690467454644865614,,124599,,1690467454,644746610,"""world""",,,3.300391435623169,12.766865730285645,1.0839886665344238
1690467454644869554,,124600,,1690467454,644769203,"""world""",,,3.299973726272583,12.7621431350708,1.0831693410873413
1690467454644876365,,124601,,1690467454,644776006,"""world""",,,3.2999260425567627,12.75712776184082,1.0823529958724976
1690467454654805546,,124602,,1690467454,654720337,"""world""",,,3.299848794937134,12.752046585083008,1.0815110206604004
1690467454674902619,,124603,,1690467454,674732737,"""world""",,,3.2995150089263916,12.747186660766602,1.0803422927856445
1690467454674912085,,124604,,1690467454,674746386,"""world""",,,3.299563407897949,12.74203109741211,1.0792089700698853
1690467454684819563,,124605,,1690467454,684727269,"""world""",,,3.29940128326416,12.736949920654297,1.0781232118606567
1690467454694835926,,124606,,1690467454,694732874,"""world""",,,3.299078941345215,12.731727600097656,1.0767706632614136
1690467454704821586,,124607,,1690467454,704729257,"""world""",,,3.298917770385742,12.72645378112793,1.0754692554473877
1690467454714820083,,124608,,1690467454,714731742,"""world""",,,3.2988696098327637,12.721212387084961,1.0740689039230347
1690467454724901500,,124609,,1690467454,724763641,"""world""",,,3.2985658645629883,12.715867042541504,1.0726439952850342
1690467454734951336,,124610,,1690467454,734742662,"""world""",,,3.298602342605591,12.710403442382812,1.0713677406311035
1690467454744867670,,124611,,1690467454,744739548,"""world""",,,3.298337936401367,12.704923629760742,1.0697715282440186
1690467454754834199,,124612,,1690467454,754733942,"""world""",,,3.298248052597046,12.699454307556152,1.0682854652404785
1690467454764834863,,124613,,1690467454,764742749,"""world""",,,3.298095941543579,12.693942070007324,1.066652536392212
1690467454774853647,,124614,,1690467454,774741725,"""world""",,,3.297914981842041,12.688285827636719,1.0652426481246948
1690467454784835585,,124615,,1690467454,784729002,"""world""",,,3.2980706691741943,12.6824951171875,1.0636518001556396
1690467454794823442,,124616,,1690467454,794731315,"""world""",,,3.2975964546203613,12.67690658569336,1.062351942062378
1690467454804793729,,124617,,1690467454,804719579,"""world""",,,3.297541379928589,12.671037673950195,1.0609328746795654
1690467454814812355,,124618,,1690467454,814726866,"""world""",,,3.297337532043457,12.665197372436523,1.0593310594558716
1690467454825139027,,124619,,1690467454,824841874,"""world""",,,3.2970263957977295,12.659215927124023,1.0580449104309082
1690467454834865541,,124620,,1690467454,834727411,"""world""",,,3.2970082759857178,12.653307914733887,1.056443452835083
1690467454844834847,,124621,,1690467454,844727606,"""world""",,,3.2969632148742676,12.647216796875,1.0550798177719116
1690467454864823489,,124622,,1690467454,864727122,"""world""",,,3.2967519760131836,12.641243934631348,1.0538301467895508
1690467454864829352,,124623,,1690467454,864738849,"""world""",,,3.296623945236206,12.635031700134277,1.0524266958236694
1690467454874857735,,124624,,1690467454,874745064,"""world""",,,3.296630620956421,12.628791809082031,1.051125407218933
1690467454884870243,,124625,,1690467454,884736049,"""world""",,,3.296400308609009,12.622514724731445,1.04978609085083
1690467454894819319,,124626,,1690467454,894728644,"""world""",,,3.2961106300354004,12.616156578063965,1.049186110496521
1690467454904788495,,124627,,1690467454,904711632,"""world""",,,3.2961127758026123,12.609766006469727,1.047438144683838
1690467454914877644,,124628,,1690467454,914743610,"""world""",,,3.2960784435272217,12.60326862335205,1.0461968183517456
1690467454924871448,,124629,,1690467454,924758743,"""world""",,,3.2957489490509033,12.596952438354492,1.0452232360839844
1690467454934860845,,124630,,1690467454,934727694,"""world""",,,3.2961041927337646,12.590171813964844,1.0440106391906738
1690467454944908511,,124631,,1690467454,944753119,"""world""",,,3.2956080436706543,12.583654403686523,1.0429102182388306
1690467454954874003,,124632,,1690467454,954730274,"""world""",,,3.2958195209503174,12.576919555664062,1.041993498802185
1690467454964808698,,124633,,1690467454,964725132,"""world""",,,3.295423984527588,12.570149421691895,1.041015386581421
1690467454974835900,,124634,,1690467454,974736918,"""world""",,,3.2955758571624756,12.563279151916504,1.0398811101913452
1690467454984824705,,124635,,1690467454,984728873,"""world""",,,3.2952678203582764,12.556520462036133,1.039115071296692
1690467454994811404,,124636,,1690467454,994728279,"""world""",,,3.2950997352600098,12.549612045288086,1.0386041402816772
1690467455004784799,,124637,,1690467455,4712466,"""world""",,,3.295121192932129,12.542584419250488,1.0376015901565552
1690467455014813366,,124638,,1690467455,14726888,"""world""",,,3.2948403358459473,12.53560733795166,1.037078857421875
1690467455025073708,,124639,,1690467455,24831491,"""world""",,,3.2945070266723633,12.528475761413574,1.0366299152374268
1690467455034875927,,124640,,1690467455,34743473,"""world""",,,3.2946553230285645,12.521228790283203,1.035937786102295
1690467455045022008,,124641,,1690467455,44750842,"""world""",,,3.2945520877838135,12.514044761657715,1.0357685089111328
1690467455054906347,,124642,,1690467455,54750486,"""world""",,,3.294304609298706,12.506668090820312,1.0353031158447266
1690467455064819615,,124643,,1690467455,64732654,"""world""",,,3.2941181659698486,12.499425888061523,1.0352219343185425
1690467455074913067,,124644,,1690467455,74758687,"""world""",,,3.2938241958618164,12.491952896118164,1.0352721214294434
1690467455084916204,,124645,,1690467455,84770878,"""world""",,,3.293968439102173,12.484417915344238,1.0351864099502563
1690467455094871622,,124646,,1690467455,94751914,"""world""",,,3.2939679622650146,12.476951599121094,1.0355769395828247
1690467455104874129,,124647,,1690467455,104756185,"""world""",,,3.293560028076172,12.469313621520996,1.035914659500122
1690467455114859793,,124648,,1690467455,114758756,"""world""",,,3.2934131622314453,12.461627960205078,1.036453366279602
1690467455124837422,,124649,,1690467455,124747568,"""world""",,,3.2934441566467285,12.453742027282715,1.0372982025146484
1690467455134837635,,124650,,1690467455,134755401,"""world""",,,3.293205976486206,12.446045875549316,1.0379823446273804
1690467455144899768,,124651,,1690467455,144741964,"""world""",,,3.293238639831543,12.43822193145752,1.03890061378479
1690467455154823173,,124652,,1690467455,154730327,"""world""",,,3.2932257652282715,12.430204391479492,1.040114164352417
1690467455164873424,,124653,,1690467455,164734769,"""world""",,,3.2928621768951416,12.422212600708008,1.0414501428604126
1690467455174827829,,124654,,1690467455,174731337,"""world""",,,3.2926554679870605,12.41414737701416,1.0428286790847778
1690467455184903733,,124655,,1690467455,184743885,"""world""",,,3.2927095890045166,12.40580940246582,1.0444531440734863
1690467455194833607,,124656,,1690467455,194738743,"""world""",,,3.2922556400299072,12.397817611694336,1.046109914779663
1690467455204785412,,124657,,1690467455,204719060,"""world""",,,3.29215931892395,12.389596939086914,1.0479505062103271
1690467455214847525,,124658,,1690467455,214769818,"""world""",,,3.292088747024536,12.381023406982422,1.0497971773147583
1690467455225328543,,124659,,1690467455,224831061,"""world""",,,3.2917592525482178,12.372621536254883,1.0516932010650635
1690467455234848668,,124660,,1690467455,234727078,"""world""",,,3.2916595935821533,12.364195823669434,1.0537846088409424
1690467455244921250,,124661,,1690467455,244729784,"""world""",,,3.2913272380828857,12.355692863464355,1.0560355186462402
1690467455254837546,,124662,,1690467455,254732271,"""world""",,,3.2911317348480225,12.347115516662598,1.0583550930023193
1690467455264800394,,124663,,1690467455,264725149,"""world""",,,3.291109800338745,12.338252067565918,1.0606406927108765
1690467455274886098,,124664,,1690467455,274766504,"""world""",,,3.2906057834625244,12.329618453979492,1.063140630722046
1690467455285054106,,124665,,1690467455,284768973,"""world""",,,3.290602207183838,12.320755958557129,1.0656189918518066
1690467455294826570,,124666,,1690467455,294730684,"""world""",,,3.290187120437622,12.31197452545166,1.0681936740875244
1690467455304818538,,124667,,1690467455,304717839,"""world""",,,3.2898497581481934,12.303107261657715,1.0708409547805786
1690467455314806763,,124668,,1690467455,314726024,"""world""",,,3.2896416187286377,12.294157028198242,1.0735888481140137
1690467455324866629,,124669,,1690467455,324758257,"""world""",,,3.289445638656616,12.285038948059082,1.0761831998825073
