rosbagTimestamp,header,seq,stamp,secs,nsecs,frame_id,pose,position,x,y,z
1690462047014426245,,5373,,1690462047,13413794,"""world""",,,3.3651955127716064,13.205421447753906,-0.021206209436058998
1690462047033441250,,5374,,1690462047,33391170,"""world""",,,3.365159749984741,13.205489158630371,-0.02116226963698864
1690462047043489309,,5375,,1690462047,43426091,"""world""",,,3.3651726245880127,13.20543384552002,-0.021257080137729645
1690462047043497040,,5376,,1690462047,43440896,"""world""",,,3.365178108215332,13.205488204956055,-0.02118939720094204
1690462047063465787,,5377,,1690462047,63402655,"""world""",,,3.3651723861694336,13.205504417419434,-0.021209707483649254
1690462047073465729,,5378,,1690462047,73402576,"""world""",,,3.365154266357422,13.205476760864258,-0.02118847891688347
1690462047073470978,,5379,,1690462047,73416329,"""world""",,,3.3651509284973145,13.205483436584473,-0.02117217145860195
1690462047093457082,,5380,,1690462047,93396804,"""world""",,,3.3651745319366455,13.20540714263916,-0.021259158849716187
1690462047103507680,,5381,,1690462047,103399602,"""world""",,,3.365180492401123,13.205426216125488,-0.02124095894396305
1690462047113478613,,5382,,1690462047,113408899,"""world""",,,3.365199089050293,13.20541763305664,-0.021269602701067924
1690462047123457499,,5383,,1690462047,123396947,"""world""",,,3.365166425704956,13.205486297607422,-0.021169614046812057
1690462047133428308,,5384,,1690462047,133381018,"""world""",,,3.3651750087738037,13.205425262451172,-0.02126668579876423
1690462047143490614,,5385,,1690462047,143401032,"""world""",,,3.365161895751953,13.205497741699219,-0.021167783066630363
1690462047153450543,,5386,,1690462047,153396756,"""world""",,,3.3652093410491943,13.205446243286133,-0.021291431039571762
1690462047163464721,,5387,,1690462047,163405929,"""world""",,,3.365180730819702,13.205423355102539,-0.021261146292090416
1690462047173498306,,5388,,1690462047,173396969,"""world""",,,3.365185499191284,13.205412864685059,-0.021259013563394547
1690462047183518765,,5389,,1690462047,183434071,"""world""",,,3.3651857376098633,13.205428123474121,-0.021250298246741295
1690462047183525108,,5390,,1690462047,183448378,"""world""",,,3.365173816680908,13.205412864685059,-0.021278949454426765
1690462047193475067,,5391,,1690462047,193388397,"""world""",,,3.365166664123535,13.205485343933105,-0.0211678184568882
1690462047203456930,,5392,,1690462047,203389871,"""world""",,,3.3651692867279053,13.20542049407959,-0.021257545799016953
1690462047223466588,,5393,,1690462047,223395723,"""world""",,,3.365147829055786,13.205470085144043,-0.021149327978491783
1690462047223473911,,5394,,1690462047,223407334,"""world""",,,3.365234851837158,13.205394744873047,-0.02122727409005165
1690462047243463149,,5395,,1690462047,243396722,"""world""",,,3.3651533126831055,13.20548152923584,-0.02117324061691761
1690462047253458810,,5396,,1690462047,253395601,"""world""",,,3.3651678562164307,13.205431938171387,-0.021252593025565147
1690462047263459649,,5397,,1690462047,263395344,"""world""",,,3.365185260772705,13.205431938171387,-0.021278925240039825
1690462047263467439,,5398,,1690462047,263406347,"""world""",,,3.3651843070983887,13.205479621887207,-0.021204331889748573
1690462047283475626,,5399,,1690462047,283399032,"""world""",,,3.3651535511016846,13.205472946166992,-0.021181294694542885
1690462047283482094,,5400,,1690462047,283410372,"""world""",,,3.3651962280273438,13.205423355102539,-0.02126694656908512
1690462047293475026,,5401,,1690462047,293422497,"""world""",,,3.3651835918426514,13.205427169799805,-0.021264728158712387
1690462047303453677,,5402,,1690462047,303393585,"""world""",,,3.3651790618896484,13.205419540405273,-0.02126745507121086
1690462047323458704,,5403,,1690462047,323395257,"""world""",,,3.3651797771453857,13.205418586730957,-0.02128404751420021
1690462047323465556,,5404,,1690462047,323406909,"""world""",,,3.3651585578918457,13.205472946166992,-0.02118068002164364
1690462047343456700,,5405,,1690462047,343397098,"""world""",,,3.365176200866699,13.205411911010742,-0.021261099725961685
1690462047353459743,,5406,,1690462047,353400177,"""world""",,,3.3651444911956787,13.205483436584473,-0.02115437388420105
1690462047363486576,,5407,,1690462047,363427428,"""world""",,,3.3651716709136963,13.205428123474121,-0.021266890689730644
1690462047373456810,,5408,,1690462047,373395682,"""world""",,,3.3651740550994873,13.205435752868652,-0.021272065117955208
1690462047373464966,,5409,,1690462047,373405659,"""world""",,,3.365208864212036,13.205432891845703,-0.021296700462698936
1690462047393478581,,5410,,1690462047,393420203,"""world""",,,3.3651673793792725,13.205431938171387,-0.02126506343483925
1690462047393482686,,5411,,1690462047,393430140,"""world""",,,3.365168333053589,13.205425262451172,-0.02127383090555668
1690462047413499332,,5412,,1690462047,413434311,"""world""",,,3.365166187286377,13.205416679382324,-0.021268634125590324
1690462047413505527,,5413,,1690462047,413448823,"""world""",,,3.3651628494262695,13.205418586730957,-0.02125987410545349
1690462047423483819,,5414,,1690462047,423427248,"""world""",,,3.3651633262634277,13.20547103881836,-0.021183189004659653
1690462047443492587,,5415,,1690462047,443406758,"""world""",,,3.365177631378174,13.205428123474121,-0.02127179689705372
1690462047443496446,,5416,,1690462047,443419640,"""world""",,,3.365152359008789,13.205484390258789,-0.02116069197654724
1690462047453456381,,5417,,1690462047,453399344,"""world""",,,3.365166187286377,13.205431938171387,-0.021256472915410995
1690462047473471745,,5418,,1690462047,473399340,"""world""",,,3.365166664123535,13.20542049407959,-0.02126595377922058
1690462047473481327,,5419,,1690462047,473411238,"""world""",,,3.3651602268218994,13.205489158630371,-0.021176140755414963
1690462047483536155,,5420,,1690462047,483444037,"""world""",,,3.3651468753814697,13.205479621887207,-0.02118351124227047
1690462047503500174,,5421,,1690462047,503392835,"""world""",,,3.365165948867798,13.20542049407959,-0.0212606992572546
1690462047513495498,,5422,,1690462047,513406346,"""world""",,,3.365185260772705,13.205430030822754,-0.021262770518660545
1690462047513503953,,5423,,1690462047,513420178,"""world""",,,3.3652002811431885,13.205525398254395,-0.021189145743846893
1690462047533448543,,5424,,1690462047,533388971,"""world""",,,3.3651773929595947,13.205431938171387,-0.021259743720293045
1690462047533455193,,5425,,1690462047,533399420,"""world""",,,3.36515474319458,13.205435752868652,-0.021243469789624214
1690462047553506718,,5426,,1690462047,553396861,"""world""",,,3.3651795387268066,13.205409049987793,-0.0212546419352293
1690462047563458029,,5427,,1690462047,563396817,"""world""",,,3.3651576042175293,13.205500602722168,-0.021166523918509483
1690462047573476734,,5428,,1690462047,573398891,"""world""",,,3.365175247192383,13.205435752868652,-0.021264169365167618
1690462047573484774,,5429,,1690462047,573409686,"""world""",,,3.365154266357422,13.205491065979004,-0.02117276005446911
1690462047593464508,,5430,,1690462047,593393445,"""world""",,,3.365163803100586,13.205486297607422,-0.021175820380449295
1690462047593471899,,5431,,1690462047,593403710,"""world""",,,3.365145683288574,13.20549488067627,-0.021170783787965775
1690462047613460711,,5432,,1690462047,613400628,"""world""",,,3.365145683288574,13.205471992492676,-0.021182944998145103
1690462047623459801,,5433,,1690462047,623396180,"""world""",,,3.365126848220825,13.205482482910156,-0.021146658807992935
1690462047623466366,,5434,,1690462047,623407157,"""world""",,,3.365164279937744,13.205419540405273,-0.021264955401420593
1690462047633425004,,5435,,1690462047,633381549,"""world""",,,3.3651788234710693,13.20543098449707,-0.021273737773299217
1690462047653468381,,5436,,1690462047,653400694,"""world""",,,3.3651700019836426,13.205413818359375,-0.021276935935020447
1690462047653476132,,5437,,1690462047,653412865,"""world""",,,3.3651609420776367,13.205428123474121,-0.02124468982219696
1690462047673495414,,5438,,1690462047,673396859,"""world""",,,3.3651516437530518,13.205487251281738,-0.021165424957871437
1690462047683464441,,5439,,1690462047,683395750,"""world""",,,3.365177631378174,13.205429077148438,-0.021272316575050354
1690462047683470834,,5440,,1690462047,683408157,"""world""",,,3.3651812076568604,13.205418586730957,-0.02126695215702057
1690462047693443702,,5441,,1690462047,693384565,"""world""",,,3.365135908126831,13.20550537109375,-0.021166931837797165
1690462047713468819,,5442,,1690462047,713402292,"""world""",,,3.3651340007781982,13.205488204956055,-0.021181434392929077
1690462047713471616,,5443,,1690462047,713414561,"""world""",,,3.3651726245880127,13.205437660217285,-0.02127189189195633
1690462047723493377,,5444,,1690462047,723430577,"""world""",,,3.365178108215332,13.205411911010742,-0.02127554640173912
1690462047743550224,,5445,,1690462047,743428638,"""world""",,,3.3651678562164307,13.205413818359375,-0.021244816482067108
1690462047743555848,,5446,,1690462047,743440361,"""world""",,,3.3651580810546875,13.205471992492676,-0.021144459024071693
1690462047753494186,,5447,,1690462047,753428238,"""world""",,,3.3651695251464844,13.205423355102539,-0.021273097023367882
1690462047763465126,,5448,,1690462047,763398428,"""world""",,,3.3651561737060547,13.205432891845703,-0.02127334289252758
1690462047783509406,,5449,,1690462047,783440933,"""world""",,,3.3651716709136963,13.205431938171387,-0.02128932625055313
1690462047783512177,,5450,,1690462047,783467305,"""world""",,,3.365166425704956,13.205435752868652,-0.021268920972943306
1690462047793536058,,5451,,1690462047,793417835,"""world""",,,3.3651599884033203,13.205422401428223,-0.021257618442177773
1690462047813550199,,5452,,1690462047,813463714,"""world""",,,3.36517596244812,13.205431938171387,-0.021260634064674377
1690462047813553692,,5453,,1690462047,813482018,"""world""",,,3.3651418685913086,13.205493927001953,-0.02118021622300148
1690462047823461307,,5454,,1690462047,823400700,"""world""",,,3.3651795387268066,13.205448150634766,-0.02127673290669918
1690462047843508982,,5455,,1690462047,843428047,"""world""",,,3.3651938438415527,13.205445289611816,-0.021301772445440292
1690462047843513368,,5456,,1690462047,843440717,"""world""",,,3.3651814460754395,13.205434799194336,-0.021272875368595123
1690462047853526645,,5457,,1690462047,853433762,"""world""",,,3.3651697635650635,13.205439567565918,-0.021259188652038574
1690462047873503569,,5458,,1690462047,873426628,"""world""",,,3.365161657333374,13.205423355102539,-0.021263105794787407
1690462047873512065,,5459,,1690462047,873440112,"""world""",,,3.3651413917541504,13.205483436584473,-0.021179601550102234
1690462047893450568,,5460,,1690462047,893391644,"""world""",,,3.3651726245880127,13.20543098449707,-0.021285641938447952
1690462047893456220,,5461,,1690462047,893401825,"""world""",,,3.365168809890747,13.205445289611816,-0.021266968920826912
1690462047903480568,,5462,,1690462047,903397560,"""world""",,,3.3651599884033203,13.205446243286133,-0.02127380482852459
1690462047923492073,,5463,,1690462047,923430510,"""world""",,,3.3651673793792725,13.205437660217285,-0.021262340247631073
1690462047933482793,,5464,,1690462047,933413481,"""world""",,,3.3651700019836426,13.205449104309082,-0.021264124661684036
1690462047933490300,,5465,,1690462047,933423038,"""world""",,,3.365168809890747,13.205435752868652,-0.021251235157251358
1690462047943537646,,5466,,1690462047,943433046,"""world""",,,3.3651607036590576,13.205432891845703,-0.021273618564009666
1690462047953485134,,5467,,1690462047,953426589,"""world""",,,3.3651819229125977,13.205438613891602,-0.02127440832555294
1690462047973536952,,5468,,1690462047,973427908,"""world""",,,3.365173578262329,13.205443382263184,-0.02127418853342533
1690462047973547962,,5469,,1690462047,973441294,"""world""",,,3.3651561737060547,13.205434799194336,-0.02126854658126831
1690462047983526344,,5470,,1690462047,983429104,"""world""",,,3.3651654720306396,13.205439567565918,-0.021266648545861244
1690462048003485760,,5471,,1690462048,3400214,"""world""",,,3.3651463985443115,13.2055025100708,-0.021168246865272522
1690462048003497445,,5472,,1690462048,3413965,"""world""",,,3.365147590637207,13.205436706542969,-0.021266022697091103
1690462048013506237,,5473,,1690462048,13423293,"""world""",,,3.365187406539917,13.205436706542969,-0.02129536122083664
1690462048033451506,,5474,,1690462048,33386129,"""world""",,,3.3651907444000244,13.205448150634766,-0.02132471092045307
1690462048033456797,,5475,,1690462048,33395749,"""world""",,,3.365166187286377,13.205437660217285,-0.021270768716931343
1690462048043468188,,5476,,1690462048,43395995,"""world""",,,3.365147829055786,13.20550537109375,-0.021157002076506615
1690462048063459761,,5477,,1690462048,63397841,"""world""",,,3.3651282787323,13.205484390258789,-0.021158462390303612
1690462048063467950,,5478,,1690462048,63409272,"""world""",,,3.365145683288574,13.205488204956055,-0.021176252514123917
1690462048073469758,,5479,,1690462048,73392977,"""world""",,,3.365164279937744,13.205449104309082,-0.021263493224978447
1690462048093488759,,5480,,1690462048,93424801,"""world""",,,3.365205764770508,13.205455780029297,-0.021318472921848297
1690462048093496709,,5481,,1690462048,93435021,"""world""",,,3.3651700019836426,13.205450057983398,-0.021272413432598114
1690462048113483993,,5482,,1690462048,113411671,"""world""",,,3.3651533126831055,13.205448150634766,-0.02125466801226139
1690462048123495613,,5483,,1690462048,123428128,"""world""",,,3.365130662918091,13.20548152923584,-0.0211819875985384
1690462048123500768,,5484,,1690462048,123439589,"""world""",,,3.365154981613159,13.20549201965332,-0.021180756390094757
1690462048133462209,,5485,,1690462048,133414956,"""world""",,,3.3652212619781494,13.205439567565918,-0.02125490829348564
1690462048153476263,,5486,,1690462048,153406027,"""world""",,,3.3651609420776367,13.205449104309082,-0.0212639681994915
1690462048153481476,,5487,,1690462048,153418440,"""world""",,,3.365171432495117,13.205437660217285,-0.02128118835389614
1690462048163459826,,5488,,1690462048,163398814,"""world""",,,3.3651955127716064,13.205438613891602,-0.02131456322968006
1690462048183528946,,5489,,1690462048,183461207,"""world""",,,3.365172863006592,13.20544719696045,-0.02124316245317459
1690462048183531747,,5490,,1690462048,183474107,"""world""",,,3.3651583194732666,13.205427169799805,-0.02127053588628769
1690462048193443407,,5491,,1690462048,193392337,"""world""",,,3.3651719093322754,13.205442428588867,-0.021269463002681732
1690462048213498463,,5492,,1690462048,213422154,"""world""",,,3.3651819229125977,13.205449104309082,-0.021311836317181587
1690462048213500997,,5493,,1690462048,213436674,"""world""",,,3.36517333984375,13.205451011657715,-0.02127179130911827
1690462048223496208,,5494,,1690462048,223430606,"""world""",,,3.3651528358459473,13.205440521240234,-0.02126036025583744
1690462048243511248,,5495,,1690462048,243406956,"""world""",,,3.365163803100586,13.205443382263184,-0.021246151998639107
1690462048243515707,,5496,,1690462048,243418475,"""world""",,,3.365159273147583,13.20543098449707,-0.0212545245885849
1690462048253458744,,5497,,1690462048,253399762,"""world""",,,3.3651723861694336,13.2054443359375,-0.021248335018754005
1690462048273510284,,5498,,1690462048,273398716,"""world""",,,3.3651580810546875,13.205523490905762,-0.021154727786779404
1690462048283488639,,5499,,1690462048,283402606,"""world""",,,3.365158796310425,13.20545768737793,-0.02126859501004219
1690462048283495418,,5500,,1690462048,283415880,"""world""",,,3.365182876586914,13.205453872680664,-0.02127586118876934
1690462048303458349,,5501,,1690462048,303388317,"""world""",,,3.3651628494262695,13.205435752868652,-0.021255312487483025
1690462048303465263,,5502,,1690462048,303398933,"""world""",,,3.3651785850524902,13.205449104309082,-0.021242933347821236
1690462048313499656,,5503,,1690462048,313415675,"""world""",,,3.3651506900787354,13.205496788024902,-0.02115820348262787
1690462048333449719,,5504,,1690462048,333390974,"""world""",,,3.365173578262329,13.205448150634766,-0.021266138181090355
1690462048333458841,,5505,,1690462048,333401738,"""world""",,,3.365144968032837,13.205519676208496,-0.021180307492613792
1690462048343480390,,5506,,1690462048,343398336,"""world""",,,3.3651514053344727,13.205511093139648,-0.021196389570832253
1690462048363520243,,5507,,1690462048,363430043,"""world""",,,3.3651700019836426,13.205450057983398,-0.02127217873930931
1690462048373511923,,5508,,1690462048,373424517,"""world""",,,3.365166425704956,13.20544147491455,-0.02125832624733448
1690462048373515971,,5509,,1690462048,373436678,"""world""",,,3.365161657333374,13.205501556396484,-0.0211605466902256
1690462048393484921,,5510,,1690462048,393425053,"""world""",,,3.365140438079834,13.205491065979004,-0.021166909486055374
1690462048393492225,,5511,,1690462048,393436514,"""world""",,,3.3651793003082275,13.205467224121094,-0.0212668776512146
1690462048403439974,,5512,,1690462048,403390944,"""world""",,,3.3651957511901855,13.205459594726562,-0.021236637607216835
1690462048423467695,,5513,,1690462048,423397903,"""world""",,,3.365166425704956,13.205461502075195,-0.021277762949466705
1690462048423472829,,5514,,1690462048,423410102,"""world""",,,3.3651726245880127,13.205462455749512,-0.021264493465423584
1690462048433439990,,5515,,1690462048,433387127,"""world""",,,3.3651814460754395,13.205465316772461,-0.021254219114780426
1690462048453490845,,5516,,1690462048,453411538,"""world""",,,3.3651750087738037,13.205436706542969,-0.021265368908643723
1690462048453498129,,5517,,1690462048,453425654,"""world""",,,3.3651697635650635,13.2054443359375,-0.0212811641395092
1690462048463457258,,5518,,1690462048,463399191,"""world""",,,3.365168571472168,13.205455780029297,-0.021263249218463898
1690462048483466732,,5519,,1690462048,483396605,"""world""",,,3.3651599884033203,13.20544147491455,-0.021264594048261642
1690462048483470031,,5520,,1690462048,483408101,"""world""",,,3.365125894546509,13.205506324768066,-0.021161820739507675
1690462048493437069,,5521,,1690462048,493385797,"""world""",,,3.3651561737060547,13.205449104309082,-0.02127276360988617
1690462048513477354,,5522,,1690462048,513404073,"""world""",,,3.365142583847046,13.2055025100708,-0.02115815319120884
1690462048513480398,,5523,,1690462048,513416798,"""world""",,,3.365169048309326,13.205445289611816,-0.021262165158987045
1690462048523465709,,5524,,1690462048,523399992,"""world""",,,3.3651835918426514,13.205464363098145,-0.02128530479967594
1690462048533429503,,5525,,1690462048,533383572,"""world""",,,3.365172863006592,13.205452919006348,-0.021273916587233543
1690462048553467446,,5526,,1690462048,553402018,"""world""",,,3.365140438079834,13.205520629882812,-0.021166769787669182
1690462048553476796,,5527,,1690462048,553414221,"""world""",,,3.365206718444824,13.20545768737793,-0.021299045532941818
1690462048563485629,,5528,,1690462048,563429086,"""world""",,,3.3651299476623535,13.205492973327637,-0.021173734217882156
1690462048573533111,,5529,,1690462048,573427347,"""world""",,,3.365147113800049,13.205520629882812,-0.021153150126338005
1690462048583521786,,5530,,1690462048,583431748,"""world""",,,3.36517071723938,13.2054443359375,-0.021266892552375793
1690462048603459134,,5531,,1690462048,603394785,"""world""",,,3.3651418685913086,13.20549201965332,-0.02116147242486477
1690462048603466199,,5532,,1690462048,603407823,"""world""",,,3.365171194076538,13.205451011657715,-0.021257508546113968
1690462048623467904,,5533,,1690462048,623397956,"""world""",,,3.365175247192383,13.205437660217285,-0.021264290437102318
1690462048633462999,,5534,,1690462048,633407300,"""world""",,,3.3651721477508545,13.205430030822754,-0.021266259253025055
1690462048633471530,,5535,,1690462048,633414361,"""world""",,,3.3651671409606934,13.20543384552002,-0.021277835592627525
1690462048653470316,,5536,,1690462048,653407474,"""world""",,,3.365176200866699,13.205461502075195,-0.021269209682941437
1690462048653477837,,5537,,1690462048,653419623,"""world""",,,3.36519718170166,13.205466270446777,-0.02130645327270031
1690462048673472234,,5538,,1690462048,673397644,"""world""",,,3.3651814460754395,13.205448150634766,-0.021263057366013527
1690462048673480490,,5539,,1690462048,673408601,"""world""",,,3.3651466369628906,13.205496788024902,-0.021176842972636223
1690462048683472357,,5540,,1690462048,683404389,"""world""",,,3.365161418914795,13.205438613891602,-0.021256864070892334
1690462048703454883,,5541,,1690462048,703396310,"""world""",,,3.3651487827301025,13.20549488067627,-0.021182430908083916
1690462048703463344,,5542,,1690462048,703408474,"""world""",,,3.365173578262329,13.205499649047852,-0.02120630256831646
1690462048713480827,,5543,,1690462048,713409785,"""world""",,,3.3651466369628906,13.205497741699219,-0.02116372063755989
1690462048733447972,,5544,,1690462048,733386287,"""world""",,,3.365157127380371,13.2054443359375,-0.021246571093797684
1690462048733452086,,5545,,1690462048,733396555,"""world""",,,3.365144729614258,13.205507278442383,-0.02118176408112049
1690462048743495905,,5546,,1690462048,743398188,"""world""",,,3.365164279937744,13.20549201965332,-0.021168645471334457
1690462048763466840,,5547,,1690462048,763397028,"""world""",,,3.3651578426361084,13.205439567565918,-0.021256502717733383
1690462048763471438,,5548,,1690462048,763409737,"""world""",,,3.3651416301727295,13.205511093139648,-0.02114136889576912
1690462048783470766,,5549,,1690462048,783397692,"""world""",,,3.3651444911956787,13.205483436584473,-0.021172942593693733
1690462048793435825,,5550,,1690462048,793386865,"""world""",,,3.3651697635650635,13.20544719696045,-0.021260295063257217
1690462048803430841,,5551,,1690462048,803382043,"""world""",,,3.3651371002197266,13.205507278442383,-0.021162251010537148
1690462048803437474,,5552,,1690462048,803390035,"""world""",,,3.3651275634765625,13.205487251281738,-0.021156346425414085
1690462048823463184,,5553,,1690462048,823396257,"""world""",,,3.365151882171631,13.205510139465332,-0.02116164192557335
1690462048823466828,,5554,,1690462048,823408000,"""world""",,,3.3651676177978516,13.205439567565918,-0.021257752552628517
1690462048843463227,,5555,,1690462048,843395198,"""world""",,,3.3651487827301025,13.20543384552002,-0.021261747926473618
1690462048853486046,,5556,,1690462048,853411929,"""world""",,,3.365166425704956,13.205445289611816,-0.021259620785713196
1690462048853489336,,5557,,1690462048,853426277,"""world""",,,3.365177631378174,13.20551586151123,-0.021202752366662025
1690462048873423712,,5558,,1690462048,873352152,"""world""",,,3.3651468753814697,13.205517768859863,-0.02114647813141346
1690462048873430053,,5559,,1690462048,873363135,"""world""",,,3.3651533126831055,13.205487251281738,-0.02116859331727028
1690462048883482543,,5560,,1690462048,883404900,"""world""",,,3.3651673793792725,13.205431938171387,-0.02125929668545723
1690462048903454810,,5561,,1690462048,903390935,"""world""",,,3.365140676498413,13.205510139465332,-0.021182438358664513
1690462048903462923,,5562,,1690462048,903400739,"""world""",,,3.365144968032837,13.205509185791016,-0.02118583582341671
1690462048913500300,,5563,,1690462048,913413906,"""world""",,,3.3651716709136963,13.205429077148438,-0.021260108798742294
1690462048923460360,,5564,,1690462048,923400584,"""world""",,,3.3651723861694336,13.205438613891602,-0.021259240806102753
1690462048933505040,,5565,,1690462048,933412305,"""world""",,,3.365133047103882,13.205509185791016,-0.021164795383810997
1690462048953466430,,5566,,1690462048,953401130,"""world""",,,3.365143060684204,13.205503463745117,-0.021176259964704514
1690462048963462809,,5567,,1690462048,963398628,"""world""",,,3.3651609420776367,13.205501556396484,-0.021173568442463875
1690462048963469804,,5568,,1690462048,963410493,"""world""",,,3.3651621341705322,13.205449104309082,-0.02125791274011135
1690462048983506321,,5569,,1690462048,983430046,"""world""",,,3.3651750087738037,13.205451011657715,-0.021271536126732826
1690462048983509828,,5570,,1690462048,983442979,"""world""",,,3.3651585578918457,13.205486297607422,-0.02119588479399681
1690462048993480981,,5571,,1690462048,993418649,"""world""",,,3.365149974822998,13.205491065979004,-0.021171241998672485
1690462049003502714,,5572,,1690462049,3412859,"""world""",,,3.365126609802246,13.2055082321167,-0.02115938626229763
1690462049023501645,,5573,,1690462049,23434942,"""world""",,,3.3651325702667236,13.205509185791016,-0.021168358623981476
1690462049023508018,,5574,,1690462049,23447164,"""world""",,,3.3651914596557617,13.205451965332031,-0.02127620205283165
1690462049043485071,,5575,,1690462049,43425200,"""world""",,,3.3651320934295654,13.205501556396484,-0.021170631051063538
1690462049053495247,,5576,,1690462049,53426488,"""world""",,,3.365157127380371,13.205450057983398,-0.021270830184221268
1690462049053499125,,5577,,1690462049,53439196,"""world""",,,3.365187644958496,13.20546817779541,-0.02125384472310543
1690462049073514611,,5578,,1690462049,73431936,"""world""",,,3.365156412124634,13.20543098449707,-0.02127452939748764
1690462049073517842,,5579,,1690462049,73446909,"""world""",,,3.3651559352874756,13.205440521240234,-0.02126447856426239
1690462049083500755,,5580,,1690462049,83435918,"""world""",,,3.365166664123535,13.20544719696045,-0.02126697450876236
1690462049103484405,,5581,,1690462049,103420887,"""world""",,,3.3652050495147705,13.205458641052246,-0.02131107822060585
1690462049113484263,,5582,,1690462049,113405627,"""world""",,,3.365183115005493,13.205443382263184,-0.021282047033309937
1690462049113492886,,5583,,1690462049,113418515,"""world""",,,3.3651413917541504,13.20549201965332,-0.02116321213543415
1690462049123455336,,5584,,1690462049,123398062,"""world""",,,3.3651740550994873,13.205446243286133,-0.02125130593776703
1690462049143494017,,5585,,1690462049,143426155,"""world""",,,3.3651773929595947,13.205443382263184,-0.021277403458952904
1690462049153497928,,5586,,1690462049,153419887,"""world""",,,3.3651390075683594,13.205500602722168,-0.021179290488362312
1690462049153501385,,5587,,1690462049,153435868,"""world""",,,3.365159749984741,13.205445289611816,-0.021268779411911964
1690462049173483163,,5588,,1690462049,173400083,"""world""",,,3.365171194076538,13.205427169799805,-0.021267946809530258
1690462049183487726,,5589,,1690462049,183403443,"""world""",,,3.3652002811431885,13.205483436584473,-0.021149540320038795
1690462049183496665,,5590,,1690462049,183416266,"""world""",,,3.365140914916992,13.205496788024902,-0.021176960319280624
1690462049203446468,,5591,,1690462049,203388626,"""world""",,,3.3651673793792725,13.205469131469727,-0.0212582815438509
1690462049213500147,,5592,,1690462049,213413305,"""world""",,,3.3651721477508545,13.205452919006348,-0.021265974268317223
1690462049223456190,,5593,,1690462049,223395939,"""world""",,,3.3651397228240967,13.20551872253418,-0.02114957384765148
1690462049223464122,,5594,,1690462049,223407367,"""world""",,,3.365140914916992,13.20551586151123,-0.021174604073166847
1690462049233437097,,5595,,1690462049,233380899,"""world""",,,3.365147352218628,13.205507278442383,-0.021163679659366608
1690462049253497719,,5596,,1690462049,253436546,"""world""",,,3.365150213241577,13.205488204956055,-0.02117825485765934
1690462049263467763,,5597,,1690462049,263398439,"""world""",,,3.3651461601257324,13.205513000488281,-0.021159328520298004
1690462049263471085,,5598,,1690462049,263411045,"""world""",,,3.3651716709136963,13.205456733703613,-0.021268431097269058
1690462049273482811,,5599,,1690462049,273404958,"""world""",,,3.365156412124634,13.205455780029297,-0.021259935572743416
1690462049283513189,,5600,,1690462049,283428280,"""world""",,,3.365194082260132,13.205443382263184,-0.021268395707011223
1690462049293506207,,5601,,1690462049,293421700,"""world""",,,3.3651585578918457,13.205464363098145,-0.021259605884552002
1690462049313549551,,5602,,1690462049,313447419,"""world""",,,3.365164279937744,13.205450057983398,-0.021265387535095215
1690462049323462122,,5603,,1690462049,323397163,"""world""",,,3.3652029037475586,13.205442428588867,-0.021221257746219635
1690462049323469230,,5604,,1690462049,323409224,"""world""",,,3.365172863006592,13.205440521240234,-0.021261239424347878
1690462049333443741,,5605,,1690462049,333383256,"""world""",,,3.365133047103882,13.205503463745117,-0.02117083966732025
1690462049343452166,,5606,,1690462049,343392691,"""world""",,,3.365177869796753,13.20544147491455,-0.02127148024737835
1690462049363452547,,5607,,1690462049,363396787,"""world""",,,3.3651652336120605,13.205442428588867,-0.021274570375680923
1690462049373472146,,5608,,1690462049,373393901,"""world""",,,3.3651552200317383,13.205524444580078,-0.021153366193175316
1690462049373475713,,5609,,1690462049,373404339,"""world""",,,3.365165948867798,13.20545482635498,-0.021248670294880867
1690462049393477782,,5610,,1690462049,393423594,"""world""",,,3.365194320678711,13.205448150634766,-0.021279459819197655
1690462049403437815,,5611,,1690462049,403382665,"""world""",,,3.3651657104492188,13.205458641052246,-0.021259596571326256
1690462049403441331,,5612,,1690462049,403390041,"""world""",,,3.3651740550994873,13.205455780029297,-0.021266266703605652
1690462049423496703,,5613,,1690462049,423425820,"""world""",,,3.3651576042175293,13.20544147491455,-0.021265216171741486
1690462049423502830,,5614,,1690462049,423438005,"""world""",,,3.3651700019836426,13.205451965332031,-0.021265020594000816
1690462049443544458,,5615,,1690462049,443431152,"""world""",,,3.365199327468872,13.205460548400879,-0.021297363564372063
1690462049453497447,,5616,,1690462049,453433519,"""world""",,,3.365164041519165,13.2054443359375,-0.021269166842103004
1690462049463496184,,5617,,1690462049,463435861,"""world""",,,3.365178346633911,13.20545768737793,-0.021272113546729088
1690462049463501562,,5618,,1690462049,463448418,"""world""",,,3.3651764392852783,13.205464363098145,-0.021276913583278656
1690462049483498735,,5619,,1690462049,483431238,"""world""",,,3.365149736404419,13.205503463745117,-0.021168965846300125
1690462049493474164,,5620,,1690462049,493425718,"""world""",,,3.3651716709136963,13.205445289611816,-0.02126482129096985
1690462049503433397,,5621,,1690462049,503382778,"""world""",,,3.3651697635650635,13.205452919006348,-0.021263165399432182
1690462049503436745,,5622,,1690462049,503391003,"""world""",,,3.365180492401123,13.205471992492676,-0.021251453086733818
1690462049513494880,,5623,,1690462049,513432929,"""world""",,,3.365178346633911,13.205453872680664,-0.021263718605041504
1690462049533456199,,5624,,1690462049,533391528,"""world""",,,3.3651645183563232,13.205438613891602,-0.02128245308995247
1690462049533465930,,5625,,1690462049,533402256,"""world""",,,3.3651509284973145,13.205487251281738,-0.02124040760099888
1690462049543449890,,5626,,1690462049,543394351,"""world""",,,3.365192413330078,13.205491065979004,-0.021184759214520454
1690462049563463363,,5627,,1690462049,563399737,"""world""",,,3.365169048309326,13.205463409423828,-0.021185925230383873
1690462049563470415,,5628,,1690462049,563413074,"""world""",,,3.365161895751953,13.205469131469727,-0.021256469190120697
1690462049573469870,,5629,,1690462049,573395284,"""world""",,,3.36517333984375,13.205462455749512,-0.021277040243148804
1690462049593488543,,5630,,1690462049,593423284,"""world""",,,3.365142822265625,13.205540657043457,-0.02113405615091324
1690462049593496889,,5631,,1690462049,593435097,"""world""",,,3.3651771545410156,13.205509185791016,-0.021256500855088234
1690462049613489575,,5632,,1690462049,613408459,"""world""",,,3.3651390075683594,13.205487251281738,-0.02117595635354519
1690462049623501533,,5633,,1690462049,623428308,"""world""",,,3.365196466445923,13.205480575561523,-0.021266156807541847
1690462049623510523,,5634,,1690462049,623440550,"""world""",,,3.3652334213256836,13.205541610717773,-0.021247275173664093
1690462049633432299,,5635,,1690462049,633383862,"""world""",,,3.36519193649292,13.20556926727295,-0.02118006907403469
1690462049653517447,,5636,,1690462049,653427572,"""world""",,,3.365220546722412,13.205476760864258,-0.02118689753115177
1690462049653527247,,5637,,1690462049,653444032,"""world""",,,3.365152597427368,13.205489158630371,-0.021224984899163246
1690462049663455978,,5638,,1690462049,663397190,"""world""",,,3.3652021884918213,13.205485343933105,-0.0211917944252491
1690462049683505922,,5639,,1690462049,683432330,"""world""",,,3.365159034729004,13.205480575561523,-0.02124897390604019
1690462049683509441,,5640,,1690462049,683445851,"""world""",,,3.3652007579803467,13.205464363098145,-0.02117321453988552
1690462049693438282,,5641,,1690462049,693388205,"""world""",,,3.365168333053589,13.205486297607422,-0.02122766710817814
1690462049713507001,,5642,,1690462049,713418263,"""world""",,,3.3651864528656006,13.205495834350586,-0.02123556099832058
1690462049713516280,,5643,,1690462049,713435296,"""world""",,,3.365220546722412,13.205524444580078,-0.021190384402871132
1690462049723458925,,5644,,1690462049,723399038,"""world""",,,3.365159749984741,13.205560684204102,-0.021227965131402016
1690462049743453922,,5645,,1690462049,743396481,"""world""",,,3.3651609420776367,13.205523490905762,-0.021265048533678055
1690462049743462629,,5646,,1690462049,743407848,"""world""",,,3.3651819229125977,13.205545425415039,-0.021287795156240463
1690462049763492185,,5647,,1690462049,763398836,"""world""",,,3.3651533126831055,13.205575942993164,-0.021259909495711327
1690462049773489262,,5648,,1690462049,773395444,"""world""",,,3.3651034832000732,13.205570220947266,-0.021241620182991028
1690462049783499446,,5649,,1690462049,783422598,"""world""",,,3.3651363849639893,13.205611228942871,-0.021221091970801353
1690462049783502506,,5650,,1690462049,783438761,"""world""",,,3.3651061058044434,13.205611228942871,-0.02126234583556652
1690462049803477722,,5651,,1690462049,803417433,"""world""",,,3.3650400638580322,13.20565414428711,-0.021226774901151657
1690462049803482198,,5652,,1690462049,803426824,"""world""",,,3.3649754524230957,13.205729484558105,-0.021256832405924797
1690462049813518769,,5653,,1690462049,813430472,"""world""",,,3.3649332523345947,13.205838203430176,-0.02117379568517208
1690462049833476902,,5654,,1690462049,833416391,"""world""",,,3.3648698329925537,13.205885887145996,-0.02126672863960266
1690462049833483223,,5655,,1690462049,833427360,"""world""",,,3.3647632598876953,13.20599365234375,-0.021172361448407173
1690462049843480804,,5656,,1690462049,843425328,"""world""",,,3.3646674156188965,13.206095695495605,-0.021158544346690178
1690462049863491813,,5657,,1690462049,863427014,"""world""",,,3.3646035194396973,13.206155776977539,-0.021109219640493393
1690462049863498814,,5658,,1690462049,863440061,"""world""",,,3.364562749862671,13.206189155578613,-0.021154873073101044
1690462049873528613,,5659,,1690462049,873423986,"""world""",,,3.3645401000976562,13.206212997436523,-0.021147573366761208
1690462049893479263,,5660,,1690462049,893420766,"""world""",,,3.364529609680176,13.206174850463867,-0.021161742508411407
1690462049893485800,,5661,,1690462049,893432082,"""world""",,,3.3644635677337646,13.206113815307617,-0.021167736500501633
1690462049903457246,,5662,,1690462049,903411708,"""world""",,,3.364511013031006,13.20607852935791,-0.02113301493227482
1690462049923496931,,5663,,1690462049,923430982,"""world""",,,3.364495277404785,13.205982208251953,-0.02117694914340973
1690462049923503012,,5664,,1690462049,923443546,"""world""",,,3.364487648010254,13.205967903137207,-0.021138237789273262
1690462049943513796,,5665,,1690462049,943454851,"""world""",,,3.364605665206909,13.205875396728516,-0.021144883707165718
1690462049943521319,,5666,,1690462049,943466389,"""world""",,,3.3646397590637207,13.205840110778809,-0.021175989881157875
1690462049953509927,,5667,,1690462049,953435441,"""world""",,,3.364788055419922,13.205755233764648,-0.021177712827920914
1690462049963512884,,5668,,1690462049,963457917,"""world""",,,3.364920139312744,13.205721855163574,-0.02111012302339077
1690462049983491880,,5669,,1690462049,983416535,"""world""",,,3.365060329437256,13.205687522888184,-0.021113479509949684
1690462049983500220,,5670,,1690462049,983446644,"""world""",,,3.3651461601257324,13.205680847167969,-0.02112189121544361
1690462049993443691,,5671,,1690462049,993391727,"""world""",,,3.3653271198272705,13.205660820007324,-0.021106841042637825
1690462050013512120,,5672,,1690462050,13424928,"""world""",,,3.3655285835266113,13.205686569213867,-0.02104763127863407
1690462050013520710,,5673,,1690462050,13453372,"""world""",,,3.3657033443450928,13.205638885498047,-0.02100483328104019
1690462050023456591,,5674,,1690462050,23397972,"""world""",,,3.3659510612487793,13.205551147460938,-0.02086085081100464
1690462050043502203,,5675,,1690462050,43426945,"""world""",,,3.3661673069000244,13.205503463745117,-0.020752273499965668
1690462050043509258,,5676,,1690462050,43439445,"""world""",,,3.3663904666900635,13.205431938171387,-0.020475663244724274
1690462050063459838,,5677,,1690462050,63399091,"""world""",,,3.366732358932495,13.205341339111328,-0.020159296691417694
1690462050073457627,,5678,,1690462050,73393406,"""world""",,,3.3670740127563477,13.205239295959473,-0.01974434219300747
1690462050073461899,,5679,,1690462050,73403560,"""world""",,,3.367447853088379,13.205103874206543,-0.019232530146837234
1690462050083493046,,5680,,1690462050,83407595,"""world""",,,3.367953062057495,13.205107688903809,-0.018636414781212807
1690462050103443410,,5681,,1690462050,103387929,"""world""",,,3.368283271789551,13.205068588256836,-0.017756719142198563
1690462050103451628,,5682,,1690462050,103397903,"""world""",,,3.3686089515686035,13.20497989654541,-0.016824301332235336
1690462050113504162,,5683,,1690462050,113410186,"""world""",,,3.369044780731201,13.204909324645996,-0.0158058013767004
1690462050133482055,,5684,,1690462050,133421334,"""world""",,,3.369555711746216,13.204825401306152,-0.014662143774330616
1690462050143491572,,5685,,1690462050,143431390,"""world""",,,3.3698763847351074,13.204695701599121,-0.013346320018172264
1690462050153499772,,5686,,1690462050,153441397,"""world""",,,3.3703126907348633,13.204575538635254,-0.011903014034032822
1690462050163491908,,5687,,1690462050,163427870,"""world""",,,3.370776891708374,13.20451831817627,-0.010139713063836098
1690462050163498185,,5688,,1690462050,163441433,"""world""",,,3.3715107440948486,13.20451831817627,-0.008512509055435658
1690462050183482088,,5689,,1690462050,183407254,"""world""",,,3.371760129928589,13.204108238220215,-0.006425636354833841
1690462050193471150,,5690,,1690462050,193417108,"""world""",,,3.37253737449646,13.204095840454102,-0.004170688800513744
1690462050193477374,,5691,,1690462050,193425190,"""world""",,,3.3728959560394287,13.203778266906738,-0.0015810395125299692
1690462050213512077,,5692,,1690462050,213426157,"""world""",,,3.3732588291168213,13.203350067138672,0.0014389704447239637
1690462050223471374,,5693,,1690462050,223402095,"""world""",,,3.3739049434661865,13.203051567077637,0.004567827098071575
1690462050223479145,,5694,,1690462050,223427105,"""world""",,,3.374396324157715,13.20265007019043,0.008156295865774155
1690462050233431557,,5695,,1690462050,233382146,"""world""",,,3.3749332427978516,13.202357292175293,0.01206668745726347
1690462050253480882,,5696,,1690462050,253402147,"""world""",,,3.3755311965942383,13.201902389526367,0.016175011172890663
1690462050253488996,,5697,,1690462050,253414186,"""world""",,,3.3761909008026123,13.201409339904785,0.020575392991304398
1690462050263481909,,5698,,1690462050,263416022,"""world""",,,3.376802921295166,13.201066017150879,0.025364262983202934
1690462050283469454,,5699,,1690462050,283400548,"""world""",,,3.3774502277374268,13.200600624084473,0.03022678941488266
1690462050283478833,,5700,,1690462050,283414064,"""world""",,,3.3781216144561768,13.200050354003906,0.03558814153075218
1690462050293450726,,5701,,1690462050,293396771,"""world""",,,3.3788156509399414,13.199691772460938,0.04107826203107834
1690462050313510315,,5702,,1690462050,313421306,"""world""",,,3.379443883895874,13.199068069458008,0.04699821397662163
1690462050323475093,,5703,,1690462050,323397042,"""world""",,,3.3802249431610107,13.19846248626709,0.052935048937797546
1690462050323483768,,5704,,1690462050,323409030,"""world""",,,3.380880117416382,13.197891235351562,0.05918506905436516
1690462050343452482,,5705,,1690462050,343393386,"""world""",,,3.3815226554870605,13.197359085083008,0.06561257690191269
1690462050343459285,,5706,,1690462050,343403815,"""world""",,,3.3820908069610596,13.196771621704102,0.07225897908210754
1690462050363456657,,5707,,1690462050,363399623,"""world""",,,3.3827133178710938,13.196263313293457,0.07904733717441559
1690462050373467085,,5708,,1690462050,373393367,"""world""",,,3.383317470550537,13.195716857910156,0.08603488653898239
1690462050373474411,,5709,,1690462050,373403134,"""world""",,,3.383885383605957,13.1952486038208,0.09296876192092896
1690462050383489725,,5710,,1690462050,383412489,"""world""",,,3.3845062255859375,13.194535255432129,0.1003730520606041
1690462050403444467,,5711,,1690462050,403390565,"""world""",,,3.3850560188293457,13.194079399108887,0.10797205567359924
1690462050403450296,,5712,,1690462050,403398716,"""world""",,,3.385493755340576,13.193718910217285,0.1154838502407074
1690462050423469737,,5713,,1690462050,423405747,"""world""",,,3.3860273361206055,13.19325065612793,0.12318746745586395
1690462050433452776,,5714,,1690462050,433390612,"""world""",,,3.3865606784820557,13.192667007446289,0.13093236088752747
1690462050433461070,,5715,,1690462050,433399292,"""world""",,,3.387176990509033,13.192093849182129,0.13866443932056427
1690462050443465307,,5716,,1690462050,443402770,"""world""",,,3.3875045776367188,13.191763877868652,0.14700178802013397
1690462050453465260,,5717,,1690462050,453400367,"""world""",,,3.3879826068878174,13.191320419311523,0.15509387850761414
1690462050473472342,,5718,,1690462050,473403453,"""world""",,,3.3884830474853516,13.190781593322754,0.1632591187953949
1690462050483493429,,5719,,1690462050,483397922,"""world""",,,3.3889522552490234,13.190457344055176,0.17167626321315765
1690462050483500190,,5720,,1690462050,483410058,"""world""",,,3.389296531677246,13.190093994140625,0.18019121885299683
1690462050503435822,,5721,,1690462050,503383783,"""world""",,,3.3896377086639404,13.189663887023926,0.18872198462486267
1690462050503439767,,5722,,1690462050,503393228,"""world""",,,3.390070915222168,13.189316749572754,0.19747136533260345
1690462050513501862,,5723,,1690462050,513419454,"""world""",,,3.390383720397949,13.188874244689941,0.20604011416435242
1690462050533480705,,5724,,1690462050,533387480,"""world""",,,3.390712261199951,13.18855094909668,0.2149500697851181
1690462050533484744,,5725,,1690462050,533398060,"""world""",,,3.3910646438598633,13.188241958618164,0.2238032966852188
1690462050543438814,,5726,,1690462050,543389964,"""world""",,,3.391347646713257,13.187877655029297,0.23273800313472748
1690462050563466835,,5727,,1690462050,563400945,"""world""",,,3.3916404247283936,13.187592506408691,0.24182936549186707
1690462050563475822,,5728,,1690462050,563412089,"""world""",,,3.3918533325195312,13.187370300292969,0.25093284249305725
1690462050573451318,,5729,,1690462050,573390779,"""world""",,,3.392155647277832,13.187199592590332,0.26003777980804443
1690462050593551314,,5730,,1690462050,593421901,"""world""",,,3.3923492431640625,13.18677043914795,0.2693498432636261
1690462050593557918,,5731,,1690462050,593433563,"""world""",,,3.392676830291748,13.186606407165527,0.2786644697189331
1690462050603488099,,5732,,1690462050,603410220,"""world""",,,3.3928282260894775,13.186450958251953,0.2878871560096741
1690462050623563863,,5733,,1690462050,623430376,"""world""",,,3.393123149871826,13.186302185058594,0.29742562770843506
1690462050623575336,,5734,,1690462050,623442233,"""world""",,,3.3932182788848877,13.186012268066406,0.3068639039993286
1690462050643520855,,5735,,1690462050,643397122,"""world""",,,3.3934412002563477,13.186018943786621,0.3163686692714691
1690462050653501309,,5736,,1690462050,653418318,"""world""",,,3.3936259746551514,13.18571662902832,0.3259723484516144
1690462050653508627,,5737,,1690462050,653430359,"""world""",,,3.393698215484619,13.185567855834961,0.33557695150375366
1690462050663490093,,5738,,1690462050,663399317,"""world""",,,3.393740177154541,13.18548583984375,0.34518685936927795
1690462050683514841,,5739,,1690462050,683398766,"""world""",,,3.3938968181610107,13.185287475585938,0.35485586524009705
1690462050683522895,,5740,,1690462050,683410850,"""world""",,,3.3938894271850586,13.185236930847168,0.3645029366016388
1690462050703508383,,5741,,1690462050,703383340,"""world""",,,3.393994092941284,13.185001373291016,0.37415042519569397
1690462050713448389,,5742,,1690462050,713397082,"""world""",,,3.394144296646118,13.18496036529541,0.3839094340801239
1690462050723506675,,5743,,1690462050,723398269,"""world""",,,3.394130229949951,13.184785842895508,0.3934088945388794
1690462050723513337,,5744,,1690462050,723409646,"""world""",,,3.394242525100708,13.184684753417969,0.4031955301761627
1690462050743450115,,5745,,1690462050,743391414,"""world""",,,3.3942720890045166,13.184587478637695,0.41287466883659363
1690462050753458662,,5746,,1690462050,753395999,"""world""",,,3.394212484359741,13.184540748596191,0.42263105511665344
1690462050763466395,,5747,,1690462050,763395553,"""world""",,,3.394279718399048,13.184432983398438,0.43226301670074463
1690462050763476184,,5748,,1690462050,763406841,"""world""",,,3.3941924571990967,13.18436336517334,0.44199058413505554
1690462050773487320,,5749,,1690462050,773391835,"""world""",,,3.3942580223083496,13.184377670288086,0.45157867670059204
1690462050793483376,,5750,,1690462050,793390797,"""world""",,,3.394305944442749,13.184378623962402,0.46115031838417053
1690462050803459665,,5751,,1690462050,803379397,"""world""",,,3.3942363262176514,13.184359550476074,0.4708550274372101
1690462050803466701,,5752,,1690462050,803386108,"""world""",,,3.394174337387085,13.184355735778809,0.48028722405433655
1690462050813478175,,5753,,1690462050,813406099,"""world""",,,3.394240379333496,13.184370994567871,0.4898369312286377
1690462050823492766,,5754,,1690462050,823399160,"""world""",,,3.3940165042877197,13.18442153930664,0.49942177534103394
1690462050843546931,,5755,,1690462050,843423502,"""world""",,,3.3939671516418457,13.184419631958008,0.5088568925857544
1690462050853533027,,5756,,1690462050,853427928,"""world""",,,3.393960952758789,13.1845121383667,0.5183416604995728
1690462050863534849,,5757,,1690462050,863399641,"""world""",,,3.39389967918396,13.18453311920166,0.5276012420654297
1690462050873497633,,5758,,1690462050,873396103,"""world""",,,3.393836259841919,13.18460464477539,0.5369864106178284
1690462050873502467,,5759,,1690462050,873407052,"""world""",,,3.39375376701355,13.184699058532715,0.5461817383766174
1690462050883491182,,5760,,1690462050,883399561,"""world""",,,3.39361310005188,13.184739112854004,0.5555261969566345
1690462050903520727,,5761,,1690462050,903399059,"""world""",,,3.3935201168060303,13.184791564941406,0.5646308064460754
1690462050903528445,,5762,,1690462050,903408544,"""world""",,,3.3934597969055176,13.184962272644043,0.5737348198890686
1690462050923494751,,5763,,1690462050,923434552,"""world""",,,3.3933322429656982,13.185001373291016,0.5827584862709045
1690462050933450009,,5764,,1690462050,933385952,"""world""",,,3.393270492553711,13.185152053833008,0.591744601726532
1690462050933456889,,5765,,1690462050,933395421,"""world""",,,3.3931429386138916,13.185220718383789,0.6006410121917725
1690462050943438256,,5766,,1690462050,943391678,"""world""",,,3.3930203914642334,13.185401916503906,0.6094051599502563
1690462050953456696,,5767,,1690462050,953397532,"""world""",,,3.392918586730957,13.185580253601074,0.6182753443717957
1690462050973467921,,5768,,1690462050,973399106,"""world""",,,3.392902135848999,13.185761451721191,0.6268894076347351
1690462050983483048,,5769,,1690462050,983405430,"""world""",,,3.392751693725586,13.185973167419434,0.6355352401733398
1690462050983493647,,5770,,1690462050,983419301,"""world""",,,3.3927242755889893,13.186166763305664,0.6439992785453796
1690462051003474405,,5771,,1690462051,3387091,"""world""",,,3.3925671577453613,13.186399459838867,0.6525309681892395
1690462051003481412,,5772,,1690462051,3396993,"""world""",,,3.3925628662109375,13.18657112121582,0.660732626914978
1690462051013482107,,5773,,1690462051,13412973,"""world""",,,3.3924248218536377,13.186854362487793,0.669100821018219
1690462051033495138,,5774,,1690462051,33433742,"""world""",,,3.392414093017578,13.1870698928833,0.6772294044494629
1690462051033504395,,5775,,1690462051,33458078,"""world""",,,3.392331838607788,13.187212944030762,0.6854191422462463
1690462051043462065,,5776,,1690462051,43401974,"""world""",,,3.3920626640319824,13.187460899353027,0.6933043599128723
1690462051063471982,,5777,,1690462051,63401760,"""world""",,,3.392011880874634,13.187688827514648,0.7012336254119873
1690462051063480749,,5778,,1690462051,63414136,"""world""",,,3.391932487487793,13.187941551208496,0.7090854644775391
1690462051083495934,,5779,,1690462051,83417818,"""world""",,,3.391752004623413,13.188267707824707,0.7165579795837402
1690462051093460093,,5780,,1690462051,93395247,"""world""",,,3.391716718673706,13.188474655151367,0.7241610288619995
1690462051093467994,,5781,,1690462051,93407058,"""world""",,,3.3916475772857666,13.188681602478027,0.7317152619361877
1690462051103437454,,5782,,1690462051,103386295,"""world""",,,3.391493320465088,13.188989639282227,0.739080548286438
1690462051123462938,,5783,,1690462051,123399176,"""world""",,,3.391334056854248,13.189286231994629,0.7463194131851196
1690462051123473086,,5784,,1690462051,123411861,"""world""",,,3.3913075923919678,13.189582824707031,0.7535057067871094
1690462051133431292,,5785,,1690462051,133382546,"""world""",,,3.391298294067383,13.189809799194336,0.7604287266731262
1690462051153475158,,5786,,1690462051,153407834,"""world""",,,3.3911805152893066,13.190206527709961,0.7673248648643494
1690462051153482264,,5787,,1690462051,153419552,"""world""",,,3.390990734100342,13.190485000610352,0.7741271257400513
1690462051173471159,,5788,,1690462051,173401781,"""world""",,,3.390939474105835,13.19079875946045,0.7808879017829895
1690462051183490910,,5789,,1690462051,183411460,"""world""",,,3.3909082412719727,13.191197395324707,0.7873263359069824
1690462051193441874,,5790,,1690462051,193391748,"""world""",,,3.390859365463257,13.19140911102295,0.7938390970230103
1690462051203421519,,5791,,1690462051,203379524,"""world""",,,3.3908939361572266,13.19171142578125,0.8002371191978455
1690462051213465499,,5792,,1690462051,213406307,"""world""",,,3.3908209800720215,13.19206714630127,0.8063947558403015
1690462051223473898,,5793,,1690462051,223408811,"""world""",,,3.3907244205474854,13.19235897064209,0.8125989437103271
1690462051223478464,,5794,,1690462051,223421378,"""world""",,,3.390718936920166,13.192632675170898,0.8186702728271484
1690462051233429429,,5795,,1690462051,233382493,"""world""",,,3.390584707260132,13.19293212890625,0.8246234655380249
1690462051253465177,,5796,,1690462051,253400380,"""world""",,,3.3905842304229736,13.19332218170166,0.8303465247154236
1690462051253471706,,5797,,1690462051,253413276,"""world""",,,3.3905205726623535,13.193568229675293,0.8361374139785767
1690462051263455785,,5798,,1690462051,263399435,"""world""",,,3.390493392944336,13.193915367126465,0.8416652679443359
1690462051273470972,,5799,,1690462051,273405283,"""world""",,,3.3904807567596436,13.194173812866211,0.8472777605056763
1690462051293457316,,5800,,1690462051,293397002,"""world""",,,3.3904731273651123,13.194491386413574,0.8526654243469238
1690462051293465266,,5801,,1690462051,293407893,"""world""",,,3.390467882156372,13.194847106933594,0.8578771948814392
1690462051303425618,,5802,,1690462051,303382624,"""world""",,,3.3903772830963135,13.195094108581543,0.8631683588027954
1690462051323466902,,5803,,1690462051,323399843,"""world""",,,3.390345811843872,13.195456504821777,0.8682053089141846
1690462051323474873,,5804,,1690462051,323413135,"""world""",,,3.390277862548828,13.19583797454834,0.8731593489646912
1690462051343452837,,5805,,1690462051,343397199,"""world""",,,3.3902640342712402,13.196087837219238,0.8780660629272461
1690462051353468551,,5806,,1690462051,353402606,"""world""",,,3.3902971744537354,13.196333885192871,0.8828422427177429
1690462051353471783,,5807,,1690462051,353415180,"""world""",,,3.3903844356536865,13.196625709533691,0.8874399662017822
1690462051373474880,,5808,,1690462051,373402994,"""world""",,,3.3904078006744385,13.196943283081055,0.8918863534927368
1690462051373482673,,5809,,1690462051,373414437,"""world""",,,3.3903584480285645,13.197260856628418,0.8963255286216736
1690462051393462647,,5810,,1690462051,393397921,"""world""",,,3.3903236389160156,13.197540283203125,0.9006707072257996
1690462051393472527,,5811,,1690462051,393408977,"""world""",,,3.3903894424438477,13.19776439666748,0.9048881530761719
1690462051413476876,,5812,,1690462051,413405995,"""world""",,,3.390434503555298,13.19797134399414,0.9091217517852783
1690462051413483277,,5813,,1690462051,413418407,"""world""",,,3.3903822898864746,13.198320388793945,0.9130643606185913
1690462051423467654,,5814,,1690462051,423405802,"""world""",,,3.390404462814331,13.198589324951172,0.9170145988464355
1690462051443502596,,5815,,1690462051,443434136,"""world""",,,3.390425443649292,13.198844909667969,0.9208242893218994
1690462051443510728,,5816,,1690462051,443446395,"""world""",,,3.3904263973236084,13.19914722442627,0.9245032072067261
1690462051463459207,,5817,,1690462051,463400661,"""world""",,,3.390436887741089,13.199339866638184,0.9282353520393372
1690462051473468876,,5818,,1690462051,473405137,"""world""",,,3.3905422687530518,13.199650764465332,0.9316800832748413
1690462051473476130,,5819,,1690462051,473424106,"""world""",,,3.3905434608459473,13.199934959411621,0.9350681304931641
1690462051493456393,,5820,,1690462051,493397334,"""world""",,,3.3905556201934814,13.200217247009277,0.9384796619415283
1690462051503433618,,5821,,1690462051,503382098,"""world""",,,3.3905465602874756,13.200431823730469,0.9418330192565918
1690462051503437019,,5822,,1690462051,503389279,"""world""",,,3.390582799911499,13.20071792602539,0.9449942111968994
1690462051513473912,,5823,,1690462051,513408883,"""world""",,,3.390594005584717,13.200963973999023,0.9481213092803955
1690462051533454157,,5824,,1690462051,533389842,"""world""",,,3.3906126022338867,13.20126724243164,0.9510553479194641
1690462051543445829,,5825,,1690462051,543393518,"""world""",,,3.390651226043701,13.201523780822754,0.953992486000061
1690462051553458438,,5826,,1690462051,553399548,"""world""",,,3.3906443119049072,13.201749801635742,0.9569823741912842
1690462051563466164,,5827,,1690462051,563397670,"""world""",,,3.3907227516174316,13.202054977416992,0.959772527217865
1690462051563471082,,5828,,1690462051,563409199,"""world""",,,3.3906590938568115,13.202346801757812,0.962425172328949
1690462051583508835,,5829,,1690462051,583416755,"""world""",,,3.3906915187835693,13.202512741088867,0.9652342200279236
1690462051593491331,,5830,,1690462051,593394739,"""world""",,,3.3907127380371094,13.202855110168457,0.9677668809890747
1690462051593494737,,5831,,1690462051,593405310,"""world""",,,3.3907361030578613,13.203105926513672,0.9703278541564941
1690462051613524327,,5832,,1690462051,613437627,"""world""",,,3.3907253742218018,13.203310012817383,0.9729136228561401
1690462051623477162,,5833,,1690462051,623403306,"""world""",,,3.3908205032348633,13.203660011291504,0.97528076171875
1690462051623485343,,5834,,1690462051,623417543,"""world""",,,3.3908121585845947,13.203816413879395,0.9777839779853821
1690462051643484977,,5835,,1690462051,643393231,"""world""",,,3.3907594680786133,13.204117774963379,0.9801637530326843
1690462051653487253,,5836,,1690462051,653412439,"""world""",,,3.390862464904785,13.204392433166504,0.9824204444885254
1690462051653493162,,5837,,1690462051,653425283,"""world""",,,3.390807628631592,13.204611778259277,0.9847433567047119
1690462051673477872,,5838,,1690462051,673398921,"""world""",,,3.3908045291900635,13.204927444458008,0.9868882894515991
1690462051673488508,,5839,,1690462051,673410562,"""world""",,,3.3908159732818604,13.20514965057373,0.9892154335975647
1690462051693488798,,5840,,1690462051,693427982,"""world""",,,3.3907859325408936,13.205476760864258,0.9912934303283691
1690462051703467411,,5841,,1690462051,703411193,"""world""",,,3.390815258026123,13.205771446228027,0.9934259653091431
1690462051703473267,,5842,,1690462051,703420293,"""world""",,,3.390795946121216,13.206048011779785,0.9955351948738098
1690462051723504624,,5843,,1690462051,723433074,"""world""",,,3.3907554149627686,13.206324577331543,0.9975171089172363
1690462051723513248,,5844,,1690462051,723446041,"""world""",,,3.390751361846924,13.206615447998047,0.9995689988136292
1690462051733440582,,5845,,1690462051,733385907,"""world""",,,3.3907387256622314,13.206921577453613,1.0015568733215332
1690462051753468473,,5846,,1690462051,753404944,"""world""",,,3.3907132148742676,13.207164764404297,1.003345251083374
1690462051753471238,,5847,,1690462051,753417584,"""world""",,,3.390777587890625,13.207571983337402,1.0053867101669312
1690462051763475608,,5848,,1690462051,763404700,"""world""",,,3.3907787799835205,13.207831382751465,1.0072273015975952
1690462051783516383,,5849,,1690462051,783411275,"""world""",,,3.3907811641693115,13.20818042755127,1.0090196132659912
1690462051783523952,,5850,,1690462051,783428166,"""world""",,,3.3908400535583496,13.208468437194824,1.010893702507019
1690462051793443467,,5851,,1690462051,793391321,"""world""",,,3.390897512435913,13.208767890930176,1.0126827955245972
1690462051813496106,,5852,,1690462051,813409872,"""world""",,,3.390855073928833,13.209179878234863,1.014280080795288
1690462051813502801,,5853,,1690462051,813425402,"""world""",,,3.390925884246826,13.209382057189941,1.0161370038986206
1690462051833448653,,5854,,1690462051,833386405,"""world""",,,3.390979051589966,13.209641456604004,1.0177634954452515
1690462051843463211,,5855,,1690462051,843395612,"""world""",,,3.3910224437713623,13.209942817687988,1.019390344619751
1690462051843470804,,5856,,1690462051,843406259,"""world""",,,3.390946865081787,13.210248947143555,1.0211058855056763
1690462051863456095,,5857,,1690462051,863396760,"""world""",,,3.3911666870117188,13.210517883300781,1.0226728916168213
1690462051873467742,,5858,,1690462051,873392263,"""world""",,,3.391205072402954,13.2107572555542,1.0242207050323486
1690462051873473829,,5859,,1690462051,873402642,"""world""",,,3.3911569118499756,13.211063385009766,1.025843620300293
1690462051883494846,,5860,,1690462051,883421336,"""world""",,,3.3913495540618896,13.211298942565918,1.0273408889770508
1690462051903456280,,5861,,1690462051,903399046,"""world""",,,3.391359567642212,13.211404800415039,1.0289041996002197
1690462051903464449,,5862,,1690462051,903409283,"""world""",,,3.3914477825164795,13.211827278137207,1.030338168144226
1690462051913483445,,5863,,1690462051,913402136,"""world""",,,3.3914544582366943,13.211981773376465,1.031815767288208
1690462051923481441,,5864,,1690462051,923407309,"""world""",,,3.3915677070617676,13.212120056152344,1.0333495140075684
1690462051943454492,,5865,,1690462051,943394095,"""world""",,,3.391681671142578,13.2123384475708,1.0346907377243042
1690462051943460568,,5866,,1690462051,943405079,"""world""",,,3.3916707038879395,13.2125883102417,1.036205530166626
1690462051953464445,,5867,,1690462051,953402608,"""world""",,,3.391724109649658,13.212723731994629,1.0376181602478027
