rosbagTimestamp,header,seq,stamp,secs,nsecs,frame_id,pose,position,x,y,z
1690462486954515330,,16042,,1690462486,953397029,"""world""",,,3.3600213527679443,13.213985443115234,-0.021390484645962715
1690462486963491639,,16043,,1690462486,963403243,"""world""",,,3.3600056171417236,13.213997840881348,-0.02138085477054119
1690462486973461651,,16044,,1690462486,973405718,"""world""",,,3.360011339187622,13.213985443115234,-0.0214264914393425
1690462486983494019,,16045,,1690462486,983419255,"""world""",,,3.360048532485962,13.213963508605957,-0.021394582465291023
1690462486993473789,,16046,,1690462486,993395252,"""world""",,,3.360010862350464,13.213981628417969,-0.021402789279818535
1690462487004339657,,16047,,1690462487,3445545,"""world""",,,3.359999656677246,13.21401309967041,-0.021376168355345726
1690462487013515729,,16048,,1690462487,13428521,"""world""",,,3.360011339187622,13.214001655578613,-0.021382739767432213
1690462487023508073,,16049,,1690462487,23420791,"""world""",,,3.3600542545318604,13.2139892578125,-0.021397031843662262
1690462487033515889,,16050,,1690462487,33428141,"""world""",,,3.3600094318389893,13.213995933532715,-0.02138584665954113
1690462487043451668,,16051,,1690462487,43399736,"""world""",,,3.3600223064422607,13.21402645111084,-0.021371066570281982
1690462487053470892,,16052,,1690462487,53397954,"""world""",,,3.360010862350464,13.214005470275879,-0.021389944478869438
1690462487063464035,,16053,,1690462487,63404165,"""world""",,,3.3600234985351562,13.213997840881348,-0.021393639966845512
1690462487073499380,,16054,,1690462487,73410303,"""world""",,,3.360020399093628,13.214000701904297,-0.0213919747620821
1690462487083467140,,16055,,1690462487,83389258,"""world""",,,3.3600080013275146,13.21401309967041,-0.021368009969592094
1690462487093450525,,16056,,1690462487,93395964,"""world""",,,3.36000657081604,13.21399211883545,-0.02139575220644474
1690462487103518560,,16057,,1690462487,103420574,"""world""",,,3.3600404262542725,13.21399974822998,-0.021411336958408356
1690462487113488737,,16058,,1690462487,113396586,"""world""",,,3.360006332397461,13.214000701904297,-0.021389849483966827
1690462487123561528,,16059,,1690462487,123421565,"""world""",,,3.360003709793091,13.214009284973145,-0.021382393315434456
1690462487133530429,,16060,,1690462487,133429470,"""world""",,,3.3600127696990967,13.214001655578613,-0.02138444595038891
1690462487143465108,,16061,,1690462487,143397585,"""world""",,,3.360018491744995,13.214008331298828,-0.021385738626122475
1690462487153471773,,16062,,1690462487,153402499,"""world""",,,3.3600223064422607,13.21398639678955,-0.021408522501587868
1690462487163471837,,16063,,1690462487,163405900,"""world""",,,3.3600175380706787,13.214007377624512,-0.021403446793556213
1690462487173457106,,16064,,1690462487,173400183,"""world""",,,3.36000657081604,13.21399974822998,-0.021379126235842705
1690462487183458025,,16065,,1690462487,183412604,"""world""",,,3.360034942626953,13.214005470275879,-0.0213953647762537
1690462487193447079,,16066,,1690462487,193393496,"""world""",,,3.3600025177001953,13.2139892578125,-0.02140735648572445
1690462487203501940,,16067,,1690462487,203417381,"""world""",,,3.3600025177001953,13.214012145996094,-0.021383993327617645
1690462487213456629,,16068,,1690462487,213397250,"""world""",,,3.3600189685821533,13.214012145996094,-0.021386079490184784
1690462487223526033,,16069,,1690462487,223424899,"""world""",,,3.360027551651001,13.214001655578613,-0.021396005526185036
1690462487233506184,,16070,,1690462487,233436464,"""world""",,,3.360011100769043,13.214008331298828,-0.02138175070285797
1690462487243512208,,16071,,1690462487,243424798,"""world""",,,3.359999656677246,13.214019775390625,-0.02137855254113674
1690462487253498609,,16072,,1690462487,253427227,"""world""",,,3.360002279281616,13.214004516601562,-0.021392254158854485
1690462487263500147,,16073,,1690462487,263429481,"""world""",,,3.360015869140625,13.2139892578125,-0.021395528689026833
1690462487273525624,,16074,,1690462487,273429631,"""world""",,,3.360022783279419,13.213996887207031,-0.021372037008404732
1690462487283463213,,16075,,1690462487,283412640,"""world""",,,3.360003709793091,13.214009284973145,-0.021372800692915916
1690462487293507750,,16076,,1690462487,293427723,"""world""",,,3.3600127696990967,13.213995933532715,-0.021404745057225227
1690462487303500139,,16077,,1690462487,303414883,"""world""",,,3.3600285053253174,13.214009284973145,-0.021387986838817596
1690462487313513422,,16078,,1690462487,313426134,"""world""",,,3.3600032329559326,13.214001655578613,-0.021373488008975983
1690462487323457919,,16079,,1690462487,323395527,"""world""",,,3.360011100769043,13.214001655578613,-0.02137676812708378
1690462487333478326,,16080,,1690462487,333412532,"""world""",,,3.360018014907837,13.21402645111084,-0.021367287263274193
1690462487343472290,,16081,,1690462487,343418549,"""world""",,,3.360020875930786,13.214022636413574,-0.02137216180562973
1690462487353490255,,16082,,1690462487,353395314,"""world""",,,3.359997034072876,13.214020729064941,-0.021369772031903267
1690462487363483529,,16083,,1690462487,363397457,"""world""",,,3.359992742538452,13.214016914367676,-0.021376676857471466
1690462487373485173,,16084,,1690462487,373397395,"""world""",,,3.3600149154663086,13.2139892578125,-0.021400561556220055
1690462487383428662,,16085,,1690462487,383379862,"""world""",,,3.3600072860717773,13.214004516601562,-0.02137007564306259
1690462487393454615,,16086,,1690462487,393390318,"""world""",,,3.3600013256073,13.21399974822998,-0.02137847989797592
1690462487403523468,,16087,,1690462487,403425325,"""world""",,,3.360013961791992,13.214007377624512,-0.021391471847891808
1690462487413449026,,16088,,1690462487,413394782,"""world""",,,3.3600170612335205,13.214004516601562,-0.02138839103281498
1690462487423455704,,16089,,1690462487,423390583,"""world""",,,3.3600099086761475,13.21401309967041,-0.02139091305434704
1690462487433485582,,16090,,1690462487,433403331,"""world""",,,3.360018014907837,13.214027404785156,-0.021375322714447975
1690462487443490900,,16091,,1690462487,443394487,"""world""",,,3.359994888305664,13.2139892578125,-0.021377606317400932
1690462487453477463,,16092,,1690462487,453402311,"""world""",,,3.3600189685821533,13.213984489440918,-0.021366821601986885
1690462487463492881,,16093,,1690462487,463429090,"""world""",,,3.3600094318389893,13.214004516601562,-0.021369947120547295
1690462487473460710,,16094,,1690462487,473398680,"""world""",,,3.3600094318389893,13.214009284973145,-0.021375445649027824
1690462487483432725,,16095,,1690462487,483381165,"""world""",,,3.3600118160247803,13.214004516601562,-0.021388961002230644
1690462487493447640,,16096,,1690462487,493391211,"""world""",,,3.3600032329559326,13.21402645111084,-0.021369589492678642
1690462487503487171,,16097,,1690462487,503404879,"""world""",,,3.3600213527679443,13.214015007019043,-0.021366432309150696
1690462487513478504,,16098,,1690462487,513394104,"""world""",,,3.3600032329559326,13.214001655578613,-0.02138587087392807
1690462487523449159,,16099,,1690462487,523387875,"""world""",,,3.3600151538848877,13.214004516601562,-0.021381253376603127
1690462487533493169,,16100,,1690462487,533412089,"""world""",,,3.3600080013275146,13.214015007019043,-0.021357307210564613
1690462487543440888,,16101,,1690462487,543389778,"""world""",,,3.3600270748138428,13.214007377624512,-0.021388262510299683
1690462487553468085,,16102,,1690462487,553398997,"""world""",,,3.360016107559204,13.214015007019043,-0.021369241178035736
1690462487563455847,,16103,,1690462487,563396194,"""world""",,,3.3600149154663086,13.214024543762207,-0.02137431502342224
1690462487573510252,,16104,,1690462487,573438187,"""world""",,,3.3600151538848877,13.21399211883545,-0.021396396681666374
1690462487583459448,,16105,,1690462487,583411738,"""world""",,,3.360008478164673,13.213994026184082,-0.021379927173256874
1690462487593455305,,16106,,1690462487,593396515,"""world""",,,3.359997510910034,13.214004516601562,-0.021381348371505737
1690462487603566859,,16107,,1690462487,603462264,"""world""",,,3.360032796859741,13.214020729064941,-0.02138475887477398
1690462487613533457,,16108,,1690462487,613423313,"""world""",,,3.3600151538848877,13.214015007019043,-0.021375371143221855
1690462487623501428,,16109,,1690462487,623395819,"""world""",,,3.360018491744995,13.213996887207031,-0.021395117044448853
1690462487633571525,,16110,,1690462487,633439870,"""world""",,,3.3600237369537354,13.21401309967041,-0.021384291350841522
1690462487643452343,,16111,,1690462487,643392314,"""world""",,,3.360017776489258,13.214024543762207,-0.021363036707043648
1690462487653498865,,16112,,1690462487,653406084,"""world""",,,3.360018491744995,13.214022636413574,-0.021383745595812798
1690462487663495285,,16113,,1690462487,663429566,"""world""",,,3.3600199222564697,13.214015007019043,-0.021379409357905388
1690462487673488729,,16114,,1690462487,673397847,"""world""",,,3.360027313232422,13.213995933532715,-0.021406568586826324
1690462487683465624,,16115,,1690462487,683382402,"""world""",,,3.3600215911865234,13.214016914367676,-0.021383685991168022
1690462487693448805,,16116,,1690462487,693389809,"""world""",,,3.360036849975586,13.214007377624512,-0.02139066718518734
1690462487703534915,,16117,,1690462487,703432137,"""world""",,,3.360018730163574,13.213996887207031,-0.021387634798884392
1690462487713483146,,16118,,1690462487,713396089,"""world""",,,3.360022783279419,13.214004516601562,-0.02136455476284027
1690462487723469033,,16119,,1690462487,723390494,"""world""",,,3.3600215911865234,13.214022636413574,-0.021371610462665558
1690462487733524643,,16120,,1690462487,733420176,"""world""",,,3.3600292205810547,13.214012145996094,-0.02137395739555359
1690462487743477641,,16121,,1690462487,743390927,"""world""",,,3.3600215911865234,13.214008331298828,-0.021380363032221794
1690462487753483701,,16122,,1690462487,753403537,"""world""",,,3.360020637512207,13.214000701904297,-0.021388234570622444
1690462487763467081,,16123,,1690462487,763399631,"""world""",,,3.3600103855133057,13.2139892578125,-0.021364351734519005
1690462487773490070,,16124,,1690462487,773396435,"""world""",,,3.3600282669067383,13.214015007019043,-0.02137289196252823
1690462487783460925,,16125,,1690462487,783382203,"""world""",,,3.3600339889526367,13.214019775390625,-0.021383823826909065
1690462487793458381,,16126,,1690462487,793390817,"""world""",,,3.360022783279419,13.214008331298828,-0.02139824442565441
1690462487803541199,,16127,,1690462487,803429180,"""world""",,,3.3600223064422607,13.214019775390625,-0.021397562697529793
1690462487813487967,,16128,,1690462487,813395356,"""world""",,,3.3600189685821533,13.214012145996094,-0.021385038271546364
1690462487823463521,,16129,,1690462487,823389821,"""world""",,,3.360041856765747,13.214008331298828,-0.021374424919486046
1690462487833498431,,16130,,1690462487,833408535,"""world""",,,3.3600194454193115,13.2139892578125,-0.02139541320502758
1690462487843450558,,16131,,1690462487,843391876,"""world""",,,3.360037088394165,13.214024543762207,-0.021372927352786064
1690462487853495208,,16132,,1690462487,853381769,"""world""",,,3.3600292205810547,13.214004516601562,-0.02141074649989605
1690462487863463058,,16133,,1690462487,863395544,"""world""",,,3.360032081604004,13.214018821716309,-0.021394066512584686
1690462487873463155,,16134,,1690462487,873397766,"""world""",,,3.3600122928619385,13.21401309967041,-0.021391110494732857
1690462487883458130,,16135,,1690462487,883379468,"""world""",,,3.3600196838378906,13.21401596069336,-0.021375706419348717
1690462487893446922,,16136,,1690462487,893386229,"""world""",,,3.3600168228149414,13.214005470275879,-0.021381227299571037
1690462487903544726,,16137,,1690462487,903432625,"""world""",,,3.360023260116577,13.214020729064941,-0.02138037420809269
1690462487913484553,,16138,,1690462487,913394833,"""world""",,,3.3600122928619385,13.214012145996094,-0.021395713090896606
1690462487923497435,,16139,,1690462487,923388881,"""world""",,,3.3600616455078125,13.214011192321777,-0.021380292251706123
1690462487933510156,,16140,,1690462487,933403180,"""world""",,,3.3600151538848877,13.21401596069336,-0.02137349359691143
1690462487943446787,,16141,,1690462487,943391730,"""world""",,,3.3600189685821533,13.214016914367676,-0.021388232707977295
1690462487953457167,,16142,,1690462487,953394379,"""world""",,,3.3600075244903564,13.21399974822998,-0.02138502150774002
1690462487963464775,,16143,,1690462487,963398814,"""world""",,,3.360020399093628,13.214001655578613,-0.021388454362750053
1690462487973456977,,16144,,1690462487,973395757,"""world""",,,3.3600261211395264,13.214004516601562,-0.021393708884716034
1690462487983460067,,16145,,1690462487,983381052,"""world""",,,3.3600101470947266,13.214022636413574,-0.021406007930636406
1690462487993453277,,16146,,1690462487,993389873,"""world""",,,3.360020637512207,13.214019775390625,-0.021391404792666435
1690462488003501535,,16147,,1690462488,3400865,"""world""",,,3.3600528240203857,13.214009284973145,-0.02139200270175934
1690462488013489908,,16148,,1690462488,13398889,"""world""",,,3.3600189685821533,13.21399974822998,-0.02138989418745041
1690462488023464116,,16149,,1690462488,23391425,"""world""",,,3.3600094318389893,13.214027404785156,-0.02137616276741028
1690462488033524797,,16150,,1690462488,33409691,"""world""",,,3.3600361347198486,13.214022636413574,-0.02139093726873398
1690462488043479594,,16151,,1690462488,43392499,"""world""",,,3.360022783279419,13.214004516601562,-0.021385418251156807
1690462488053447826,,16152,,1690462488,53392205,"""world""",,,3.3600311279296875,13.214007377624512,-0.02140452153980732
1690462488063475536,,16153,,1690462488,63400315,"""world""",,,3.359994888305664,13.214031219482422,-0.021365901455283165
1690462488073458215,,16154,,1690462488,73396819,"""world""",,,3.360013246536255,13.214019775390625,-0.021375708281993866
1690462488083461958,,16155,,1690462488,83382261,"""world""",,,3.3600196838378906,13.214012145996094,-0.0213757436722517
1690462488093474280,,16156,,1690462488,93390840,"""world""",,,3.3600151538848877,13.21402359008789,-0.02139022946357727
1690462488103501567,,16157,,1690462488,103415101,"""world""",,,3.3600196838378906,13.214019775390625,-0.021372659131884575
1690462488113485636,,16158,,1690462488,113395871,"""world""",,,3.3600215911865234,13.214001655578613,-0.021398037672042847
1690462488123463340,,16159,,1690462488,123399104,"""world""",,,3.3600504398345947,13.214019775390625,-0.021400781348347664
1690462488133473404,,16160,,1690462488,133403433,"""world""",,,3.3600151538848877,13.214027404785156,-0.021391427144408226
1690462488143472404,,16161,,1690462488,143399490,"""world""",,,3.360027313232422,13.214045524597168,-0.021376632153987885
1690462488153469660,,16162,,1690462488,153404061,"""world""",,,3.3600246906280518,13.214012145996094,-0.021373679861426353
1690462488163473014,,16163,,1690462488,163398172,"""world""",,,3.3600337505340576,13.214015007019043,-0.02136995643377304
1690462488173460148,,16164,,1690462488,173399644,"""world""",,,3.359999895095825,13.214030265808105,-0.021383261308073997
1690462488183433717,,16165,,1690462488,183382031,"""world""",,,3.3600292205810547,13.214022636413574,-0.02137647569179535
1690462488193444483,,16166,,1690462488,193392046,"""world""",,,3.3600270748138428,13.214004516601562,-0.021386759355664253
1690462488203497710,,16167,,1690462488,203414667,"""world""",,,3.360029458999634,13.214019775390625,-0.02139984630048275
1690462488213457178,,16168,,1690462488,213397536,"""world""",,,3.360015869140625,13.214027404785156,-0.021378425881266594
1690462488223506245,,16169,,1690462488,223396853,"""world""",,,3.360016107559204,13.21402359008789,-0.021371381357312202
1690462488233461252,,16170,,1690462488,233400015,"""world""",,,3.360067367553711,13.213982582092285,-0.02139599807560444
1690462488243463311,,16171,,1690462488,243399314,"""world""",,,3.3600502014160156,13.214022636413574,-0.021396426483988762
1690462488253455190,,16172,,1690462488,253394884,"""world""",,,3.3600480556488037,13.214027404785156,-0.02140802890062332
1690462488263461164,,16173,,1690462488,263400680,"""world""",,,3.3600406646728516,13.214031219482422,-0.021394046023488045
1690462488273461569,,16174,,1690462488,273399211,"""world""",,,3.3600451946258545,13.21402645111084,-0.02139938808977604
1690462488283425542,,16175,,1690462488,283381121,"""world""",,,3.360041379928589,13.214035987854004,-0.021399596706032753
1690462488293442307,,16176,,1690462488,293390241,"""world""",,,3.3600263595581055,13.214024543762207,-0.021395012736320496
1690462488303515858,,16177,,1690462488,303423077,"""world""",,,3.36003041267395,13.214030265808105,-0.021374456584453583
1690462488313485304,,16178,,1690462488,313393258,"""world""",,,3.360017776489258,13.214012145996094,-0.02139621414244175
1690462488323475290,,16179,,1690462488,323400869,"""world""",,,3.36002254486084,13.214024543762207,-0.021387742832303047
1690462488333490520,,16180,,1690462488,333399015,"""world""",,,3.3600053787231445,13.21402359008789,-0.021366523578763008
1690462488343449748,,16181,,1690462488,343392182,"""world""",,,3.3600358963012695,13.21402359008789,-0.0213646087795496
1690462488353472343,,16182,,1690462488,353391374,"""world""",,,3.3600237369537354,13.214032173156738,-0.021362947300076485
1690462488363472556,,16183,,1690462488,363400005,"""world""",,,3.3599913120269775,13.21402645111084,-0.02135373465716839
1690462488373456367,,16184,,1690462488,373396746,"""world""",,,3.3600246906280518,13.21402645111084,-0.021366586908698082
1690462488383424879,,16185,,1690462488,383378565,"""world""",,,3.3600165843963623,13.21401596069336,-0.0213728379458189
1690462488393441041,,16186,,1690462488,393388895,"""world""",,,3.360013961791992,13.214091300964355,-0.021289262920618057
1690462488403528512,,16187,,1690462488,403417133,"""world""",,,3.3600168228149414,13.214032173156738,-0.021367916837334633
1690462488413446007,,16188,,1690462488,413391926,"""world""",,,3.360015630722046,13.214016914367676,-0.021389437839388847
1690462488423472886,,16189,,1690462488,423399396,"""world""",,,3.360018491744995,13.214016914367676,-0.02137291617691517
1690462488433476801,,16190,,1690462488,433402548,"""world""",,,3.360010862350464,13.214012145996094,-0.021378561854362488
1690462488443493847,,16191,,1690462488,443397683,"""world""",,,3.359999656677246,13.214022636413574,-0.021379107609391212
1690462488453495385,,16192,,1690462488,453413736,"""world""",,,3.360018730163574,13.214004516601562,-0.021390939131379128
1690462488463499750,,16193,,1690462488,463399575,"""world""",,,3.3600196838378906,13.214016914367676,-0.021378524601459503
1690462488473471725,,16194,,1690462488,473399729,"""world""",,,3.360006332397461,13.214001655578613,-0.021393321454524994
1690462488483465635,,16195,,1690462488,483382571,"""world""",,,3.360017776489258,13.214020729064941,-0.021372666582465172
1690462488493449717,,16196,,1690462488,493390093,"""world""",,,3.360003709793091,13.214030265808105,-0.02136620692908764
1690462488503537127,,16197,,1690462488,503417663,"""world""",,,3.360027313232422,13.214030265808105,-0.021362490952014923
1690462488513452596,,16198,,1690462488,513398288,"""world""",,,3.360020637512207,13.214015007019043,-0.021388912573456764
1690462488523472459,,16199,,1690462488,523395121,"""world""",,,3.3600127696990967,13.214037895202637,-0.02138751931488514
1690462488533484313,,16200,,1690462488,533396433,"""world""",,,3.360027313232422,13.214022636413574,-0.021397337317466736
1690462488543446297,,16201,,1690462488,543390228,"""world""",,,3.3600246906280518,13.214015007019043,-0.02139194868505001
1690462488553450660,,16202,,1690462488,553394475,"""world""",,,3.360001802444458,13.214019775390625,-0.02137109637260437
1690462488563466005,,16203,,1690462488,563400151,"""world""",,,3.360003709793091,13.214015007019043,-0.02136319689452648
1690462488573484875,,16204,,1690462488,573397116,"""world""",,,3.3600094318389893,13.214007377624512,-0.021370746195316315
1690462488583430759,,16205,,1690462488,583381314,"""world""",,,3.3600165843963623,13.214005470275879,-0.021402902901172638
1690462488593444267,,16206,,1690462488,593391488,"""world""",,,3.3599913120269775,13.214022636413574,-0.021374046802520752
1690462488603495097,,16207,,1690462488,603419926,"""world""",,,3.359983205795288,13.214015007019043,-0.021358266472816467
1690462488613479891,,16208,,1690462488,613396020,"""world""",,,3.360023260116577,13.214009284973145,-0.021389871835708618
1690462488623462794,,16209,,1690462488,623393680,"""world""",,,3.3600103855133057,13.214016914367676,-0.0213638823479414
1690462488633499758,,16210,,1690462488,633400258,"""world""",,,3.3599846363067627,13.214030265808105,-0.02136850543320179
1690462488643494420,,16211,,1690462488,643429063,"""world""",,,3.360008478164673,13.214020729064941,-0.021389396861195564
1690462488653488745,,16212,,1690462488,653423314,"""world""",,,3.3600170612335205,13.214018821716309,-0.021390439942479134
1690462488663500298,,16213,,1690462488,663430277,"""world""",,,3.360013246536255,13.214009284973145,-0.02137821912765503
1690462488673528135,,16214,,1690462488,673433633,"""world""",,,3.360001564025879,13.21401596069336,-0.021365897729992867
1690462488683469459,,16215,,1690462488,683384346,"""world""",,,3.3600165843963623,13.214009284973145,-0.021384641528129578
1690462488693441413,,16216,,1690462488,693387177,"""world""",,,3.360004186630249,13.214007377624512,-0.021371567621827126
1690462488703529188,,16217,,1690462488,703419187,"""world""",,,3.3600003719329834,13.214001655578613,-0.021393468603491783
1690462488713490739,,16218,,1690462488,713396848,"""world""",,,3.360018730163574,13.214019775390625,-0.02139177918434143
1690462488723483683,,16219,,1690462488,723388291,"""world""",,,3.3599941730499268,13.214012145996094,-0.021382564678788185
1690462488733453991,,16220,,1690462488,733399789,"""world""",,,3.3600046634674072,13.21399211883545,-0.02137935906648636
1690462488743450499,,16221,,1690462488,743392605,"""world""",,,3.359997510910034,13.213996887207031,-0.021386587992310524
1690462488753445855,,16222,,1690462488,753389431,"""world""",,,3.3599865436553955,13.214011192321777,-0.021373378112912178
1690462488763458638,,16223,,1690462488,763398781,"""world""",,,3.3599936962127686,13.213997840881348,-0.021386899054050446
1690462488773453839,,16224,,1690462488,773396275,"""world""",,,3.3600218296051025,13.214004516601562,-0.021399764344096184
1690462488783458625,,16225,,1690462488,783381463,"""world""",,,3.359999418258667,13.214003562927246,-0.02138003520667553
1690462488793446306,,16226,,1690462488,793392257,"""world""",,,3.3600094318389893,13.214011192321777,-0.021391676738858223
1690462488803480692,,16227,,1690462488,803404381,"""world""",,,3.3600008487701416,13.214001655578613,-0.021378399804234505
1690462488813447231,,16228,,1690462488,813395049,"""world""",,,3.360017776489258,13.214012145996094,-0.021372752264142036
1690462488823465495,,16229,,1690462488,823380776,"""world""",,,3.3600056171417236,13.214004516601562,-0.021385451778769493
1690462488833578826,,16230,,1690462488,833436662,"""world""",,,3.3600103855133057,13.21401596069336,-0.02137535996735096
1690462488843468618,,16231,,1690462488,843399186,"""world""",,,3.360015869140625,13.21399211883545,-0.021394260227680206
1690462488853484244,,16232,,1690462488,853404803,"""world""",,,3.360013008117676,13.214007377624512,-0.021386338397860527
1690462488863466653,,16233,,1690462488,863402557,"""world""",,,3.3599910736083984,13.213993072509766,-0.021384097635746002
1690462488873457612,,16234,,1690462488,873396387,"""world""",,,3.3600311279296875,13.213971138000488,-0.02138485014438629
1690462488883473267,,16235,,1690462488,883410274,"""world""",,,3.3600356578826904,13.214001655578613,-0.02140500582754612
1690462488893449150,,16236,,1690462488,893391955,"""world""",,,3.360008478164673,13.214003562927246,-0.021403996273875237
1690462488903495935,,16237,,1690462488,903400037,"""world""",,,3.3599958419799805,13.214009284973145,-0.021367335692048073
1690462488913488717,,16238,,1690462488,913397730,"""world""",,,3.360004425048828,13.214020729064941,-0.021379180252552032
1690462488923467418,,16239,,1690462488,923386515,"""world""",,,3.3600337505340576,13.214016914367676,-0.02138064056634903
1690462488933504613,,16240,,1690462488,933399269,"""world""",,,3.3600165843963623,13.214001655578613,-0.02136845700442791
1690462488943483738,,16241,,1690462488,943426191,"""world""",,,3.3600006103515625,13.214015007019043,-0.02138119377195835
1690462488953464417,,16242,,1690462488,953397184,"""world""",,,3.360016107559204,13.214027404785156,-0.02139299176633358
1690462488963532664,,16243,,1690462488,963462469,"""world""",,,3.3600175380706787,13.213994026184082,-0.02139159105718136
1690462488973521662,,16244,,1690462488,973427799,"""world""",,,3.360020637512207,13.213996887207031,-0.021385641768574715
1690462488983496274,,16245,,1690462488,983439713,"""world""",,,3.3600056171417236,13.214007377624512,-0.021365562453866005
1690462488993510401,,16246,,1690462488,993451352,"""world""",,,3.360013723373413,13.213974952697754,-0.02138986438512802
1690462489003591032,,16247,,1690462489,3461515,"""world""",,,3.360013961791992,13.213985443115234,-0.021380295976996422
1690462489013486410,,16248,,1690462489,13427454,"""world""",,,3.3600151538848877,13.214009284973145,-0.021380381658673286
1690462489023476740,,16249,,1690462489,23392711,"""world""",,,3.359997510910034,13.214009284973145,-0.02138136886060238
1690462489033471709,,16250,,1690462489,33397341,"""world""",,,3.3600265979766846,13.214007377624512,-0.021398169919848442
1690462489043451784,,16251,,1690462489,43400101,"""world""",,,3.3600330352783203,13.213993072509766,-0.021386338397860527
1690462489053491848,,16252,,1690462489,53389339,"""world""",,,3.360030174255371,13.21399211883545,-0.021396735683083534
1690462489063471397,,16253,,1690462489,63399871,"""world""",,,3.3600046634674072,13.21398639678955,-0.02139946073293686
1690462489073464015,,16254,,1690462489,73396986,"""world""",,,3.360016107559204,13.21398639678955,-0.021393001079559326
1690462489083459323,,16255,,1690462489,83380446,"""world""",,,3.3600246906280518,13.213996887207031,-0.02138596586883068
1690462489093451030,,16256,,1690462489,93393759,"""world""",,,3.360020637512207,13.21401596069336,-0.0213544350117445
1690462489103630522,,16257,,1690462489,103488783,"""world""",,,3.3599863052368164,13.214016914367676,-0.021361036226153374
1690462489113514864,,16258,,1690462489,113428212,"""world""",,,3.360001802444458,13.21401309967041,-0.02134166844189167
1690462489123510585,,16259,,1690462489,123423558,"""world""",,,3.3599956035614014,13.213993072509766,-0.021351613104343414
1690462489133483510,,16260,,1690462489,133401230,"""world""",,,3.3600070476531982,13.213994026184082,-0.02135387621819973
1690462489143460184,,16261,,1690462489,143399335,"""world""",,,3.3599789142608643,13.213984489440918,-0.021361591294407845
1690462489153564276,,16262,,1690462489,153428640,"""world""",,,3.3599960803985596,13.213990211486816,-0.0213923379778862
1690462489163460281,,16263,,1690462489,163399700,"""world""",,,3.3600330352783203,13.213980674743652,-0.02137121744453907
1690462489173465897,,16264,,1690462489,173402699,"""world""",,,3.3600265979766846,13.2139892578125,-0.02138637565076351
1690462489183439425,,16265,,1690462489,183389382,"""world""",,,3.3600142002105713,13.214000701904297,-0.02137608826160431
1690462489193448147,,16266,,1690462489,193393011,"""world""",,,3.360027313232422,13.214007377624512,-0.02136973850429058
1690462489203543443,,16267,,1690462489,203443260,"""world""",,,3.3600127696990967,13.213988304138184,-0.02138456702232361
1690462489213448750,,16268,,1690462489,213395605,"""world""",,,3.3600265979766846,13.21399974822998,-0.021387681365013123
1690462489223433283,,16269,,1690462489,223383300,"""world""",,,3.3600013256073,13.213971138000488,-0.02139417640864849
1690462489233463565,,16270,,1690462489,233398094,"""world""",,,3.3600120544433594,13.213982582092285,-0.02139485627412796
1690462489243459559,,16271,,1690462489,243400588,"""world""",,,3.36002516746521,13.213973999023438,-0.021389169618487358
1690462489253475789,,16272,,1690462489,253404405,"""world""",,,3.360020875930786,13.213981628417969,-0.021387316286563873
1690462489263460231,,16273,,1690462489,263400411,"""world""",,,3.3600099086761475,13.213977813720703,-0.02139817178249359
1690462489273520143,,16274,,1690462489,273434996,"""world""",,,3.3600270748138428,13.213988304138184,-0.02138700895011425
1690462489283426257,,16275,,1690462489,283382942,"""world""",,,3.3600246906280518,13.213997840881348,-0.021398520097136497
1690462489293436765,,16276,,1690462489,293389385,"""world""",,,3.3600223064422607,13.213984489440918,-0.021403880789875984
1690462489303514000,,16277,,1690462489,303429084,"""world""",,,3.3600380420684814,13.213984489440918,-0.021392570808529854
1690462489313461817,,16278,,1690462489,313402315,"""world""",,,3.3600265979766846,13.214009284973145,-0.021375784650444984
1690462489323430956,,16279,,1690462489,323383014,"""world""",,,3.3600425720214844,13.213988304138184,-0.02139904350042343
1690462489333466142,,16280,,1690462489,333399798,"""world""",,,3.3600425720214844,13.214004516601562,-0.02139468304812908
1690462489343449650,,16281,,1690462489,343399139,"""world""",,,3.360050916671753,13.214001655578613,-0.02140592597424984
1690462489353468483,,16282,,1690462489,353401156,"""world""",,,3.3600475788116455,13.21399211883545,-0.021400852128863335
1690462489363488522,,16283,,1690462489,363418220,"""world""",,,3.3600432872772217,13.21399211883545,-0.021417735144495964
1690462489373489103,,16284,,1690462489,373397982,"""world""",,,3.3600215911865234,13.21397876739502,-0.021400345489382744
1690462489383464973,,16285,,1690462489,383387807,"""world""",,,3.3600261211395264,13.213976860046387,-0.02140442281961441
1690462489393441127,,16286,,1690462489,393386266,"""world""",,,3.3600313663482666,13.213996887207031,-0.021398700773715973
1690462489403510203,,16287,,1690462489,403424703,"""world""",,,3.3600447177886963,13.214005470275879,-0.021411972120404243
1690462489413469947,,16288,,1690462489,413413067,"""world""",,,3.360037088394165,13.213990211486816,-0.021398790180683136
1690462489423430070,,16289,,1690462489,423383613,"""world""",,,3.360018491744995,13.213995933532715,-0.021398788318037987
1690462489433472736,,16290,,1690462489,433399186,"""world""",,,3.3600270748138428,13.214001655578613,-0.02138637565076351
1690462489443478271,,16291,,1690462489,443397543,"""world""",,,3.360020875930786,13.213996887207031,-0.021388033404946327
1690462489453499087,,16292,,1690462489,453415555,"""world""",,,3.3600385189056396,13.213995933532715,-0.0214092954993248
1690462489463470828,,16293,,1690462489,463406682,"""world""",,,3.3600361347198486,13.213996887207031,-0.021400414407253265
1690462489473481882,,16294,,1690462489,473411293,"""world""",,,3.3600218296051025,13.213967323303223,-0.02140256203711033
1690462489483485017,,16295,,1690462489,483412335,"""world""",,,3.360004425048828,13.213970184326172,-0.021385787054896355
1690462489493470714,,16296,,1690462489,493390204,"""world""",,,3.3600094318389893,13.213981628417969,-0.021391265094280243
1690462489503540787,,16297,,1690462489,503454977,"""world""",,,3.3600032329559326,13.213994026184082,-0.021380478516221046
1690462489513466227,,16298,,1690462489,513403116,"""world""",,,3.35998797416687,13.21405029296875,-0.02131526917219162
1690462489523467327,,16299,,1690462489,523382887,"""world""",,,3.3599913120269775,13.213996887207031,-0.021374424919486046
1690462489533476300,,16300,,1690462489,533398388,"""world""",,,3.360001802444458,13.213980674743652,-0.021410830318927765
1690462489543445330,,16301,,1690462489,543391162,"""world""",,,3.3599984645843506,13.21397876739502,-0.021389944478869438
1690462489553472805,,16302,,1690462489,553403080,"""world""",,,3.3599846363067627,13.213993072509766,-0.021396778523921967
1690462489563474497,,16303,,1690462489,563404833,"""world""",,,3.3599891662597656,13.21401309967041,-0.021350635215640068
1690462489573455999,,16304,,1690462489,573397738,"""world""",,,3.3599770069122314,13.214009284973145,-0.021349672228097916
1690462489583459305,,16305,,1690462489,583381830,"""world""",,,3.3599812984466553,13.213994026184082,-0.021365875378251076
1690462489593439595,,16306,,1690462489,593388411,"""world""",,,3.3599960803985596,13.214024543762207,-0.021344780921936035
1690462489603506656,,16307,,1690462489,603424659,"""world""",,,3.360001802444458,13.214015007019043,-0.02137771062552929
1690462489613456251,,16308,,1690462489,613397830,"""world""",,,3.360018491744995,13.213984489440918,-0.021389516070485115
1690462489623434998,,16309,,1690462489,623384476,"""world""",,,3.360020875930786,13.21401309967041,-0.021381959319114685
1690462489633485644,,16310,,1690462489,633395752,"""world""",,,3.359983444213867,13.214008331298828,-0.021390749141573906
1690462489643486882,,16311,,1690462489,643394842,"""world""",,,3.3600282669067383,13.214000701904297,-0.021373240277171135
1690462489653469925,,16312,,1690462489,653410684,"""world""",,,3.360020875930786,13.213996887207031,-0.021364780142903328
1690462489663499205,,16313,,1690462489,663402915,"""world""",,,3.360031843185425,13.21401596069336,-0.021427026018500328
1690462489673482023,,16314,,1690462489,673396209,"""world""",,,3.359980821609497,13.214045524597168,-0.021337250247597694
1690462489683458404,,16315,,1690462489,683380951,"""world""",,,3.3600051403045654,13.213963508605957,-0.02139333449304104
1690462489693436658,,16316,,1690462489,693388004,"""world""",,,3.36000919342041,13.213995933532715,-0.021416189149022102
1690462489703525847,,16317,,1690462489,703439151,"""world""",,,3.3600080013275146,13.21399974822998,-0.02136206440627575
1690462489713452170,,16318,,1690462489,713395933,"""world""",,,3.359990358352661,13.214042663574219,-0.021337658166885376
1690462489723435539,,16319,,1690462489,723387896,"""world""",,,3.3599941730499268,13.21401309967041,-0.02136821299791336
1690462489733450317,,16320,,1690462489,733394487,"""world""",,,3.360025405883789,13.2139892578125,-0.021404070779681206
1690462489743474674,,16321,,1690462489,743393914,"""world""",,,3.360011339187622,13.213955879211426,-0.021389586851000786
1690462489753474103,,16322,,1690462489,753416139,"""world""",,,3.3600189685821533,13.21397876739502,-0.021414168179035187
1690462489763489751,,16323,,1690462489,763397342,"""world""",,,3.3600332736968994,13.2139892578125,-0.021393777802586555
1690462489773487752,,16324,,1690462489,773396497,"""world""",,,3.360036849975586,13.213994026184082,-0.021405450999736786
1690462489783461515,,16325,,1690462489,783380520,"""world""",,,3.3600213527679443,13.213990211486816,-0.02139580436050892
1690462489793450291,,16326,,1690462489,793388164,"""world""",,,3.360018014907837,13.213946342468262,-0.021428052335977554
1690462489803499091,,16327,,1690462489,803405600,"""world""",,,3.3599846363067627,13.213951110839844,-0.021430397406220436
1690462489813452762,,16328,,1690462489,813396844,"""world""",,,3.359971284866333,13.21395492553711,-0.021416420117020607
1690462489823427557,,16329,,1690462489,823380709,"""world""",,,3.360034227371216,13.2139310836792,-0.021319203078746796
1690462489833472363,,16330,,1690462489,833404779,"""world""",,,3.3600523471832275,13.213788032531738,-0.021398000419139862
1690462489843457341,,16331,,1690462489,843395552,"""world""",,,3.3600757122039795,13.213680267333984,-0.02141410857439041
1690462489853474001,,16332,,1690462489,853400396,"""world""",,,3.3601083755493164,13.213573455810547,-0.02137230522930622
1690462489863457150,,16333,,1690462489,863398776,"""world""",,,3.360159158706665,13.213424682617188,-0.021389365196228027
1690462489873453094,,16334,,1690462489,873395861,"""world""",,,3.360166549682617,13.213290214538574,-0.021424921229481697
1690462489883429315,,16335,,1690462489,883382716,"""world""",,,3.360258102416992,13.213213920593262,-0.0212764460593462
1690462489893443552,,16336,,1690462489,893389197,"""world""",,,3.3602817058563232,13.213116645812988,-0.02131500653922558
1690462489903499809,,16337,,1690462489,903407126,"""world""",,,3.3602991104125977,13.212986946105957,-0.02139613777399063
1690462489913494544,,16338,,1690462489,913396569,"""world""",,,3.3604650497436523,13.212692260742188,-0.021440723910927773
1690462489923490380,,16339,,1690462489,923379719,"""world""",,,3.3605563640594482,13.212634086608887,-0.0213974267244339
1690462489933461795,,16340,,1690462489,933402116,"""world""",,,3.3605737686157227,13.212483406066895,-0.02141978032886982
1690462489943463764,,16341,,1690462489,943395138,"""world""",,,3.36063551902771,13.21241283416748,-0.02139933593571186
1690462489953474096,,16342,,1690462489,953404851,"""world""",,,3.3607161045074463,13.212295532226562,-0.021327804774045944
1690462489963457729,,16343,,1690462489,963397007,"""world""",,,3.3608102798461914,13.21219539642334,-0.02118142694234848
1690462489973459878,,16344,,1690462489,973397283,"""world""",,,3.3608686923980713,13.212109565734863,-0.021104412153363228
1690462489983434525,,16345,,1690462489,983384001,"""world""",,,3.361003875732422,13.211949348449707,-0.021050410345196724
1690462489993456905,,16346,,1690462489,993401365,"""world""",,,3.361112594604492,13.211773872375488,-0.020921485498547554
1690462490003478856,,16347,,1690462490,3406250,"""world""",,,3.361219644546509,13.211565971374512,-0.02082512527704239
1690462490013457115,,16348,,1690462490,13400601,"""world""",,,3.3613831996917725,13.21138858795166,-0.020606694743037224
1690462490023440152,,16349,,1690462490,23387887,"""world""",,,3.3616092205047607,13.21108627319336,-0.02044535242021084
1690462490033453330,,16350,,1690462490,33396557,"""world""",,,3.3618814945220947,13.210844993591309,-0.020240165293216705
1690462490043470098,,16351,,1690462490,43404711,"""world""",,,3.3621976375579834,13.21059513092041,-0.019912928342819214
1690462490053474796,,16352,,1690462490,53396939,"""world""",,,3.3623340129852295,13.210183143615723,-0.019305525347590446
1690462490063459568,,16353,,1690462490,63397158,"""world""",,,3.3626630306243896,13.210033416748047,-0.01889948360621929
1690462490073476887,,16354,,1690462490,73405633,"""world""",,,3.362938165664673,13.209748268127441,-0.01806512288749218
1690462490083427936,,16355,,1690462490,83382938,"""world""",,,3.36332106590271,13.209464073181152,-0.017208008095622063
1690462490093465144,,16356,,1690462490,93403353,"""world""",,,3.363645553588867,13.209220886230469,-0.016194358468055725
1690462490103515056,,16357,,1690462490,103412788,"""world""",,,3.3639564514160156,13.208969116210938,-0.01508067175745964
1690462490113453025,,16358,,1690462490,113396442,"""world""",,,3.3645131587982178,13.20889663696289,-0.013999690301716328
1690462490123426322,,16359,,1690462490,123381186,"""world""",,,3.3647186756134033,13.208381652832031,-0.012209543026983738
1690462490133493852,,16360,,1690462490,133412130,"""world""",,,3.3651092052459717,13.208136558532715,-0.010414043441414833
1690462490143523624,,16361,,1690462490,143417768,"""world""",,,3.3656046390533447,13.207828521728516,-0.00859151966869831
1690462490153483674,,16362,,1690462490,153400099,"""world""",,,3.3662264347076416,13.207473754882812,-0.0065642246045172215
1690462490163494694,,16363,,1690462490,163429491,"""world""",,,3.36691951751709,13.207121849060059,-0.004356402903795242
1690462490173572636,,16364,,1690462490,173444492,"""world""",,,3.367502212524414,13.206612586975098,-0.001851388020440936
1690462490183515149,,16365,,1690462490,183410559,"""world""",,,3.3681702613830566,13.206315994262695,0.0010533432941883802
1690462490193532413,,16366,,1690462490,193422561,"""world""",,,3.368784189224243,13.205775260925293,0.004091729409992695
1690462490203576482,,16367,,1690462490,203445348,"""world""",,,3.3695523738861084,13.20527458190918,0.007630505133420229
1690462490213517592,,16368,,1690462490,213426018,"""world""",,,3.370330572128296,13.2047119140625,0.011389232240617275
1690462490223487293,,16369,,1690462490,223412280,"""world""",,,3.371086835861206,13.204039573669434,0.015495887957513332
1690462490233456051,,16370,,1690462490,233396683,"""world""",,,3.3718719482421875,13.203551292419434,0.019942507147789
1690462490243454274,,16371,,1690462490,243396649,"""world""",,,3.3725907802581787,13.202919006347656,0.024504054337739944
1690462490253464984,,16372,,1690462490,253397205,"""world""",,,3.3733623027801514,13.202376365661621,0.02959034964442253
1690462490263490349,,16373,,1690462490,263400365,"""world""",,,3.374114751815796,13.201858520507812,0.03482788801193237
1690462490273467369,,16374,,1690462490,273398345,"""world""",,,3.3749454021453857,13.201118469238281,0.04034407436847687
1690462490283426485,,16375,,1690462490,283381984,"""world""",,,3.375849485397339,13.200438499450684,0.04610448330640793
1690462490293473724,,16376,,1690462490,293388539,"""world""",,,3.3767096996307373,13.19990062713623,0.05207088962197304
1690462490303535453,,16377,,1690462490,303401130,"""world""",,,3.3776941299438477,13.199225425720215,0.058240532875061035
1690462490313487850,,16378,,1690462490,313396250,"""world""",,,3.378535032272339,13.198539733886719,0.06457578390836716
1690462490323433852,,16379,,1690462490,323389507,"""world""",,,3.3793842792510986,13.197855949401855,0.07126762717962265
1690462490333477420,,16380,,1690462490,333394250,"""world""",,,3.3801498413085938,13.197246551513672,0.07806672900915146
1690462490343467796,,16381,,1690462490,343403472,"""world""",,,3.380988121032715,13.196632385253906,0.08517974615097046
1690462490353469407,,16382,,1690462490,353411810,"""world""",,,3.3820018768310547,13.196070671081543,0.09223508834838867
1690462490363459214,,16383,,1690462490,363399700,"""world""",,,3.382830858230591,13.195496559143066,0.09953129291534424
1690462490373462067,,16384,,1690462490,373397771,"""world""",,,3.3837461471557617,13.194878578186035,0.1070539653301239
1690462490383462817,,16385,,1690462490,383385109,"""world""",,,3.3843886852264404,13.194259643554688,0.11477131396532059
1690462490393455367,,16386,,1690462490,393398164,"""world""",,,3.3850135803222656,13.193964958190918,0.12274095416069031
1690462490403525327,,16387,,1690462490,403424366,"""world""",,,3.3858635425567627,13.19345474243164,0.13052405416965485
1690462490413489352,,16388,,1690462490,413399461,"""world""",,,3.3866004943847656,13.193092346191406,0.13855516910552979
1690462490423429000,,16389,,1690462490,423382952,"""world""",,,3.3872146606445312,13.19275951385498,0.14700596034526825
1690462490433476420,,16390,,1690462490,433407293,"""world""",,,3.387925386428833,13.192298889160156,0.15516243875026703
1690462490443466435,,16391,,1690462490,443402318,"""world""",,,3.388537645339966,13.19207763671875,0.1637284904718399
1690462490453489530,,16392,,1690462490,453421982,"""world""",,,3.3890883922576904,13.191742897033691,0.1723550707101822
1690462490463453822,,16393,,1690462490,463396837,"""world""",,,3.3897411823272705,13.191428184509277,0.1809510737657547
1690462490473461603,,16394,,1690462490,473396011,"""world""",,,3.3902130126953125,13.19115161895752,0.18978577852249146
1690462490483467412,,16395,,1690462490,483384423,"""world""",,,3.3907060623168945,13.19091796875,0.19859135150909424
1690462490493456331,,16396,,1690462490,493398775,"""world""",,,3.3911514282226562,13.190739631652832,0.20777501165866852
1690462490503545201,,16397,,1690462490,503416217,"""world""",,,3.3915510177612305,13.190581321716309,0.21682091057300568
1690462490513488742,,16398,,1690462490,513398922,"""world""",,,3.3919966220855713,13.190361022949219,0.22599171102046967
1690462490523434648,,16399,,1690462490,523385508,"""world""",,,3.392274856567383,13.190323829650879,0.23537008464336395
1690462490533445804,,16400,,1690462490,533392669,"""world""",,,3.3927485942840576,13.190117835998535,0.24467141926288605
1690462490543462718,,16401,,1690462490,543408141,"""world""",,,3.392991065979004,13.190093994140625,0.2540712058544159
1690462490553460530,,16402,,1690462490,553396884,"""world""",,,3.393278121948242,13.189982414245605,0.26363706588745117
1690462490563457126,,16403,,1690462490,563399117,"""world""",,,3.393653631210327,13.19000244140625,0.27321305871009827
1690462490573505940,,16404,,1690462490,573403497,"""world""",,,3.393831491470337,13.189906120300293,0.28283223509788513
1690462490583467160,,16405,,1690462490,583383459,"""world""",,,3.3940227031707764,13.189898490905762,0.2925861179828644
1690462490593522571,,16406,,1690462490,593388391,"""world""",,,3.39435076713562,13.189976692199707,0.30236753821372986
1690462490603550648,,16407,,1690462490,603430481,"""world""",,,3.394432783126831,13.1898193359375,0.31225064396858215
1690462490613489752,,16408,,1690462490,613396694,"""world""",,,3.394484519958496,13.189959526062012,0.3222358524799347
1690462490623466247,,16409,,1690462490,623384010,"""world""",,,3.394712209701538,13.190032005310059,0.3322189748287201
1690462490633527260,,16410,,1690462490,633432721,"""world""",,,3.3947246074676514,13.189995765686035,0.34223294258117676
1690462490643555773,,16411,,1690462490,643428360,"""world""",,,3.3948304653167725,13.1901273727417,0.35237035155296326
1690462490653532008,,16412,,1690462490,653416996,"""world""",,,3.3949882984161377,13.1901216506958,0.36244145035743713
1690462490663525856,,16413,,1690462490,663431150,"""world""",,,3.394979476928711,13.190139770507812,0.37257328629493713
1690462490673527234,,16414,,1690462490,673426019,"""world""",,,3.395003080368042,13.19027328491211,0.38285255432128906
1690462490683501580,,16415,,1690462490,683412673,"""world""",,,3.395007848739624,13.19036865234375,0.39307689666748047
1690462490693523565,,16416,,1690462490,693421855,"""world""",,,3.3949477672576904,13.190434455871582,0.4033447802066803
1690462490703580340,,16417,,1690462490,703451794,"""world""",,,3.39489483833313,13.190510749816895,0.4136314392089844
1690462490713451085,,16418,,1690462490,713397584,"""world""",,,3.3947556018829346,13.190620422363281,0.42387887835502625
1690462490723528719,,16419,,1690462490,723409940,"""world""",,,3.3946940898895264,13.190646171569824,0.4341951310634613
1690462490733534083,,16420,,1690462490,733433272,"""world""",,,3.3945608139038086,13.190746307373047,0.44449278712272644
1690462490743532465,,16421,,1690462490,743432099,"""world""",,,3.394423723220825,13.190840721130371,0.4548308849334717
1690462490753486593,,16422,,1690462490,753410866,"""world""",,,3.394258499145508,13.19091796875,0.4650069773197174
1690462490763451809,,16423,,1690462490,763397768,"""world""",,,3.394049882888794,13.191004753112793,0.4753662347793579
1690462490773513030,,16424,,1690462490,773413317,"""world""",,,3.3939008712768555,13.191105842590332,0.4857076108455658
1690462490783429092,,16425,,1690462490,783381521,"""world""",,,3.3936898708343506,13.191207885742188,0.49585309624671936
1690462490793441459,,16426,,1690462490,793387305,"""world""",,,3.393472671508789,13.191340446472168,0.5061020851135254
1690462490803548104,,16427,,1690462490,803418574,"""world""",,,3.3932669162750244,13.191483497619629,0.5163035988807678
1690462490813492995,,16428,,1690462490,813396053,"""world""",,,3.3929805755615234,13.191620826721191,0.5264785289764404
1690462490823458240,,16429,,1690462490,823410350,"""world""",,,3.3927252292633057,13.191764831542969,0.5366067886352539
1690462490833481599,,16430,,1690462490,833405524,"""world""",,,3.392507553100586,13.191878318786621,0.5466455221176147
1690462490843456865,,16431,,1690462490,843397003,"""world""",,,3.3922221660614014,13.192035675048828,0.5566210746765137
1690462490853507000,,16432,,1690462490,853434994,"""world""",,,3.3918797969818115,13.192200660705566,0.5666706562042236
1690462490863489107,,16433,,1690462490,863429281,"""world""",,,3.391632318496704,13.19235610961914,0.5766446590423584
1690462490873504504,,16434,,1690462490,873438166,"""world""",,,3.391301155090332,13.192559242248535,0.5864432454109192
1690462490883499887,,16435,,1690462490,883415330,"""world""",,,3.3910014629364014,13.192802429199219,0.5962566137313843
1690462490893479385,,16436,,1690462490,893420945,"""world""",,,3.3906357288360596,13.192925453186035,0.6060711741447449
1690462490903492013,,16437,,1690462490,903413072,"""world""",,,3.3903262615203857,13.193121910095215,0.6156633496284485
1690462490913460383,,16438,,1690462490,913401754,"""world""",,,3.390012741088867,13.193379402160645,0.6253302693367004
1690462490923429379,,16439,,1690462490,923383915,"""world""",,,3.389615297317505,13.193558692932129,0.6348097324371338
1690462490933478792,,16440,,1690462490,933405464,"""world""",,,3.3892829418182373,13.19381046295166,0.6443000435829163
1690462490943456987,,16441,,1690462490,943396910,"""world""",,,3.388981580734253,13.194046020507812,0.6536996960639954
1690462490953469699,,16442,,1690462490,953401969,"""world""",,,3.3886184692382812,13.194267272949219,0.6629484295845032
1690462490963459431,,16443,,1690462490,963398064,"""world""",,,3.388273000717163,13.194541931152344,0.6722151637077332
1690462490973542690,,16444,,1690462490,973402114,"""world""",,,3.3878936767578125,13.194676399230957,0.6813320517539978
1690462490983493791,,16445,,1690462490,983412396,"""world""",,,3.3875367641448975,13.194952964782715,0.69046950340271
1690462490993556371,,16446,,1690462490,993423175,"""world""",,,3.3870954513549805,13.19517993927002,0.6993927955627441
1690462491003546986,,16447,,1690462491,3416953,"""world""",,,3.3868319988250732,13.19552230834961,0.7082334160804749
1690462491013562244,,16448,,1690462491,13428028,"""world""",,,3.3864428997039795,13.19571590423584,0.7170149683952332
1690462491023527243,,16449,,1690462491,23409944,"""world""",,,3.386122941970825,13.196006774902344,0.7257527709007263
1690462491033502955,,16450,,1690462491,33427504,"""world""",,,3.3857383728027344,13.196307182312012,0.7343432903289795
1690462491043489381,,16451,,1690462491,43428105,"""world""",,,3.385378837585449,13.196608543395996,0.7427318692207336
1690462491053498890,,16452,,1690462491,53400539,"""world""",,,3.385188102722168,13.196837425231934,0.7509937286376953
1690462491063527523,,16453,,1690462491,63431358,"""world""",,,3.3847758769989014,13.197196960449219,0.7593825459480286
1690462491073475759,,16454,,1690462491,73405546,"""world""",,,3.3845882415771484,13.197369575500488,0.7674898505210876
1690462491083443900,,16455,,1690462491,83390257,"""world""",,,3.3842220306396484,13.19775390625,0.7756047248840332
1690462491093482011,,16456,,1690462491,93425723,"""world""",,,3.383979082107544,13.198067665100098,0.7834551930427551
1690462491104264770,,16457,,1690462491,103445729,"""world""",,,3.3837480545043945,13.198302268981934,0.7913308143615723
1690462491113487785,,16458,,1690462491,113428785,"""world""",,,3.3833999633789062,13.198651313781738,0.7990822792053223
1690462491123463903,,16459,,1690462491,123416346,"""world""",,,3.38314151763916,13.198944091796875,0.8065951466560364
1690462491133481844,,16460,,1690462491,133413513,"""world""",,,3.3828089237213135,13.199278831481934,0.814182460308075
1690462491143498097,,16461,,1690462491,143430701,"""world""",,,3.382611036300659,13.199684143066406,0.8215150833129883
1690462491153538289,,16462,,1690462491,153452317,"""world""",,,3.3823468685150146,13.199885368347168,0.8288508057594299
1690462491163464276,,16463,,1690462491,163401907,"""world""",,,3.3820555210113525,13.200206756591797,0.836004912853241
1690462491173469105,,16464,,1690462491,173407476,"""world""",,,3.3817615509033203,13.20055866241455,0.8430587649345398
1690462491183499359,,16465,,1690462491,183416855,"""world""",,,3.3815600872039795,13.200969696044922,0.8499584197998047
1690462491193481905,,16466,,1690462491,193419139,"""world""",,,3.3813655376434326,13.201324462890625,0.8567320704460144
1690462491203554430,,16467,,1690462491,203449198,"""world""",,,3.381150007247925,13.201621055603027,0.8634753227233887
1690462491213470701,,16468,,1690462491,213402104,"""world""",,,3.3809032440185547,13.20197582244873,0.8700589537620544
1690462491223460045,,16469,,1690462491,223410270,"""world""",,,3.3807241916656494,13.202357292175293,0.876488983631134
1690462491233494403,,16470,,1690462491,233431620,"""world""",,,3.3805735111236572,13.202803611755371,0.8827717304229736
1690462491243522059,,16471,,1690462491,243428452,"""world""",,,3.380411148071289,13.203150749206543,0.8889443278312683
1690462491253502780,,16472,,1690462491,253434359,"""world""",,,3.3802592754364014,13.203572273254395,0.894993782043457
1690462491263461969,,16473,,1690462491,263399395,"""world""",,,3.3800928592681885,13.203873634338379,0.9010394215583801
1690462491273467291,,16474,,1690462491,273397128,"""world""",,,3.380000114440918,13.204333305358887,0.9067150950431824
1690462491283437717,,16475,,1690462491,283382766,"""world""",,,3.3798563480377197,13.204704284667969,0.9125581383705139
1690462491293443805,,16476,,1690462491,293388285,"""world""",,,3.379716634750366,13.205131530761719,0.9181450009346008
1690462491303498607,,16477,,1690462491,303411534,"""world""",,,3.379615545272827,13.205513954162598,0.9236263632774353
1690462491313464253,,16478,,1690462491,313397837,"""world""",,,3.3794915676116943,13.20593547821045,0.9289990067481995
1690462491323465993,,16479,,1690462491,323382383,"""world""",,,3.3793957233428955,13.20638656616211,0.9341948628425598
1690462491333451476,,16480,,1690462491,333394732,"""world""",,,3.379338502883911,13.206917762756348,0.9392594695091248
1690462491343448329,,16481,,1690462491,343392729,"""world""",,,3.3792216777801514,13.207306861877441,0.9443798065185547
1690462491353454336,,16482,,1690462491,353389765,"""world""",,,3.3791351318359375,13.207813262939453,0.949200451374054
1690462491363458581,,16483,,1690462491,363395300,"""world""",,,3.3791463375091553,13.208203315734863,0.9538570046424866
1690462491373449387,,16484,,1690462491,373392336,"""world""",,,3.379129648208618,13.208611488342285,0.9585160613059998
1690462491383433115,,16485,,1690462491,383381738,"""world""",,,3.379098892211914,13.209030151367188,0.9631335139274597
1690462491393444753,,16486,,1690462491,393384427,"""world""",,,3.3790132999420166,13.209442138671875,0.9676828384399414
1690462491403479711,,16487,,1690462491,403400717,"""world""",,,3.3788681030273438,13.2099609375,0.9720589518547058
1690462491413490229,,16488,,1690462491,413398079,"""world""",,,3.3787851333618164,13.210479736328125,0.9763500094413757
1690462491423432824,,16489,,1690462491,423380541,"""world""",,,3.378812551498413,13.210848808288574,0.9804854393005371
1690462491433467796,,16490,,1690462491,433399064,"""world""",,,3.3787620067596436,13.211230278015137,0.9844995141029358
1690462491443492027,,16491,,1690462491,443400353,"""world""",,,3.3786818981170654,13.211674690246582,0.9884614944458008
1690462491453496873,,16492,,1690462491,453420654,"""world""",,,3.378697156906128,13.212092399597168,0.99239581823349
1690462491463496596,,16493,,1690462491,463397601,"""world""",,,3.3786537647247314,13.212491035461426,0.9961684346199036
1690462491473520569,,16494,,1690462491,473399939,"""world""",,,3.378624200820923,13.21292781829834,0.9997987747192383
1690462491483481628,,16495,,1690462491,483384220,"""world""",,,3.3785197734832764,13.21335506439209,1.0035078525543213
1690462491493509725,,16496,,1690462491,493431952,"""world""",,,3.3784961700439453,13.213784217834473,1.0069929361343384
1690462491503560832,,16497,,1690462491,503451885,"""world""",,,3.378525733947754,13.214259147644043,1.010358452796936
1690462491513495975,,16498,,1690462491,513402247,"""world""",,,3.3784873485565186,13.214755058288574,1.0137542486190796
1690462491523437217,,16499,,1690462491,523386094,"""world""",,,3.3785457611083984,13.215187072753906,1.0169566869735718
1690462491533459301,,16500,,1690462491,533397857,"""world""",,,3.378465414047241,13.215624809265137,1.0202163457870483
1690462491543483102,,16501,,1690462491,543396930,"""world""",,,3.3783576488494873,13.215962409973145,1.0234187841415405
1690462491553513074,,16502,,1690462491,553393852,"""world""",,,3.3784005641937256,13.21633243560791,1.0263991355895996
1690462491563494191,,16503,,1690462491,563428863,"""world""",,,3.3783295154571533,13.216781616210938,1.0293341875076294
1690462491573482745,,16504,,1690462491,573428446,"""world""",,,3.3783111572265625,13.217204093933105,1.0322705507278442
1690462491583482042,,16505,,1690462491,583425404,"""world""",,,3.3782308101654053,13.21757984161377,1.035190224647522
1690462491593477016,,16506,,1690462491,593403738,"""world""",,,3.3781917095184326,13.217970848083496,1.0379441976547241
1690462491603578137,,16507,,1690462491,603442099,"""world""",,,3.3781604766845703,13.218335151672363,1.0406383275985718
1690462491613506388,,16508,,1690462491,613425439,"""world""",,,3.3781096935272217,13.218743324279785,1.043410301208496
1690462491623459606,,16509,,1690462491,623401335,"""world""",,,3.3780510425567627,13.219134330749512,1.0460323095321655
1690462491633459992,,16510,,1690462491,633401306,"""world""",,,3.378030776977539,13.219521522521973,1.0484861135482788
1690462491643461658,,16511,,1690462491,643399105,"""world""",,,3.377997636795044,13.219826698303223,1.051125407218933
1690462491653456850,,16512,,1690462491,653395563,"""world""",,,3.3779103755950928,13.220192909240723,1.0534588098526
1690462491663469624,,16513,,1690462491,663403389,"""world""",,,3.377850294113159,13.220447540283203,1.055967926979065
1690462491673489128,,16514,,1690462491,673397260,"""world""",,,3.3778016567230225,13.220783233642578,1.0583192110061646
1690462491683433990,,16515,,1690462491,683382505,"""world""",,,3.37773060798645,13.221153259277344,1.0606483221054077
1690462491693463589,,16516,,1690462491,693387579,"""world""",,,3.377718925476074,13.221400260925293,1.0628987550735474
1690462491703584917,,16517,,1690462491,703439096,"""world""",,,3.37750506401062,13.22186279296875,1.0651222467422485
1690462491713464557,,16518,,1690462491,713395304,"""world""",,,3.377610921859741,13.222068786621094,1.0673266649246216
1690462491723427869,,16519,,1690462491,723379566,"""world""",,,3.3775312900543213,13.222447395324707,1.0694304704666138
1690462491733454478,,16520,,1690462491,733393321,"""world""",,,3.377389669418335,13.222807884216309,1.071553111076355
1690462491743451306,,16521,,1690462491,743395169,"""world""",,,3.3773975372314453,13.22308349609375,1.073612093925476
1690462491753471553,,16522,,1690462491,753392344,"""world""",,,3.3772051334381104,13.223422050476074,1.0756665468215942
1690462491763477378,,16523,,1690462491,763400517,"""world""",,,3.377138376235962,13.223719596862793,1.0776017904281616
1690462491773511904,,16524,,1690462491,773429353,"""world""",,,3.3772010803222656,13.223945617675781,1.0796414613723755
1690462491783458341,,16525,,1690462491,783387519,"""world""",,,3.377056121826172,13.224289894104004,1.0815047025680542
1690462491793499009,,16526,,1690462491,793420823,"""world""",,,3.3769893646240234,13.224539756774902,1.0834649801254272
1690462491803625727,,16527,,1690462491,803449683,"""world""",,,3.3770084381103516,13.22479248046875,1.0852338075637817
1690462491813459985,,16528,,1690462491,813401631,"""world""",,,3.376897096633911,13.225045204162598,1.0871981382369995
1690462491823437111,,16529,,1690462491,823385051,"""world""",,,3.3768422603607178,13.225330352783203,1.088887095451355
1690462491833504942,,16530,,1690462491,833406108,"""world""",,,3.376760482788086,13.225563049316406,1.0907987356185913
1690462491843463563,,16531,,1690462491,843398616,"""world""",,,3.376739740371704,13.225761413574219,1.0925047397613525
1690462491853497452,,16532,,1690462491,853424510,"""world""",,,3.3765981197357178,13.225953102111816,1.094279170036316
