rosbagTimestamp,header,seq,stamp,secs,nsecs,frame_id,pose,position,x,y,z
1691262614940980543,,0,,1691262614,940884029,"""world""",,,3.211303472518921,-2.948305130004883,0.07341718673706055
1691262616271017590,,1,,1691262616,270875337,"""world""",,,3.211313247680664,-2.94820237159729,0.07340351492166519
1691262616271026246,,7,,1691262616,270911225,"""world""",,,3.211479902267456,-2.9478816986083984,0.07345374673604965
1691262616280954229,,8,,1691262616,280881319,"""world""",,,3.2116281986236572,-2.9479877948760986,0.0735483169555664
1691262616290967788,,9,,1691262616,290896052,"""world""",,,3.2114360332489014,-2.947767972946167,0.07346200942993164
1691262616301038221,,10,,1691262616,300900463,"""world""",,,3.211559534072876,-2.947777509689331,0.07355912774801254
1691262616310978918,,11,,1691262616,310884383,"""world""",,,3.2114646434783936,-2.9476726055145264,0.07351461797952652
1691262616320938926,,12,,1691262616,320868515,"""world""",,,3.2115862369537354,-2.94767689704895,0.07362190634012222
1691262616330964674,,13,,1691262616,330884266,"""world""",,,3.211477518081665,-2.94763445854187,0.07363859564065933
1691262616341033377,,14,,1691262616,340919780,"""world""",,,3.2114105224609375,-2.947467803955078,0.07362286001443863
1691262616360959736,,15,,1691262616,360875794,"""world""",,,3.211217164993286,-2.947622537612915,0.07393916696310043
1691262616370940323,,16,,1691262616,370873682,"""world""",,,3.211080551147461,-2.9476394653320312,0.07419618964195251
1691262616420942552,,17,,1691262616,420867511,"""world""",,,3.210533857345581,-2.948533296585083,0.07727591693401337
1691262616430965523,,18,,1691262616,430879495,"""world""",,,3.209962844848633,-2.9482688903808594,0.07796479016542435
1691262616460953669,,19,,1691262616,460880265,"""world""",,,3.209944725036621,-2.9492034912109375,0.08237776160240173
1691262616470960556,,20,,1691262616,470881628,"""world""",,,3.2090752124786377,-2.9487087726593018,0.08351565152406693
1691262616480955930,,21,,1691262616,480872701,"""world""",,,3.2086589336395264,-2.948735237121582,0.08521555364131927
1691262616501016490,,22,,1691262616,500917077,"""world""",,,3.2082297801971436,-2.949026107788086,0.08965665847063065
1691262616620949464,,23,,1691262616,620876309,"""world""",,,3.2033207416534424,-2.9562385082244873,0.14042487740516663
1691262616630967017,,24,,1691262616,630889290,"""world""",,,3.202342987060547,-2.956674575805664,0.1461428850889206
1691262616640961574,,25,,1691262616,640885655,"""world""",,,3.20123028755188,-2.9568870067596436,0.15206313133239746
1691262616680967871,,26,,1691262616,680891197,"""world""",,,3.1988003253936768,-2.9602725505828857,0.17869870364665985
1691262616700981633,,27,,1691262616,700884767,"""world""",,,3.1965646743774414,-2.9608447551727295,0.1925312578678131
1691262616741031635,,28,,1691262616,740930576,"""world""",,,3.1943750381469727,-2.964815855026245,0.22349777817726135
1691262616880952371,,29,,1691262616,880872000,"""world""",,,3.1846084594726562,-2.9724884033203125,0.32564786076545715
1691262616910943207,,30,,1691262616,910872550,"""world""",,,3.181760787963867,-2.9762370586395264,0.3729022741317749
1691262616950997195,,31,,1691262616,950890376,"""world""",,,3.1797637939453125,-2.979436159133911,0.41200944781303406
1691262617030946604,,32,,1691262617,30867645,"""world""",,,3.175342559814453,-2.9834721088409424,0.49239957332611084
1691262618520949132,,33,,1691262618,520869746,"""world""",,,3.128694772720337,-3.03981876373291,1.2027066946029663
1691262619711035231,,34,,1691262619,710896101,"""world""",,,3.0977423191070557,-3.050421714782715,1.1987199783325195
1691262619711047617,,35,,1691262619,710914863,"""world""",,,3.0969231128692627,-3.050157308578491,1.1984834671020508
1691262619741032396,,36,,1691262619,740872933,"""world""",,,3.091155767440796,-3.0495150089263916,1.1969186067581177
1691262619950986087,,37,,1691262619,950891989,"""world""",,,3.0598902702331543,-3.048902750015259,1.1921285390853882
1691262620260944012,,38,,1691262620,260869582,"""world""",,,2.984708309173584,-3.0488250255584717,1.1884887218475342
1691262620350980812,,39,,1691262620,350887146,"""world""",,,2.9238977432250977,-3.048872947692871,1.187716007232666
1691262620570955637,,40,,1691262620,570878313,"""world""",,,2.8690249919891357,-3.047248363494873,1.187463641166687
1691262622200995602,,41,,1691262622,200897843,"""world""",,,1.6188658475875854,-2.920778274536133,1.192403793334961
1691262622210975989,,42,,1691262622,210876089,"""world""",,,1.6100044250488281,-2.919825315475464,1.1924065351486206
1691262622210984184,,43,,1691262622,210890471,"""world""",,,1.6013027429580688,-2.918762445449829,1.1924206018447876
1691262622211056074,,44,,1691262622,210908532,"""world""",,,1.5925122499465942,-2.918370246887207,1.1925554275512695
1691262622211064923,,52,,1691262622,210944605,"""world""",,,1.522104263305664,-2.909524917602539,1.1920078992843628
1691262622220959719,,53,,1691262622,220871568,"""world""",,,1.513201117515564,-2.9082696437835693,1.191856861114502
1691262622230959664,,54,,1691262622,230866704,"""world""",,,1.5043357610702515,-2.9075355529785156,1.1918808221817017
1691262622240987512,,55,,1691262622,240876494,"""world""",,,1.4956464767456055,-2.906376600265503,1.1919307708740234
1691262622251062074,,56,,1691262622,250918034,"""world""",,,1.4866727590560913,-2.9051313400268555,1.1918015480041504
1691262622260963077,,57,,1691262622,260892129,"""world""",,,1.4779558181762695,-2.9042041301727295,1.1917904615402222
1691262622270984317,,58,,1691262622,270904606,"""world""",,,1.4690465927124023,-2.9030954837799072,1.191832423210144
1691262622281007502,,59,,1691262622,280905233,"""world""",,,1.4602853059768677,-2.902099847793579,1.1918460130691528
1691262622291025674,,60,,1691262622,290890425,"""world""",,,1.451359748840332,-2.9009244441986084,1.1917400360107422
1691262622301005409,,61,,1691262622,300905342,"""world""",,,1.44268798828125,-2.9004056453704834,1.191832184791565
1691262622311080751,,62,,1691262622,310923726,"""world""",,,1.4338151216506958,-2.8991315364837646,1.1918898820877075
1691262622320914430,,63,,1691262622,320832342,"""world""",,,1.4249502420425415,-2.897954225540161,1.1918911933898926
1691262622330941541,,64,,1691262622,330871853,"""world""",,,1.4161127805709839,-2.8968801498413086,1.1917669773101807
1691262622340965735,,65,,1691262622,340872452,"""world""",,,1.4072551727294922,-2.8960163593292236,1.191826343536377
1691262622350998585,,66,,1691262622,350875183,"""world""",,,1.3984789848327637,-2.894946336746216,1.19192373752594
1691262622360971616,,67,,1691262622,360874746,"""world""",,,1.389674186706543,-2.8939850330352783,1.191914677619934
1691262622370956154,,68,,1691262622,370869055,"""world""",,,1.380803108215332,-2.893242835998535,1.1919010877609253
1691262622380947334,,69,,1691262622,380870870,"""world""",,,1.3719676733016968,-2.8918991088867188,1.1918636560440063
1691262622390945513,,70,,1691262622,390869480,"""world""",,,1.363081455230713,-2.8908374309539795,1.191902995109558
1691262622401001063,,71,,1691262622,400898990,"""world""",,,1.3542007207870483,-2.8898494243621826,1.1919277906417847
1691262622411057211,,72,,1691262622,410881029,"""world""",,,1.3453329801559448,-2.88875675201416,1.1917887926101685
1691262622420993285,,73,,1691262622,420890573,"""world""",,,1.3365098237991333,-2.8878631591796875,1.1919363737106323
1691262622430953830,,74,,1691262622,430875498,"""world""",,,1.3276389837265015,-2.8867976665496826,1.1919198036193848
1691262622440989314,,75,,1691262622,440893519,"""world""",,,1.3189363479614258,-2.8863391876220703,1.1920804977416992
1691262622450982895,,76,,1691262622,450893100,"""world""",,,1.3098927736282349,-2.8847312927246094,1.1918400526046753
1691262622460949260,,77,,1691262622,460874608,"""world""",,,1.301087737083435,-2.88385272026062,1.191996693611145
1691262622470939934,,78,,1691262622,470869143,"""world""",,,1.2921477556228638,-2.882824182510376,1.1920065879821777
1691262622480960276,,79,,1691262622,480881138,"""world""",,,1.2832893133163452,-2.8817758560180664,1.1919361352920532
1691262622490989677,,80,,1691262622,490913096,"""world""",,,1.2743737697601318,-2.8806679248809814,1.192013144493103
1691262622501042597,,81,,1691262622,500909229,"""world""",,,1.2655993700027466,-2.8797502517700195,1.1920937299728394
1691262622510969980,,82,,1691262622,510879010,"""world""",,,1.2566787004470825,-2.8787319660186768,1.192105770111084
1691262622520966191,,83,,1691262622,520884028,"""world""",,,1.247648000717163,-2.877600908279419,1.1920887231826782
1691262622530951287,,84,,1691262622,530889226,"""world""",,,1.238843321800232,-2.8765976428985596,1.1920849084854126
1691262622540965795,,85,,1691262622,540872257,"""world""",,,1.2300909757614136,-2.875847816467285,1.192189335823059
1691262622560988407,,86,,1691262622,560904667,"""world""",,,1.2122687101364136,-2.8737151622772217,1.1923023462295532
1691262622571001473,,87,,1691262622,570915926,"""world""",,,1.2034047842025757,-2.872856378555298,1.192319393157959
1691262622590980191,,88,,1691262622,590900638,"""world""",,,1.1857389211654663,-2.870943307876587,1.192635178565979
1691262622601038526,,89,,1691262622,600930661,"""world""",,,1.1768637895584106,-2.869993209838867,1.1925885677337646
1691262622620996111,,90,,1691262622,620891928,"""world""",,,1.1589850187301636,-2.8678948879241943,1.1928257942199707
1691262622630969773,,91,,1691262622,630868002,"""world""",,,1.1501765251159668,-2.867098093032837,1.1928900480270386
1691262628251171224,,92,,1691262628,250941100,"""world""",,,0.10101085156202316,-1.0680283308029175,1.3470076322555542
1691262628251180593,,93,,1691262628,250972143,"""world""",,,0.12887369096279144,-1.0665194988250732,1.3485591411590576
1691262628311042370,,94,,1691262628,310932169,"""world""",,,0.1902247965335846,-1.0647077560424805,1.3517773151397705
1691262629270992069,,95,,1691262629,270883362,"""world""",,,1.0654804706573486,-1.1132103204727173,1.3921661376953125
1691262633630952184,,96,,1691262633,630875479,"""world""",,,5.23282527923584,-2.5146267414093018,1.50417160987854
1691262633641032415,,97,,1691262633,640902916,"""world""",,,5.213588237762451,-2.521712303161621,1.5024683475494385
1691262633670976495,,98,,1691262633,670902459,"""world""",,,5.191992282867432,-2.5390090942382812,1.5018712282180786
1691262633840976875,,99,,1691262633,840874230,"""world""",,,5.038488864898682,-2.6254472732543945,1.4960572719573975
1691262633970963547,,100,,1691262633,970864526,"""world""",,,4.910118103027344,-2.6939785480499268,1.4936314821243286
1691262643410949687,,101,,1691262643,410868132,"""world""",,,0.9041516780853271,-0.5672875642776489,1.4801878929138184
1691262644410943898,,102,,1691262644,410871651,"""world""",,,-0.6652777791023254,-0.5758837461471558,1.548850178718567
1691262644470944334,,103,,1691262644,470870436,"""world""",,,-0.905466616153717,-0.5755971670150757,1.5556716918945312
1691262645140956160,,104,,1691262645,140875433,"""world""",,,-1.7987650632858276,-0.5830400586128235,1.569286823272705
1691262645220946894,,105,,1691262645,220871351,"""world""",,,-1.9806970357894897,-0.6096806526184082,1.572055697441101
1691262645420964498,,106,,1691262645,420870964,"""world""",,,-2.030808210372925,-0.6233610510826111,1.572991967201233
1691262645420972702,,107,,1691262645,420883692,"""world""",,,-2.090297222137451,-0.6405247449874878,1.57455575466156
1691262645420989382,,108,,1691262645,420900366,"""world""",,,-2.0982110500335693,-0.6436451077461243,1.5747871398925781
1691262645440934310,,109,,1691262645,440865181,"""world""",,,-2.1434566974639893,-0.6619557738304138,1.5754534006118774
1691262645451008048,,110,,1691262645,450910707,"""world""",,,-2.1478331089019775,-0.6640421748161316,1.5758249759674072
1691262645730957271,,111,,1691262645,730874342,"""world""",,,-2.166435718536377,-0.6722968220710754,1.5755091905593872
1691262645730965351,,112,,1691262645,730887390,"""world""",,,-2.2027175426483154,-0.6934823989868164,1.5750421285629272
1691262645731005406,,113,,1691262645,730901112,"""world""",,,-2.232076406478882,-0.7167730927467346,1.5743321180343628
1691262645731012907,,118,,1691262645,730924671,"""world""",,,-2.2656073570251465,-0.7540121674537659,1.5703628063201904
1691262645740914022,,119,,1691262645,740860797,"""world""",,,-2.2675676345825195,-0.7578198313713074,1.5694632530212402
1691262645751096775,,120,,1691262645,750920570,"""world""",,,-2.2688400745391846,-0.7619957327842712,1.5696011781692505
1691262645851020659,,121,,1691262645,850912533,"""world""",,,-2.2721824645996094,-0.7644882202148438,1.568168044090271
1691262645851051026,,122,,1691262645,850951226,"""world""",,,-2.274686813354492,-0.7682286500930786,1.5683213472366333
1691262645851062271,,124,,1691262645,850973998,"""world""",,,-2.283085346221924,-0.7900188565254211,1.564476490020752
1691262645860952128,,125,,1691262645,860872546,"""world""",,,-2.285296678543091,-0.8010799884796143,1.562462568283081
1691262645891004571,,126,,1691262645,890905423,"""world""",,,-2.2861883640289307,-0.8124192357063293,1.5597501993179321
1691262645910972041,,127,,1691262645,910879828,"""world""",,,-2.2872323989868164,-0.8196473717689514,1.558302402496338
1691262645951021945,,128,,1691262645,950929876,"""world""",,,-2.286072254180908,-0.8351390361785889,1.5553754568099976
1691262645960979006,,129,,1691262645,960873276,"""world""",,,-2.2864949703216553,-0.8386711478233337,1.5539007186889648
1691262645980937369,,130,,1691262645,980865836,"""world""",,,-2.2862987518310547,-0.8421393632888794,1.5528751611709595
1691262646020940218,,131,,1691262646,20868289,"""world""",,,-2.281029462814331,-0.8627147078514099,1.5478155612945557
1691262646030946647,,132,,1691262646,30862297,"""world""",,,-2.2804439067840576,-0.8655916452407837,1.5468552112579346
1691262646040957242,,133,,1691262646,40876283,"""world""",,,-2.2777373790740967,-0.8699848651885986,1.5462260246276855
1691262646060942592,,134,,1691262646,60870953,"""world""",,,-2.2755539417266846,-0.8771491646766663,1.5435786247253418
1691262646201016754,,135,,1691262646,200883214,"""world""",,,-2.272125720977783,-0.888525664806366,1.540551781654358
1691262646201028831,,136,,1691262646,200901329,"""world""",,,-2.2664794921875,-0.8966400027275085,1.538293719291687
1691262646201035914,,137,,1691262646,200918950,"""world""",,,-2.253608465194702,-0.9193490147590637,1.5314797163009644
1691262646201043295,,138,,1691262646,200924923,"""world""",,,-2.2451634407043457,-0.932459831237793,1.5281883478164673
1691262646210941582,,139,,1691262646,210871361,"""world""",,,-2.2432425022125244,-0.9358761310577393,1.5272903442382812
1691262646220941254,,140,,1691262646,220869069,"""world""",,,-2.2394278049468994,-0.9390129446983337,1.5260248184204102
1691262646261024965,,141,,1691262646,260907823,"""world""",,,-2.2254834175109863,-0.9553935527801514,1.5216885805130005
1691262646270939433,,142,,1691262646,270869215,"""world""",,,-2.222034215927124,-0.9594299793243408,1.5207874774932861
1691262646330957831,,143,,1691262646,330870509,"""world""",,,-2.218484878540039,-0.963535726070404,1.5194588899612427
1691262646330962247,,144,,1691262646,330883714,"""world""",,,-2.214660882949829,-0.9675072431564331,1.5186086893081665
1691262646401138180,,145,,1691262646,400910940,"""world""",,,-2.1678566932678223,-1.0103402137756348,1.50829017162323
1691262646410941783,,146,,1691262646,410870009,"""world""",,,-2.1634116172790527,-1.014072060585022,1.507274866104126
1691262646430955189,,147,,1691262646,430877596,"""world""",,,-2.1549227237701416,-1.0214027166366577,1.5055307149887085
1691262646440934468,,148,,1691262646,440865480,"""world""",,,-2.1488654613494873,-1.0249987840652466,1.5045655965805054
1691262646480965770,,149,,1691262646,480862981,"""world""",,,-2.1272058486938477,-1.0416347980499268,1.5020737648010254
1691262646601025411,,150,,1691262646,600895299,"""world""",,,-2.0942153930664062,-1.0609480142593384,1.496914267539978
1691262646601032779,,152,,1691262646,600919487,"""world""",,,-2.067612648010254,-1.0769823789596558,1.4928076267242432
1691262646601043389,,153,,1691262646,600941638,"""world""",,,-2.061666488647461,-1.0791046619415283,1.491552710533142
1691262646630949187,,154,,1691262646,630873338,"""world""",,,-2.0444393157958984,-1.0891121625900269,1.4900109767913818
1691262646640931024,,155,,1691262646,640862407,"""world""",,,-2.038052797317505,-1.0924408435821533,1.4893577098846436
1691262646651095261,,156,,1691262646,650951248,"""world""",,,-2.0310237407684326,-1.0951347351074219,1.4883776903152466
1691262646670934893,,157,,1691262646,670867562,"""world""",,,-2.019378900527954,-1.1019065380096436,1.487919807434082
1691262646810957062,,158,,1691262646,810872497,"""world""",,,-1.94891357421875,-1.1327654123306274,1.480549931526184
1691262646810961196,,159,,1691262646,810888365,"""world""",,,-1.9377577304840088,-1.139481544494629,1.4802733659744263
1691262646870969386,,160,,1691262646,870882430,"""world""",,,-1.9048165082931519,-1.1520483493804932,1.4769688844680786
1691262647291016915,,161,,1691262647,290873191,"""world""",,,-1.7970813512802124,-1.2014491558074951,1.4681377410888672
1691262647291025995,,162,,1691262647,290887918,"""world""",,,-1.7595738172531128,-1.2190756797790527,1.463255763053894
1691262649240991031,,163,,1691262649,240877686,"""world""",,,-1.5592691898345947,-1.3406641483306885,0.623353123664856
1691262649241000323,,164,,1691262649,240892027,"""world""",,,-1.55862557888031,-1.3410688638687134,0.6100308299064636
1691262649680938193,,165,,1691262649,680866445,"""world""",,,-1.5533663034439087,-1.3437528610229492,0.45427677035331726
1691262649890943684,,166,,1691262649,890871106,"""world""",,,-1.550027847290039,-1.3455464839935303,0.4023681581020355
1691262649920962148,,167,,1691262649,920872231,"""world""",,,-1.5501980781555176,-1.3471742868423462,0.397195041179657
1691262650770943638,,168,,1691262650,770869237,"""world""",,,-1.5612612962722778,-1.3727205991744995,0.3741600811481476
1691262650770951573,,169,,1691262650,770883072,"""world""",,,-1.5615296363830566,-1.3724172115325928,0.3713701367378235
1691262650810943260,,170,,1691262650,810873804,"""world""",,,-1.5609956979751587,-1.3741222620010376,0.3559527099132538
1691262650820939243,,171,,1691262650,820875152,"""world""",,,-1.5613991022109985,-1.3748691082000732,0.35393038392066956
1691262650840951474,,172,,1691262650,840885519,"""world""",,,-1.5607267618179321,-1.3741377592086792,0.34969526529312134
1691262650850984117,,173,,1691262650,850890429,"""world""",,,-1.5610641241073608,-1.3750146627426147,0.3475101590156555
1691262651390952415,,174,,1691262651,390875206,"""world""",,,-1.5503777265548706,-1.378391981124878,0.1879887729883194
1691262651401015308,,175,,1691262651,400912425,"""world""",,,-1.5487654209136963,-1.3774381875991821,0.15587733685970306
1691262651500981608,,176,,1691262651,500891549,"""world""",,,-1.545906662940979,-1.3799127340316772,0.11872158199548721
1691262651800991834,,177,,1691262651,800879435,"""world""",,,-1.5391758680343628,-1.3831003904342651,0.06180566921830177
1691262651801004542,,178,,1691262651,800900735,"""world""",,,-1.5379631519317627,-1.3812906742095947,0.0537477470934391
1691262651801009577,,179,,1691262651,800920700,"""world""",,,-1.5352736711502075,-1.3833558559417725,0.054857250303030014
1691262651890945030,,180,,1691262651,890871788,"""world""",,,-1.5348846912384033,-1.3865708112716675,0.05588241666555405
1691262651910941777,,181,,1691262651,910869436,"""world""",,,-1.5321295261383057,-1.3877731561660767,0.05436652526259422
1691262651980962784,,182,,1691262651,980858818,"""world""",,,-1.5299822092056274,-1.3906710147857666,0.05464664101600647
1691262651990954468,,183,,1691262651,990871524,"""world""",,,-1.5306098461151123,-1.3898398876190186,0.05375218018889427
1691262652000974720,,184,,1691262652,883059,"""world""",,,-1.5304410457611084,-1.3899033069610596,0.05344986543059349
1691262652040940882,,185,,1691262652,40868506,"""world""",,,-1.5304973125457764,-1.388769507408142,0.05283578485250473
1691262652050977788,,186,,1691262652,50884444,"""world""",,,-1.5306835174560547,-1.388725757598877,0.05283581092953682
1691262652060994813,,187,,1691262652,60903535,"""world""",,,-1.530471682548523,-1.388718843460083,0.05278670787811279
1691262652070981178,,188,,1691262652,70900084,"""world""",,,-1.5305256843566895,-1.3887685537338257,0.05270098149776459
1691262652080920411,,189,,1691262652,80859402,"""world""",,,-1.530463695526123,-1.3887804746627808,0.05272776260972023
1691262652090946648,,190,,1691262652,90874638,"""world""",,,-1.5304430723190308,-1.3888720273971558,0.05272900313138962
1691262652120960078,,191,,1691262652,120872931,"""world""",,,-1.5303995609283447,-1.3888523578643799,0.052714332938194275
1691262652130942475,,192,,1691262652,130871262,"""world""",,,-1.5304269790649414,-1.388859748840332,0.0527249313890934
1691262652151108468,,193,,1691262652,150922207,"""world""",,,-1.5304253101348877,-1.388798475265503,0.05273791402578354
1691262652160951658,,194,,1691262652,160871740,"""world""",,,-1.5304570198059082,-1.388812780380249,0.052694350481033325
1691262652170944185,,195,,1691262652,170868382,"""world""",,,-1.5304641723632812,-1.3888180255889893,0.05269942060112953
1691262652190948279,,196,,1691262652,190869733,"""world""",,,-1.5304206609725952,-1.3888567686080933,0.05269806087017059
1691262652201023357,,197,,1691262652,200913884,"""world""",,,-1.5304303169250488,-1.3888745307922363,0.05271375924348831
1691262652210942748,,198,,1691262652,210868802,"""world""",,,-1.5304369926452637,-1.3888487815856934,0.05268190801143646
1691262652230968155,,199,,1691262652,230873648,"""world""",,,-1.5304100513458252,-1.3888754844665527,0.052693773061037064
1691262652240969711,,200,,1691262652,240899107,"""world""",,,-1.5304259061813354,-1.3888888359069824,0.052702322602272034
1691262652251104587,,201,,1691262652,250979151,"""world""",,,-1.5304405689239502,-1.3888529539108276,0.05269612371921539
1691262652260991691,,202,,1691262652,260912037,"""world""",,,-1.5304553508758545,-1.3888601064682007,0.05268077552318573
1691262652270946885,,203,,1691262652,270871453,"""world""",,,-1.5304410457611084,-1.3888475894927979,0.0527050644159317
1691262652280957222,,204,,1691262652,280880742,"""world""",,,-1.5304272174835205,-1.388807773590088,0.05269307270646095
1691262652290943191,,205,,1691262652,290874114,"""world""",,,-1.5304287672042847,-1.3888258934020996,0.05269942060112953
1691262652300971907,,206,,1691262652,300883876,"""world""",,,-1.5304529666900635,-1.3888468742370605,0.05266796052455902
1691262652310967984,,207,,1691262652,310874700,"""world""",,,-1.5304818153381348,-1.388857126235962,0.05268506705760956
1691262652321017188,,208,,1691262652,320885444,"""world""",,,-1.5304646492004395,-1.3888810873031616,0.0527181550860405
1691262652330954953,,209,,1691262652,330871285,"""world""",,,-1.5304603576660156,-1.3888840675354004,0.05267317593097687
1691262652340952161,,210,,1691262652,340873876,"""world""",,,-1.5304386615753174,-1.3888514041900635,0.052674148231744766
1691262652350976596,,211,,1691262652,350887175,"""world""",,,-1.530416488647461,-1.388870120048523,0.052689556032419205
1691262652360949630,,212,,1691262652,360869905,"""world""",,,-1.5304322242736816,-1.3888733386993408,0.05269257724285126
1691262652371012402,,213,,1691262652,370888030,"""world""",,,-1.5304969549179077,-1.3888558149337769,0.052683670073747635
1691262652380947205,,214,,1691262652,380869059,"""world""",,,-1.5304197072982788,-1.3888766765594482,0.052668072283267975
1691262652390940291,,215,,1691262652,390867434,"""world""",,,-1.5304206609725952,-1.3888887166976929,0.05266166105866432
1691262652410946817,,216,,1691262652,410870811,"""world""",,,-1.5304794311523438,-1.3888838291168213,0.05264725536108017
1691262652420956619,,217,,1691262652,420876682,"""world""",,,-1.530472993850708,-1.3888895511627197,0.052664123475551605
1691262652430977954,,218,,1691262652,430895309,"""world""",,,-1.5304869413375854,-1.3888380527496338,0.0526304766535759
1691262652440944377,,219,,1691262652,440867976,"""world""",,,-1.5304670333862305,-1.3888707160949707,0.05268102139234543
1691262652450993896,,220,,1691262652,450895464,"""world""",,,-1.5304503440856934,-1.3888704776763916,0.05269022658467293
1691262652460958401,,221,,1691262652,460882137,"""world""",,,-1.530466079711914,-1.3888514041900635,0.05267768353223801
1691262652471000156,,222,,1691262652,470892751,"""world""",,,-1.5304516553878784,-1.3888447284698486,0.052689630538225174
1691262652490942120,,223,,1691262652,490871197,"""world""",,,-1.5304241180419922,-1.3888611793518066,0.05268757790327072
1691262652500991902,,224,,1691262652,500886762,"""world""",,,-1.5304958820343018,-1.3888310194015503,0.052679643034935
1691262652510941126,,225,,1691262652,510868435,"""world""",,,-1.5304443836212158,-1.388865351676941,0.052708737552165985
1691262652520959638,,226,,1691262652,520879944,"""world""",,,-1.5304553508758545,-1.3888300657272339,0.05268227308988571
1691262652530967752,,227,,1691262652,530888765,"""world""",,,-1.5304521322250366,-1.3888620138168335,0.0526711568236351
1691262652540947388,,228,,1691262652,540872425,"""world""",,,-1.5304826498031616,-1.3888596296310425,0.05265001952648163
1691262652550969445,,229,,1691262652,550882953,"""world""",,,-1.5304129123687744,-1.388831377029419,0.05268450826406479
1691262652560949757,,230,,1691262652,560872000,"""world""",,,-1.530428171157837,-1.3888911008834839,0.05265828222036362
1691262652570994839,,231,,1691262652,570876322,"""world""",,,-1.5304468870162964,-1.3888885974884033,0.052690569311380386
1691262652580956672,,232,,1691262652,580856030,"""world""",,,-1.5304678678512573,-1.3888442516326904,0.05263843387365341
1691262652590983766,,233,,1691262652,590873920,"""world""",,,-1.530452013015747,-1.3888415098190308,0.052642449736595154
1691262652601077857,,234,,1691262652,600907890,"""world""",,,-1.5304440259933472,-1.3888286352157593,0.052628517150878906
1691262652610969504,,235,,1691262652,610869240,"""world""",,,-1.530452013015747,-1.3888319730758667,0.052607640624046326
1691262652620947798,,236,,1691262652,620872272,"""world""",,,-1.5304434299468994,-1.3888157606124878,0.05266766995191574
1691262652630944219,,237,,1691262652,630869446,"""world""",,,-1.5304449796676636,-1.3888728618621826,0.052669987082481384
1691262652640942993,,238,,1691262652,640866881,"""world""",,,-1.5304282903671265,-1.3888394832611084,0.05267501249909401
1691262652650982407,,239,,1691262652,650879075,"""world""",,,-1.5304179191589355,-1.3888516426086426,0.05264642834663391
1691262652660962417,,240,,1691262652,660870570,"""world""",,,-1.5304549932479858,-1.3888249397277832,0.052680209279060364
1691262652670949428,,241,,1691262652,670870779,"""world""",,,-1.5304425954818726,-1.3888299465179443,0.05270780622959137
1691262652680937327,,242,,1691262652,680865204,"""world""",,,-1.5304334163665771,-1.3888399600982666,0.05267583578824997
1691262652690953194,,243,,1691262652,690869346,"""world""",,,-1.5304062366485596,-1.3888518810272217,0.05269080400466919
1691262652701028439,,244,,1691262652,700900990,"""world""",,,-1.5304384231567383,-1.3888267278671265,0.05265171825885773
1691262652710935125,,245,,1691262652,710867876,"""world""",,,-1.5304226875305176,-1.388892412185669,0.0526619628071785
1691262652720972118,,246,,1691262652,720880472,"""world""",,,-1.5304651260375977,-1.3888554573059082,0.052651870995759964
1691262652730971470,,247,,1691262652,730869518,"""world""",,,-1.5304410457611084,-1.3888447284698486,0.05263196676969528
1691262652740944105,,248,,1691262652,740869241,"""world""",,,-1.5304298400878906,-1.3888682126998901,0.0526450052857399
1691262652750987291,,249,,1691262652,750887543,"""world""",,,-1.5304579734802246,-1.3888285160064697,0.05268240347504616
1691262652760949879,,250,,1691262652,760870527,"""world""",,,-1.5304430723190308,-1.3888529539108276,0.052656207233667374
1691262652770953017,,251,,1691262652,770881512,"""world""",,,-1.530484914779663,-1.3887938261032104,0.0526580847799778
1691262652780923297,,252,,1691262652,780860170,"""world""",,,-1.5304582118988037,-1.3888438940048218,0.05270649492740631
1691262652790970494,,253,,1691262652,790884669,"""world""",,,-1.530430555343628,-1.3888375759124756,0.05266060307621956
1691262652801023446,,254,,1691262652,800899248,"""world""",,,-1.5304244756698608,-1.3888614177703857,0.052632831037044525
1691262652810938090,,255,,1691262652,810866888,"""world""",,,-1.5304350852966309,-1.388871669769287,0.05265121906995773
1691262652821086953,,256,,1691262652,820885841,"""world""",,,-1.5304501056671143,-1.3888596296310425,0.0526677705347538
1691262652830978407,,257,,1691262652,830870195,"""world""",,,-1.5304453372955322,-1.3888787031173706,0.052662674337625504
1691262652840943126,,258,,1691262652,840865455,"""world""",,,-1.530424952507019,-1.38885498046875,0.05268882215023041
1691262652851008005,,259,,1691262652,850909349,"""world""",,,-1.530420184135437,-1.388892650604248,0.052655525505542755
1691262652860969512,,260,,1691262652,860877039,"""world""",,,-1.5304611921310425,-1.3888564109802246,0.052687421441078186
1691262652870954839,,261,,1691262652,870873711,"""world""",,,-1.530451774597168,-1.388874888420105,0.05267765000462532
1691262652880907987,,262,,1691262652,880851342,"""world""",,,-1.5304474830627441,-1.3888800144195557,0.05266061797738075
1691262652890944897,,263,,1691262652,890865470,"""world""",,,-1.5304406881332397,-1.3888802528381348,0.052668116986751556
1691262652901050263,,264,,1691262652,900882151,"""world""",,,-1.5304526090621948,-1.3888695240020752,0.05270165950059891
1691262652910946134,,265,,1691262652,910867063,"""world""",,,-1.53043532371521,-1.3888459205627441,0.05265859141945839
1691262652920974456,,266,,1691262652,920884465,"""world""",,,-1.530428171157837,-1.3888362646102905,0.05265979468822479
1691262652930979621,,267,,1691262652,930871357,"""world""",,,-1.530424952507019,-1.3888907432556152,0.052657127380371094
1691262652940939111,,268,,1691262652,940876205,"""world""",,,-1.5304033756256104,-1.3888682126998901,0.052688855677843094
1691262652951035478,,269,,1691262652,950904031,"""world""",,,-1.5304360389709473,-1.3888815641403198,0.05269205942749977
1691262652960940222,,270,,1691262652,960870459,"""world""",,,-1.5304551124572754,-1.3888397216796875,0.052650466561317444
1691262652970968963,,271,,1691262652,970877114,"""world""",,,-1.5304529666900635,-1.3888529539108276,0.05267395079135895
1691262652980940212,,272,,1691262652,980863371,"""world""",,,-1.5304288864135742,-1.388839602470398,0.05265059322118759
1691262652990947808,,273,,1691262652,990869393,"""world""",,,-1.530485987663269,-1.3888481855392456,0.05268840491771698
1691262653001000807,,274,,1691262653,882939,"""world""",,,-1.5304510593414307,-1.3888611793518066,0.05263523757457733
1691262653011013913,,275,,1691262653,10870205,"""world""",,,-1.5304536819458008,-1.3888506889343262,0.05264676362276077
1691262653020992498,,276,,1691262653,20894511,"""world""",,,-1.5304402112960815,-1.3888428211212158,0.05266641080379486
1691262653031015879,,277,,1691262653,30890576,"""world""",,,-1.5304484367370605,-1.3888506889343262,0.052690811455249786
1691262653040964869,,278,,1691262653,40897166,"""world""",,,-1.530424952507019,-1.388823390007019,0.05272543802857399
1691262653051023540,,279,,1691262653,50899140,"""world""",,,-1.5304679870605469,-1.3888148069381714,0.05268864333629608
1691262653060977074,,280,,1691262653,60900486,"""world""",,,-1.5304687023162842,-1.3888330459594727,0.0526590496301651
1691262653070941944,,281,,1691262653,70877180,"""world""",,,-1.5304219722747803,-1.3888232707977295,0.05269846320152283
1691262653080948345,,282,,1691262653,80874480,"""world""",,,-1.530411720275879,-1.3888825178146362,0.052719566971063614
1691262653090950817,,283,,1691262653,90867490,"""world""",,,-1.5304443836212158,-1.388870120048523,0.052688561379909515
