rosbagTimestamp,header,seq,stamp,secs,nsecs,frame_id,pose,position,x,y,z
1691262939331176228,,1669,,1691262939,330883201,"""world""",,,-1.9465117454528809,1.6082947254180908,0.10371927171945572
1691262939340955847,,1670,,1691262939,340881357,"""world""",,,-1.946505069732666,1.608281135559082,0.1037098616361618
1691262939350962883,,1671,,1691262939,350884531,"""world""",,,-1.9465291500091553,1.6082912683486938,0.10372528433799744
1691262939360985358,,1672,,1691262939,360914148,"""world""",,,-1.9465068578720093,1.6083232164382935,0.10372142493724823
1691262939370949646,,1673,,1691262939,370874805,"""world""",,,-1.9465101957321167,1.6083011627197266,0.10370655357837677
1691262939380947708,,1674,,1691262939,380878460,"""world""",,,-1.946505069732666,1.608311653137207,0.10371975600719452
1691262939390955565,,1675,,1691262939,390880830,"""world""",,,-1.9465030431747437,1.6082968711853027,0.10374048352241516
1691262939400953055,,1676,,1691262939,400877674,"""world""",,,-1.9464797973632812,1.6083590984344482,0.1037418320775032
1691262939410937988,,1677,,1691262939,410870159,"""world""",,,-1.9465210437774658,1.6082355976104736,0.10374996066093445
1691262939420942396,,1678,,1691262939,420872232,"""world""",,,-1.9465138912200928,1.60831618309021,0.10374990105628967
1691262939430931251,,1679,,1691262939,430866977,"""world""",,,-1.9464854001998901,1.6083321571350098,0.10372580587863922
1691262939441005156,,1680,,1691262939,440924882,"""world""",,,-1.9464430809020996,1.6083612442016602,0.10371149331331253
1691262939450964003,,1681,,1691262939,450871705,"""world""",,,-1.946500301361084,1.6083050966262817,0.10375715047121048
1691262939460974735,,1682,,1691262939,460884089,"""world""",,,-1.9465124607086182,1.6082956790924072,0.1037423312664032
1691262939470959023,,1683,,1691262939,470879002,"""world""",,,-1.946510672569275,1.608310341835022,0.10374759137630463
1691262939480951995,,1684,,1691262939,480873923,"""world""",,,-1.9464272260665894,1.6083422899246216,0.10368538647890091
1691262939490955176,,1685,,1691262939,490873107,"""world""",,,-1.9465100765228271,1.6082909107208252,0.10372716933488846
1691262939500975324,,1686,,1691262939,500893634,"""world""",,,-1.9464786052703857,1.6083009243011475,0.10370558500289917
1691262939510946852,,1687,,1691262939,510873159,"""world""",,,-1.9464998245239258,1.608319878578186,0.1037043109536171
1691262939520995082,,1688,,1691262939,520870394,"""world""",,,-1.9464983940124512,1.6082961559295654,0.10373274981975555
1691262939530966423,,1689,,1691262939,530879101,"""world""",,,-1.9464879035949707,1.6082993745803833,0.1037222295999527
1691262939540961506,,1690,,1691262939,540883132,"""world""",,,-1.946509599685669,1.6082606315612793,0.10372386872768402
1691262939550970574,,1691,,1691262939,550901490,"""world""",,,-1.9465036392211914,1.608335018157959,0.10373863577842712
1691262939560998509,,1692,,1691262939,560907403,"""world""",,,-1.946502923965454,1.6082860231399536,0.103724904358387
1691262939570957748,,1693,,1691262939,570877168,"""world""",,,-1.9465101957321167,1.6083494424819946,0.10374237596988678
1691262939580950870,,1694,,1691262939,580876254,"""world""",,,-1.946513056755066,1.6083025932312012,0.10375077277421951
1691262939590952182,,1695,,1691262939,590874240,"""world""",,,-1.946485996246338,1.6083279848098755,0.10375819355249405
1691262939600995737,,1696,,1691262939,600901693,"""world""",,,-1.9464977979660034,1.6082963943481445,0.10375050455331802
1691262939610948967,,1697,,1691262939,610878056,"""world""",,,-1.946502923965454,1.6082878112792969,0.10376274585723877
1691262939620962030,,1698,,1691262939,620870440,"""world""",,,-1.946521282196045,1.608272671699524,0.10375556349754333
1691262939630991637,,1699,,1691262939,630902992,"""world""",,,-1.94649076461792,1.6083464622497559,0.10371185094118118
1691262939640967909,,1700,,1691262939,640880352,"""world""",,,-1.9465030431747437,1.6082839965820312,0.10372797399759293
1691262939650990182,,1701,,1691262939,650897453,"""world""",,,-1.946510672569275,1.6083041429519653,0.10369335114955902
1691262939660946535,,1702,,1691262939,660870369,"""world""",,,-1.946481704711914,1.6083319187164307,0.10372154414653778
1691262939670988471,,1703,,1691262939,670882167,"""world""",,,-1.9464936256408691,1.6082202196121216,0.10370342433452606
1691262939680955733,,1704,,1691262939,680873357,"""world""",,,-1.946511149406433,1.60823392868042,0.10368470847606659
1691262939691004302,,1705,,1691262939,690898303,"""world""",,,-1.9464950561523438,1.6082093715667725,0.10371580719947815
1691262939701029186,,1706,,1691262939,700922702,"""world""",,,-1.9464843273162842,1.6082489490509033,0.10369236767292023
1691262939710977658,,1707,,1691262939,710872344,"""world""",,,-1.9464973211288452,1.608269214630127,0.10369381308555603
1691262939720943752,,1708,,1691262939,720860847,"""world""",,,-1.9465014934539795,1.6083065271377563,0.10372275859117508
1691262939730963158,,1709,,1691262939,730871925,"""world""",,,-1.9465060234069824,1.608293056488037,0.10370758920907974
1691262939740957049,,1710,,1691262939,740873764,"""world""",,,-1.9465043544769287,1.6082780361175537,0.1037101224064827
1691262939750946359,,1711,,1691262939,750870995,"""world""",,,-1.9464936256408691,1.6083232164382935,0.10370410233736038
1691262939760944505,,1712,,1691262939,760868031,"""world""",,,-1.9464929103851318,1.6083117723464966,0.10372048616409302
1691262939770969843,,1713,,1691262939,770878776,"""world""",,,-1.9465019702911377,1.608221173286438,0.10370960831642151
1691262939781508262,,1714,,1691262939,780872112,"""world""",,,-1.9465245008468628,1.6082677841186523,0.10372750461101532
1691262939790961890,,1715,,1691262939,790870255,"""world""",,,-1.946488618850708,1.6082944869995117,0.10372669249773026
1691262939801271889,,1716,,1691262939,800878944,"""world""",,,-1.9464482069015503,1.6083147525787354,0.10371947288513184
1691262939810944617,,1717,,1691262939,810867230,"""world""",,,-1.946502685546875,1.6083245277404785,0.1036706417798996
1691262939820932417,,1718,,1691262939,820857618,"""world""",,,-1.9464876651763916,1.6082899570465088,0.10369778424501419
1691262939831011934,,1719,,1691262939,830895464,"""world""",,,-1.9464915990829468,1.6082745790481567,0.10369328409433365
1691262939840987787,,1720,,1691262939,840876100,"""world""",,,-1.9464815855026245,1.608282208442688,0.10370610654354095
1691262939850942362,,1721,,1691262939,850861064,"""world""",,,-1.9464949369430542,1.608283281326294,0.10368989408016205
1691262939860954699,,1722,,1691262939,860872865,"""world""",,,-1.946523904800415,1.6082799434661865,0.10370942950248718
1691262939870957945,,1723,,1691262939,870876581,"""world""",,,-1.946474552154541,1.6082760095596313,0.10372844338417053
1691262939880929274,,1724,,1691262939,880862020,"""world""",,,-1.9465035200119019,1.6082911491394043,0.10373589396476746
1691262939891061242,,1725,,1691262939,890921882,"""world""",,,-1.9464845657348633,1.608323335647583,0.10372067242860794
1691262939900953486,,1726,,1691262939,900874232,"""world""",,,-1.94649338722229,1.6082961559295654,0.1037168800830841
1691262939910941295,,1727,,1691262939,910871640,"""world""",,,-1.9465163946151733,1.6083316802978516,0.10372886061668396
1691262939920971913,,1728,,1691262939,920861336,"""world""",,,-1.9465205669403076,1.6082497835159302,0.10376185923814774
1691262939930963801,,1729,,1691262939,930875656,"""world""",,,-1.946448802947998,1.608298420906067,0.10375252366065979
1691262939940966069,,1730,,1691262939,940872076,"""world""",,,-1.9465200901031494,1.608288049697876,0.10373140126466751
1691262939950936916,,1731,,1691262939,950858416,"""world""",,,-1.9465116262435913,1.6082522869110107,0.10375747829675674
1691262939960965070,,1732,,1691262939,960878033,"""world""",,,-1.9465258121490479,1.6083004474639893,0.103733129799366
1691262939970961078,,1733,,1691262939,970874720,"""world""",,,-1.9464892148971558,1.6082820892333984,0.10369007289409637
1691262939980938012,,1734,,1691262939,980859893,"""world""",,,-1.9465168714523315,1.6083221435546875,0.10370872914791107
1691262939990984815,,1735,,1691262939,990880273,"""world""",,,-1.9464962482452393,1.608310341835022,0.10367988049983978
1691262940000937787,,1736,,1691262940,858463,"""world""",,,-1.9465136528015137,1.6082741022109985,0.10369212925434113
1691262940010939991,,1737,,1691262940,10870567,"""world""",,,-1.946516990661621,1.6082836389541626,0.10368993878364563
1691262940020947586,,1738,,1691262940,20867646,"""world""",,,-1.9465159177780151,1.6082793474197388,0.10369706898927689
1691262940030951046,,1739,,1691262940,30871420,"""world""",,,-1.946514368057251,1.6082969903945923,0.10370972752571106
1691262940040962245,,1740,,1691262940,40879684,"""world""",,,-1.9464478492736816,1.608353853225708,0.1036624163389206
1691262940050962145,,1741,,1691262940,50887907,"""world""",,,-1.9464430809020996,1.6083369255065918,0.10370464622974396
1691262940060944706,,1742,,1691262940,60871637,"""world""",,,-1.9465092420578003,1.6082913875579834,0.10375788807868958
1691262940070952393,,1743,,1691262940,70878869,"""world""",,,-1.9465203285217285,1.608289361000061,0.10374106466770172
1691262940080974647,,1744,,1691262940,80869087,"""world""",,,-1.946480631828308,1.6083316802978516,0.10373583436012268
1691262940090988712,,1745,,1691262940,90887090,"""world""",,,-1.946424961090088,1.60837984085083,0.10368727147579193
1691262940100957504,,1746,,1691262940,100871691,"""world""",,,-1.9464939832687378,1.6083269119262695,0.1037461906671524
1691262940110952033,,1747,,1691262940,110870772,"""world""",,,-1.946517825126648,1.608302116394043,0.10372653603553772
1691262940120947119,,1748,,1691262940,120867429,"""world""",,,-1.9465012550354004,1.6082755327224731,0.1037386953830719
1691262940130964703,,1749,,1691262940,130870558,"""world""",,,-1.9464993476867676,1.608297348022461,0.10371081531047821
1691262940140948012,,1750,,1691262940,140872814,"""world""",,,-1.9464871883392334,1.6083357334136963,0.10369493067264557
1691262940150972398,,1751,,1691262940,150878860,"""world""",,,-1.9464972019195557,1.608256459236145,0.10374811291694641
1691262940160948968,,1752,,1691262940,160873563,"""world""",,,-1.9464771747589111,1.6082961559295654,0.10370806604623795
1691262940170981330,,1753,,1691262940,170905025,"""world""",,,-1.946536898612976,1.6081939935684204,0.10373304784297943
1691262940180942491,,1754,,1691262940,180869866,"""world""",,,-1.9464898109436035,1.6083093881607056,0.10366756469011307
1691262940191026805,,1755,,1691262940,190892763,"""world""",,,-1.9464911222457886,1.6082803010940552,0.10368727147579193
1691262940200983600,,1756,,1691262940,200904718,"""world""",,,-1.9464995861053467,1.6082764863967896,0.10373056679964066
1691262940210938463,,1757,,1691262940,210869050,"""world""",,,-1.9465078115463257,1.6082825660705566,0.10374033451080322
1691262940220944860,,1758,,1691262940,220871616,"""world""",,,-1.9464963674545288,1.6083060503005981,0.1037355363368988
1691262940230985945,,1759,,1691262940,230872651,"""world""",,,-1.9464815855026245,1.608296513557434,0.10374034196138382
1691262940240937724,,1760,,1691262940,240869484,"""world""",,,-1.9464982748031616,1.6083183288574219,0.10373525321483612
1691262940250946648,,1761,,1691262940,250874997,"""world""",,,-1.9464983940124512,1.608299970626831,0.10375194251537323
1691262940260949007,,1762,,1691262940,260873686,"""world""",,,-1.9465073347091675,1.6082888841629028,0.1037350744009018
1691262940270958509,,1763,,1691262940,270870422,"""world""",,,-1.9465234279632568,1.6082621812820435,0.10374388098716736
1691262940280953170,,1764,,1691262940,280875007,"""world""",,,-1.946454405784607,1.6083729267120361,0.10368866473436356
1691262940291013750,,1765,,1691262940,290901445,"""world""",,,-1.9465030431747437,1.6082663536071777,0.1037251204252243
1691262940300954209,,1766,,1691262940,300881078,"""world""",,,-1.9464874267578125,1.6082979440689087,0.10368861258029938
1691262940310958739,,1767,,1691262940,310877221,"""world""",,,-1.946504831314087,1.6082789897918701,0.10371546447277069
1691262940320965179,,1768,,1691262940,320888042,"""world""",,,-1.9465140104293823,1.6082510948181152,0.10371200740337372
1691262940330952164,,1769,,1691262940,330875013,"""world""",,,-1.9465035200119019,1.608277440071106,0.10370686650276184
1691262940340981847,,1770,,1691262940,340893807,"""world""",,,-1.9464927911758423,1.6083014011383057,0.10370101034641266
1691262940350952884,,1771,,1691262940,350869064,"""world""",,,-1.9464863538742065,1.6082993745803833,0.1037217229604721
1691262940360944663,,1772,,1691262940,360867136,"""world""",,,-1.9465184211730957,1.6082642078399658,0.10372430831193924
1691262940370966445,,1773,,1691262940,370884080,"""world""",,,-1.9464890956878662,1.6083159446716309,0.10373840481042862
1691262940380949036,,1774,,1691262940,380871432,"""world""",,,-1.9465210437774658,1.6082398891448975,0.1037428230047226
1691262940390962693,,1775,,1691262940,390878503,"""world""",,,-1.9464726448059082,1.6082892417907715,0.10372770577669144
1691262940400977996,,1776,,1691262940,400882540,"""world""",,,-1.9464631080627441,1.6083183288574219,0.10371679812669754
1691262940410953170,,1777,,1691262940,410877410,"""world""",,,-1.9465243816375732,1.6082673072814941,0.10374806821346283
1691262940420924159,,1778,,1691262940,420861752,"""world""",,,-1.9465138912200928,1.608283519744873,0.10376361012458801
1691262940430988362,,1779,,1691262940,430912931,"""world""",,,-1.9464905261993408,1.6083347797393799,0.10372401028871536
1691262940441048950,,1780,,1691262940,440916243,"""world""",,,-1.9465053081512451,1.608302354812622,0.10372699052095413
1691262940450943069,,1781,,1691262940,450868287,"""world""",,,-1.9464210271835327,1.6083323955535889,0.10367430746555328
1691262940460941278,,1782,,1691262940,460871088,"""world""",,,-1.9465197324752808,1.608302116394043,0.1037142351269722
1691262940470943516,,1783,,1691262940,470873604,"""world""",,,-1.9464424848556519,1.6083478927612305,0.10368107259273529
1691262940480927424,,1784,,1691262940,480867048,"""world""",,,-1.9464309215545654,1.6083347797393799,0.10366831719875336
1691262940491031452,,1785,,1691262940,490926351,"""world""",,,-1.9464325904846191,1.6083284616470337,0.10363501310348511
1691262940500993109,,1786,,1691262940,500893979,"""world""",,,-1.9465065002441406,1.6082900762557983,0.1037396714091301
1691262940510949406,,1787,,1691262940,510871902,"""world""",,,-1.9465115070343018,1.6082249879837036,0.10374647378921509
1691262940520926064,,1788,,1691262940,520854767,"""world""",,,-1.946478247642517,1.6082987785339355,0.10368272662162781
1691262940530977926,,1789,,1691262940,530877042,"""world""",,,-1.9464677572250366,1.6083060503005981,0.10368991643190384
1691262940540954356,,1790,,1691262940,540881252,"""world""",,,-1.9465038776397705,1.6082602739334106,0.10372529178857803
1691262940550964551,,1791,,1691262940,550887556,"""world""",,,-1.9465172290802002,1.6082987785339355,0.10373856127262115
1691262940560944787,,1792,,1691262940,560870123,"""world""",,,-1.9465117454528809,1.6082830429077148,0.1037452295422554
1691262940570962714,,1793,,1691262940,570880818,"""world""",,,-1.946504831314087,1.608307957649231,0.10373899340629578
1691262940580940480,,1794,,1691262940,580864084,"""world""",,,-1.9464924335479736,1.6083245277404785,0.10373780131340027
1691262940590972096,,1795,,1691262940,590888876,"""world""",,,-1.9465153217315674,1.6082959175109863,0.10375369340181351
1691262940600975867,,1796,,1691262940,600895195,"""world""",,,-1.946516513824463,1.6081974506378174,0.10376594960689545
1691262940611002548,,1797,,1691262940,610909876,"""world""",,,-1.9464912414550781,1.6082870960235596,0.10373283177614212
1691262940620933792,,1798,,1691262940,620859931,"""world""",,,-1.9465076923370361,1.6082522869110107,0.10374554991722107
1691262940630979293,,1799,,1691262940,630881975,"""world""",,,-1.9465340375900269,1.6081900596618652,0.10377732664346695
1691262940640984591,,1800,,1691262940,640889304,"""world""",,,-1.9465382099151611,1.6082699298858643,0.10372631251811981
1691262940650944823,,1801,,1691262940,650863301,"""world""",,,-1.9465246200561523,1.6082684993743896,0.10371159017086029
1691262940660973253,,1802,,1691262940,660885764,"""world""",,,-1.9465372562408447,1.6081849336624146,0.10373402386903763
1691262940670959647,,1803,,1691262940,670872921,"""world""",,,-1.946418285369873,1.60834801197052,0.10370436310768127
1691262940680951837,,1804,,1691262940,680873965,"""world""",,,-1.9464168548583984,1.6083335876464844,0.1036563292145729
1691262940690977106,,1805,,1691262940,690884645,"""world""",,,-1.9464964866638184,1.6083097457885742,0.103688545525074
1691262940701430558,,1806,,1691262940,700941422,"""world""",,,-1.9464234113693237,1.6083508729934692,0.10367608815431595
1691262940710951520,,1807,,1691262940,710869047,"""world""",,,-1.9464941024780273,1.6083269119262695,0.10369421541690826
1691262940720908514,,1808,,1691262940,720854489,"""world""",,,-1.946479082107544,1.6083004474639893,0.10369066894054413
1691262940730998916,,1809,,1691262940,730892806,"""world""",,,-1.9464895725250244,1.6083135604858398,0.10373872518539429
1691262940740962174,,1810,,1691262940,740879697,"""world""",,,-1.9465136528015137,1.6082985401153564,0.10372063517570496
1691262940750944549,,1811,,1691262940,750869970,"""world""",,,-1.9464795589447021,1.608245849609375,0.10373765230178833
1691262940760970246,,1812,,1691262940,760882361,"""world""",,,-1.9465121030807495,1.6082878112792969,0.10375070571899414
1691262940770945609,,1813,,1691262940,770871419,"""world""",,,-1.946498155593872,1.6083240509033203,0.10371898114681244
1691262940780943293,,1814,,1691262940,780863401,"""world""",,,-1.946483850479126,1.6083183288574219,0.10373914241790771
1691262940791019362,,1815,,1691262940,790890166,"""world""",,,-1.9465011358261108,1.6083102226257324,0.10375134646892548
1691262940800955585,,1816,,1691262940,800874342,"""world""",,,-1.9465101957321167,1.608276605606079,0.10371974855661392
1691262940810963152,,1817,,1691262940,810883833,"""world""",,,-1.9465200901031494,1.6083022356033325,0.10373745858669281
1691262940821015137,,1818,,1691262940,820885376,"""world""",,,-1.9465224742889404,1.6082788705825806,0.10372301936149597
1691262940831036157,,1819,,1691262940,830910378,"""world""",,,-1.9464930295944214,1.608315110206604,0.1037215068936348
1691262940840992197,,1820,,1691262940,840874157,"""world""",,,-1.9464805126190186,1.608299732208252,0.10371172428131104
1691262940851005762,,1821,,1691262940,850901119,"""world""",,,-1.946465015411377,1.608280897140503,0.10372641682624817
1691262940860957186,,1822,,1691262940,860873068,"""world""",,,-1.9464915990829468,1.6083250045776367,0.10370267182588577
1691262940870955954,,1823,,1691262940,870871657,"""world""",,,-1.946480631828308,1.60835862159729,0.10373638570308685
1691262940880977431,,1824,,1691262940,880896494,"""world""",,,-1.9464199542999268,1.6084058284759521,0.1036844551563263
1691262940891053537,,1825,,1691262940,890899635,"""world""",,,-1.9464162588119507,1.6083521842956543,0.10368713736534119
1691262940900974572,,1826,,1691262940,900883257,"""world""",,,-1.9464176893234253,1.6083877086639404,0.10364764928817749
1691262940911060996,,1827,,1691262940,910920524,"""world""",,,-1.9464882612228394,1.6083189249038696,0.10371438413858414
1691262940920950163,,1828,,1691262940,920867443,"""world""",,,-1.9464004039764404,1.6083879470825195,0.10366150736808777
1691262940930972149,,1829,,1691262940,930878367,"""world""",,,-1.946488618850708,1.6082855463027954,0.10369262099266052
1691262940940952220,,1830,,1691262940,940878308,"""world""",,,-1.9464824199676514,1.6082763671875,0.10371135175228119
1691262940950965272,,1831,,1691262940,950889126,"""world""",,,-1.9464924335479736,1.6083128452301025,0.10370305180549622
1691262940960944417,,1832,,1691262940,960867778,"""world""",,,-1.94651460647583,1.6082701683044434,0.10371604561805725
1691262940970949003,,1833,,1691262940,970873834,"""world""",,,-1.94649076461792,1.6082816123962402,0.10369504243135452
1691262940980935425,,1834,,1691262940,980866344,"""world""",,,-1.946479082107544,1.6083102226257324,0.10368657857179642
1691262940991021008,,1835,,1691262940,990895662,"""world""",,,-1.946530818939209,1.6082704067230225,0.10371491312980652
1691262941000961158,,1836,,1691262941,882030,"""world""",,,-1.9465036392211914,1.6082708835601807,0.10371499508619308
1691262941010968888,,1837,,1691262941,10868387,"""world""",,,-1.9465339183807373,1.6082444190979004,0.10376102477312088
1691262941020943459,,1838,,1691262941,20867591,"""world""",,,-1.946533441543579,1.608298420906067,0.10375363379716873
1691262941030963859,,1839,,1691262941,30874962,"""world""",,,-1.9465245008468628,1.6082286834716797,0.10379422456026077
1691262941040939058,,1840,,1691262941,40870621,"""world""",,,-1.946511149406433,1.6082955598831177,0.1037231981754303
1691262941050949807,,1841,,1691262941,50871167,"""world""",,,-1.9464797973632812,1.6082825660705566,0.103688545525074
1691262941060936729,,1842,,1691262941,60869590,"""world""",,,-1.9464850425720215,1.6082602739334106,0.10369357466697693
1691262941070955722,,1843,,1691262941,70867793,"""world""",,,-1.9464144706726074,1.6083189249038696,0.1036846935749054
1691262941080989356,,1844,,1691262941,80875354,"""world""",,,-1.9464147090911865,1.6083213090896606,0.10364916920661926
1691262941091007066,,1845,,1691262941,90897723,"""world""",,,-1.946507453918457,1.6083035469055176,0.10371306538581848
1691262941100985871,,1846,,1691262941,100887398,"""world""",,,-1.9464335441589355,1.6083250045776367,0.10365831851959229
1691262941110975611,,1847,,1691262941,110874621,"""world""",,,-1.9464194774627686,1.6083054542541504,0.10370273143053055
1691262941120957638,,1848,,1691262941,120870604,"""world""",,,-1.946434497833252,1.608323335647583,0.10366520285606384
1691262941130969208,,1849,,1691262941,130867694,"""world""",,,-1.9464466571807861,1.608333706855774,0.10365830361843109
1691262941141006162,,1850,,1691262941,140887813,"""world""",,,-1.9464666843414307,1.6083076000213623,0.1037001982331276
1691262941150948547,,1851,,1691262941,150869653,"""world""",,,-1.9464901685714722,1.6082818508148193,0.10370660573244095
1691262941160943282,,1852,,1691262941,160870575,"""world""",,,-1.9464887380599976,1.6083146333694458,0.10370523482561111
1691262941170946020,,1853,,1691262941,170870333,"""world""",,,-1.9464796781539917,1.6083500385284424,0.1036948636174202
1691262941180951550,,1854,,1691262941,180871320,"""world""",,,-1.946488618850708,1.60831880569458,0.103719063103199
1691262941190951585,,1855,,1691262941,190875381,"""world""",,,-1.946502923965454,1.6082959175109863,0.1037161648273468
1691262941200997277,,1856,,1691262941,200920629,"""world""",,,-1.9465219974517822,1.608276128768921,0.10374311357736588
1691262941210978022,,1857,,1691262941,210874472,"""world""",,,-1.9465298652648926,1.608276605606079,0.10375981032848358
1691262941220926950,,1858,,1691262941,220860323,"""world""",,,-1.9465012550354004,1.60825777053833,0.10373149812221527
1691262941230957845,,1859,,1691262941,230875479,"""world""",,,-1.9465278387069702,1.6082814931869507,0.10374496877193451
1691262941240959719,,1860,,1691262941,240879393,"""world""",,,-1.9465011358261108,1.6082918643951416,0.10373248159885406
1691262941250968698,,1861,,1691262941,250866738,"""world""",,,-1.9464972019195557,1.6083147525787354,0.10369531810283661
1691262941260951363,,1862,,1691262941,260865795,"""world""",,,-1.9465076923370361,1.6082589626312256,0.10369201004505157
1691262941270957158,,1863,,1691262941,270872094,"""world""",,,-1.9464939832687378,1.608290433883667,0.10370795428752899
1691262941280950114,,1864,,1691262941,280878083,"""world""",,,-1.9464982748031616,1.6082717180252075,0.10368479043245316
1691262941290951881,,1865,,1691262941,290877722,"""world""",,,-1.9464168548583984,1.608352780342102,0.10369667410850525
1691262941300996130,,1866,,1691262941,300894997,"""world""",,,-1.9464954137802124,1.608260154724121,0.10372466593980789
1691262941310973487,,1867,,1691262941,310866712,"""world""",,,-1.9465078115463257,1.6082544326782227,0.10370804369449615
1691262941320940697,,1868,,1691262941,320860664,"""world""",,,-1.9464882612228394,1.6082777976989746,0.10371489077806473
1691262941331054027,,1869,,1691262941,330904824,"""world""",,,-1.9464802742004395,1.6083145141601562,0.10372937470674515
1691262941340969925,,1870,,1691262941,340878001,"""world""",,,-1.9464476108551025,1.6083394289016724,0.10370562970638275
1691262941350954284,,1871,,1691262941,350872486,"""world""",,,-1.9465067386627197,1.608293056488037,0.10373368859291077
1691262941360949842,,1872,,1691262941,360870140,"""world""",,,-1.9464786052703857,1.6083462238311768,0.10373134166002274
1691262941370996835,,1873,,1691262941,370904858,"""world""",,,-1.946479082107544,1.6083136796951294,0.10375243425369263
1691262941380968959,,1874,,1691262941,380866270,"""world""",,,-1.9465179443359375,1.6082839965820312,0.10377244651317596
1691262941391052493,,1875,,1691262941,390898574,"""world""",,,-1.9465065002441406,1.6082631349563599,0.10371926426887512
1691262941401004107,,1876,,1691262941,400890314,"""world""",,,-1.9464977979660034,1.6083157062530518,0.10370926558971405
1691262941410944990,,1877,,1691262941,410872315,"""world""",,,-1.9465241432189941,1.608259677886963,0.10377956181764603
1691262941420934839,,1878,,1691262941,420866898,"""world""",,,-1.946500301361084,1.6083123683929443,0.10368305444717407
1691262941430965055,,1879,,1691262941,430878488,"""world""",,,-1.94651460647583,1.60824453830719,0.10372639447450638
1691262941440953697,,1880,,1691262941,440877857,"""world""",,,-1.9465264081954956,1.6083078384399414,0.10373766720294952
1691262941450959750,,1881,,1691262941,450876513,"""world""",,,-1.9464800357818604,1.6082513332366943,0.1037139892578125
1691262941460974039,,1882,,1691262941,460886562,"""world""",,,-1.9464973211288452,1.6082844734191895,0.1037149503827095
1691262941470949776,,1883,,1691262941,470870553,"""world""",,,-1.9465183019638062,1.6082890033721924,0.1037316620349884
1691262941480936556,,1884,,1691262941,480866311,"""world""",,,-1.9464638233184814,1.6083197593688965,0.10368866473436356
1691262941490980594,,1885,,1691262941,490894484,"""world""",,,-1.9464826583862305,1.6083085536956787,0.10373629629611969
1691262941500963043,,1886,,1691262941,500875432,"""world""",,,-1.9464677572250366,1.6083565950393677,0.10370862483978271
1691262941510941378,,1887,,1691262941,510870475,"""world""",,,-1.9465140104293823,1.6083083152770996,0.10377673804759979
1691262941520932130,,1888,,1691262941,520867863,"""world""",,,-1.9465022087097168,1.6083099842071533,0.1037750393152237
1691262941530961713,,1889,,1691262941,530882257,"""world""",,,-1.946479320526123,1.6083576679229736,0.10375625640153885
1691262941540990881,,1890,,1691262941,540896394,"""world""",,,-1.946493148803711,1.608290672302246,0.10374431312084198
1691262941550932673,,1891,,1691262941,550864491,"""world""",,,-1.9465121030807495,1.6082959175109863,0.10376424342393875
1691262941560972944,,1892,,1691262941,560894598,"""world""",,,-1.9465069770812988,1.6082990169525146,0.10373936593532562
1691262941571004613,,1893,,1691262941,570900649,"""world""",,,-1.9465038776397705,1.608310341835022,0.10374341905117035
1691262941580952483,,1894,,1691262941,580880067,"""world""",,,-1.9464664459228516,1.6083152294158936,0.10372547805309296
1691262941591121671,,1895,,1691262941,590969154,"""world""",,,-1.9464905261993408,1.6082649230957031,0.1037597730755806
1691262941600994094,,1896,,1691262941,600901201,"""world""",,,-1.9464874267578125,1.6082860231399536,0.10373876988887787
1691262941611003800,,1897,,1691262941,610912886,"""world""",,,-1.9465086460113525,1.608309030532837,0.10373551398515701
1691262941620959799,,1898,,1691262941,620880001,"""world""",,,-1.9464858770370483,1.6082921028137207,0.10376609116792679
1691262941630992314,,1899,,1691262941,630908871,"""world""",,,-1.9464765787124634,1.6082658767700195,0.10371934622526169
1691262941640998636,,1900,,1691262941,640891671,"""world""",,,-1.946484923362732,1.6082918643951416,0.10373062640428543
1691262941650973506,,1901,,1691262941,650897007,"""world""",,,-1.9465010166168213,1.6082942485809326,0.10372859984636307
1691262941660992009,,1902,,1691262941,660914781,"""world""",,,-1.9465160369873047,1.6083087921142578,0.1037476509809494
1691262941670978880,,1903,,1691262941,670901597,"""world""",,,-1.9465341567993164,1.6083199977874756,0.10379396378993988
1691262941680944982,,1904,,1691262941,680870249,"""world""",,,-1.946519136428833,1.6082955598831177,0.10379593074321747
1691262941691047787,,1905,,1691262941,690907370,"""world""",,,-1.9465250968933105,1.6082932949066162,0.10377417504787445
1691262941701023787,,1906,,1691262941,700900594,"""world""",,,-1.9464659690856934,1.6083307266235352,0.10374075919389725
1691262941710987666,,1907,,1691262941,710868779,"""world""",,,-1.9463691711425781,1.6083818674087524,0.10370887070894241
1691262941720968803,,1908,,1691262941,720876364,"""world""",,,-1.9463534355163574,1.6083400249481201,0.10376350581645966
1691262941730961385,,1909,,1691262941,730873453,"""world""",,,-1.9463162422180176,1.6083502769470215,0.10373935103416443
1691262941740971565,,1910,,1691262941,740897675,"""world""",,,-1.9463016986846924,1.6084258556365967,0.10375550389289856
1691262941750969482,,1911,,1691262941,750883280,"""world""",,,-1.9461712837219238,1.6085047721862793,0.1036776751279831
1691262941760967793,,1912,,1691262941,760883259,"""world""",,,-1.9462041854858398,1.6084458827972412,0.10373221337795258
1691262941770956130,,1913,,1691262941,770876999,"""world""",,,-1.9461064338684082,1.6084604263305664,0.10372171550989151
1691262941791111394,,1914,,1691262941,790955410,"""world""",,,-1.946075677871704,1.6083942651748657,0.10376207530498505
1691262941801023965,,1915,,1691262941,800917644,"""world""",,,-1.946029543876648,1.6084074974060059,0.10374338179826736
1691262941830950069,,1916,,1691262941,830876812,"""world""",,,-1.9458980560302734,1.6082602739334106,0.10380315780639648
1691262941841024588,,1917,,1691262941,840921241,"""world""",,,-1.9457647800445557,1.6081748008728027,0.10381300002336502
1691262941851017319,,1918,,1691262941,850884278,"""world""",,,-1.9456990957260132,1.6081076860427856,0.10379758477210999
1691262941861023743,,1919,,1691262941,860894525,"""world""",,,-1.9456312656402588,1.6080042123794556,0.10380339622497559
1691262941870983231,,1920,,1691262941,870869339,"""world""",,,-1.9455326795578003,1.6078503131866455,0.1038280576467514
1691262941880972998,,1921,,1691262941,880877702,"""world""",,,-1.9454646110534668,1.6076656579971313,0.10385343432426453
1691262941891063041,,1922,,1691262941,890920603,"""world""",,,-1.9453262090682983,1.607619285583496,0.10388621687889099
1691262941900981668,,1923,,1691262941,900881504,"""world""",,,-1.9452390670776367,1.6073758602142334,0.10399840772151947
1691262941910954714,,1924,,1691262941,910874646,"""world""",,,-1.9451632499694824,1.6071521043777466,0.10408861190080643
1691262941920942013,,1925,,1691262941,920869616,"""world""",,,-1.945082187652588,1.6069273948669434,0.1042264997959137
1691262941930945863,,1926,,1691262941,930870915,"""world""",,,-1.9449689388275146,1.6065951585769653,0.10443145781755447
1691262941970946388,,1927,,1691262941,970871139,"""world""",,,-1.9445890188217163,1.6049987077713013,0.10619422793388367
1691262941980984871,,1928,,1691262941,980867933,"""world""",,,-1.9444661140441895,1.6046262979507446,0.10693489015102386
1691262942030980381,,1929,,1691262942,30884253,"""world""",,,-1.9442408084869385,1.601525902748108,0.11302004754543304
1691262942101006681,,1930,,1691262942,100899244,"""world""",,,-1.9441651105880737,1.595782995223999,0.12882551550865173
1691262942120952720,,1931,,1691262942,120872030,"""world""",,,-1.9444860219955444,1.5939370393753052,0.1358555555343628
1691262942320963757,,1932,,1691262942,320870723,"""world""",,,-1.956895112991333,1.579350233078003,0.26044222712516785
1691262942331036094,,1933,,1691262942,330900584,"""world""",,,-1.957716464996338,1.5787794589996338,0.26863884925842285
1691262942350995647,,1934,,1691262942,350906388,"""world""",,,-1.959287405014038,1.5778017044067383,0.2853861153125763
1691262942360987839,,1935,,1691262942,360889098,"""world""",,,-1.9601300954818726,1.5775208473205566,0.2939116656780243
1691262942380981393,,1936,,1691262942,380876988,"""world""",,,-1.9616755247116089,1.5766431093215942,0.3116208016872406
1691262942391167398,,1937,,1691262942,390943421,"""world""",,,-1.962563395500183,1.5762715339660645,0.3205007016658783
1691262942410944652,,1938,,1691262942,410872376,"""world""",,,-1.9642326831817627,1.575398564338684,0.3389596939086914
1691262942420956282,,1939,,1691262942,420873414,"""world""",,,-1.964968204498291,1.5751488208770752,0.3482475280761719
1691262942460952501,,1940,,1691262942,460872636,"""world""",,,-1.9680061340332031,1.5738606452941895,0.3870363235473633
1691262942471010322,,1941,,1691262942,470882155,"""world""",,,-1.9687211513519287,1.5735737085342407,0.3970962464809418
1691262942710914409,,1942,,1691262942,710834600,"""world""",,,-1.9782078266143799,1.568783164024353,0.627470850944519
1691262942710922699,,1943,,1691262942,710847414,"""world""",,,-1.9833059310913086,1.5695774555206299,0.6607955098152161
1691262942980964628,,1944,,1691262942,980862298,"""world""",,,-1.9907455444335938,1.570826768875122,0.9684512615203857
1691262943220951459,,1945,,1691262943,220867374,"""world""",,,-1.9937336444854736,1.5728474855422974,1.179256558418274
1691262943220958921,,1946,,1691262943,220883018,"""world""",,,-1.9938082695007324,1.573032021522522,1.187382459640503
1691262943400980761,,1947,,1691262943,400893713,"""world""",,,-1.9923189878463745,1.5751487016677856,1.3189197778701782
1691262943470953136,,1948,,1691262943,470877245,"""world""",,,-1.990943193435669,1.574718952178955,1.356226921081543
1691262943560984429,,1949,,1691262943,560882458,"""world""",,,-1.9893912076950073,1.5713872909545898,1.3966789245605469
1691262943640958484,,1950,,1691262943,640876524,"""world""",,,-1.9890918731689453,1.5630565881729126,1.425520896911621
1691262943680965979,,1951,,1691262943,680880577,"""world""",,,-1.989490032196045,1.5564883947372437,1.4376164674758911
1691262943700977372,,1952,,1691262943,700891981,"""world""",,,-1.9900000095367432,1.5516496896743774,1.4432493448257446
1691262943710945919,,1953,,1691262943,710871368,"""world""",,,-1.9901490211486816,1.5493253469467163,1.4459043741226196
1691262943800986586,,1954,,1691262943,800885283,"""world""",,,-1.9946560859680176,1.51984441280365,1.4667181968688965
1691262943860985195,,1955,,1691262943,860887113,"""world""",,,-1.9999232292175293,1.4915271997451782,1.4780369997024536
1691262943900953082,,1956,,1691262943,900874888,"""world""",,,-2.0045249462127686,1.4685001373291016,1.4841655492782593
1691262943910999617,,1957,,1691262943,910904528,"""world""",,,-2.0058846473693848,1.4621130228042603,1.485797643661499
1691262943940956202,,1958,,1691262943,940872029,"""world""",,,-2.0101816654205322,1.4417742490768433,1.489811897277832
1691262943961063565,,1959,,1691262943,960899341,"""world""",,,-2.0134785175323486,1.4270178079605103,1.492228627204895
1691262943991042030,,1960,,1691262943,990916841,"""world""",,,-2.0187559127807617,1.40346097946167,1.4956058263778687
1691262944021007268,,1961,,1691262944,20906721,"""world""",,,-2.024217367172241,1.3785091638565063,1.4986757040023804
1691262944030967680,,1962,,1691262944,30877354,"""world""",,,-2.0262372493743896,1.3697097301483154,1.4995609521865845
1691262944040995768,,1963,,1691262944,40889363,"""world""",,,-2.0282135009765625,1.3606994152069092,1.5004527568817139
1691262944250953978,,1964,,1691262944,250871532,"""world""",,,-2.063833713531494,1.203530192375183,1.5096503496170044
1691262944250962183,,1965,,1691262944,250883960,"""world""",,,-2.071892023086548,1.1672476530075073,1.5103591680526733
1691262944251003181,,1966,,1691262944,250897072,"""world""",,,-2.074160575866699,1.1552680730819702,1.5102730989456177
1691262944300966046,,1967,,1691262944,300877597,"""world""",,,-2.091625452041626,1.064200758934021,1.5106185674667358
1691262944310972100,,1968,,1691262944,310888159,"""world""",,,-2.0940823554992676,1.0503369569778442,1.5105292797088623
1691262944320936708,,1969,,1691262944,320867446,"""world""",,,-2.0964248180389404,1.036716103553772,1.510241150856018
1691262944341022403,,1970,,1691262944,340883734,"""world""",,,-2.1009631156921387,1.0085797309875488,1.5099941492080688
1691262944420920655,,1971,,1691262944,420861775,"""world""",,,-2.1176023483276367,0.8905593156814575,1.5063849687576294
1691262944510955528,,1972,,1691262944,510874498,"""world""",,,-2.1331708431243896,0.7501429915428162,1.5010905265808105
1691262945040965959,,1973,,1691262945,40887545,"""world""",,,-2.053546905517578,-0.01628560572862625,1.4277760982513428
1691262945070983727,,1974,,1691262945,70867622,"""world""",,,-2.0348687171936035,-0.04990055412054062,1.4224951267242432
1691262945080984174,,1975,,1691262945,80879696,"""world""",,,-2.0254693031311035,-0.0610521174967289,1.4216347932815552
1691262945130958249,,1976,,1691262945,130870207,"""world""",,,-1.9959959983825684,-0.11810343712568283,1.4120959043502808
1691262945160961144,,1977,,1691262945,160875499,"""world""",,,-1.9721519947052002,-0.15013623237609863,1.4070091247558594
1691262945191001730,,1978,,1691262945,190880635,"""world""",,,-1.9479140043258667,-0.18149279057979584,1.4019838571548462
1691262945210949476,,1979,,1691262945,210869475,"""world""",,,-1.929429054260254,-0.20154918730258942,1.3986107110977173
1691262945241050694,,1980,,1691262945,240905853,"""world""",,,-1.902304768562317,-0.23191559314727783,1.3935006856918335
1691262945310937763,,1981,,1691262945,310870918,"""world""",,,-1.8295609951019287,-0.29781627655029297,1.382646083831787
1691262945320925701,,1982,,1691262945,320864540,"""world""",,,-1.8189581632614136,-0.306672602891922,1.38103449344635
1691262945410981661,,1983,,1691262945,410871317,"""world""",,,-1.7097440958023071,-0.38545435667037964,1.3674533367156982
1691262945580934942,,1984,,1691262945,580871930,"""world""",,,-1.522369146347046,-0.486966609954834,1.3512449264526367
1691262953670967491,,1985,,1691262953,670871765,"""world""",,,5.426756381988525,-3.1665749549865723,2.052119493484497
1691262953670976613,,1987,,1691262953,670891220,"""world""",,,5.408823490142822,-3.1524181365966797,2.075803518295288
1691262953671003001,,1988,,1691262953,670909705,"""world""",,,5.396963596343994,-3.143075704574585,2.0907111167907715
1691262953690984210,,1989,,1691262953,690893212,"""world""",,,5.3632121086120605,-3.1165404319763184,2.131235361099243
1691262953700953805,,1990,,1691262953,700876259,"""world""",,,5.357815742492676,-3.112273931503296,2.1373088359832764
1691262953710963739,,1991,,1691262953,710870393,"""world""",,,5.3525471687316895,-3.1080963611602783,2.143392324447632
1691262953720940792,,1992,,1691262953,720870008,"""world""",,,5.347169876098633,-3.1038918495178223,2.1490938663482666
1691262953730923436,,1993,,1691262953,730859495,"""world""",,,5.341673851013184,-3.099625825881958,2.154742956161499
1691262953740982568,,1994,,1691262953,740899746,"""world""",,,5.33641242980957,-3.0955257415771484,2.160311460494995
1691262953760959799,,1995,,1691262953,760867548,"""world""",,,5.325209140777588,-3.087181568145752,2.170726776123047
1691262953770938528,,1996,,1691262953,770872380,"""world""",,,5.319571495056152,-3.0828583240509033,2.1757571697235107
1691262953781024382,,1997,,1691262953,780895503,"""world""",,,5.314213752746582,-3.079059362411499,2.180710792541504
1691262953800950927,,1998,,1691262953,800870055,"""world""",,,5.303582668304443,-3.070955753326416,2.1898655891418457
1691262953811027084,,1999,,1691262953,810906763,"""world""",,,5.298172950744629,-3.0670325756073,2.19431209564209
1691262958681024055,,2000,,1691262958,680912433,"""world""",,,0.5182799696922302,-1.643221378326416,1.5904731750488281
1691262958681051521,,2001,,1691262958,680948708,"""world""",,,0.4290503263473511,-1.6266072988510132,1.5745168924331665
1691262958700971480,,2002,,1691262958,700884283,"""world""",,,0.4068683087825775,-1.622111201286316,1.5697214603424072
1691262958720957088,,2003,,1691262958,720881437,"""world""",,,0.38489967584609985,-1.6170642375946045,1.5643954277038574
1691262958760936942,,2004,,1691262958,760869230,"""world""",,,0.341235488653183,-1.6077697277069092,1.553186297416687
1691262958781034058,,2005,,1691262958,780912706,"""world""",,,0.31943994760513306,-1.60288405418396,1.5471360683441162
1691262958800981166,,2006,,1691262958,800880036,"""world""",,,0.2990962862968445,-1.5989534854888916,1.5414156913757324
1691262959000963651,,2007,,1691262959,870351,"""world""",,,0.08960674703121185,-1.5541726350784302,1.4627505540847778
1691262959200946592,,2008,,1691262959,200865236,"""world""",,,-0.06255670636892319,-1.5181114673614502,1.3907041549682617
1691262959200954504,,2009,,1691262959,200878204,"""world""",,,-0.08332190662622452,-1.5133121013641357,1.3810696601867676
1691262959200971270,,2010,,1691262959,200895958,"""world""",,,-0.10310204327106476,-1.5091166496276855,1.3715542554855347
1691262959210952980,,2011,,1691262959,210875815,"""world""",,,-0.12324405461549759,-1.5050921440124512,1.3626447916030884
1691262959230941327,,2012,,1691262959,230869864,"""world""",,,-0.14376279711723328,-1.5003671646118164,1.3537230491638184
1691262959291011170,,2013,,1691262959,290882772,"""world""",,,-0.20409926772117615,-1.4877877235412598,1.3299797773361206
1691262959310950764,,2014,,1691262959,310868389,"""world""",,,-0.22381004691123962,-1.483604907989502,1.322530746459961
1691262959360982881,,2015,,1691262959,360867883,"""world""",,,-0.2744888663291931,-1.4726104736328125,1.3060072660446167
1691262960940962437,,2016,,1691262960,940877188,"""world""",,,-1.801210880279541,-1.1796976327896118,1.2202434539794922
1691262961010942357,,2017,,1691262961,10869914,"""world""",,,-1.945273995399475,-1.1480202674865723,1.1870166063308716
1691262961091010668,,2018,,1691262961,90905108,"""world""",,,-2.018646717071533,-1.1308988332748413,1.1619634628295898
1691262961110949439,,2019,,1691262961,110872855,"""world""",,,-2.035555124282837,-1.1259160041809082,1.1551034450531006
1691262961170977144,,2020,,1691262961,170878588,"""world""",,,-2.088304281234741,-1.1142722368240356,1.1328518390655518
1691262961230977825,,2021,,1691262961,230872000,"""world""",,,-2.135310173034668,-1.102654218673706,1.1101900339126587
1691262961280976016,,2022,,1691262961,280874387,"""world""",,,-2.175387144088745,-1.0929811000823975,1.0891141891479492
1691262961300966076,,2023,,1691262961,300879829,"""world""",,,-2.190887451171875,-1.0895757675170898,1.0807945728302002
1691262961310941106,,2024,,1691262961,310875525,"""world""",,,-2.198357343673706,-1.0876878499984741,1.076185941696167
1691262961441257394,,2025,,1691262961,441158240,"""world""",,,-2.2700798511505127,-1.070662498474121,1.031392216682434
1691262961460974456,,2026,,1691262961,460884506,"""world""",,,-2.3036930561065674,-1.0627059936523438,1.0080451965332031
1691262961550981842,,2027,,1691262961,550884714,"""world""",,,-2.361283779144287,-1.0485138893127441,0.9659626483917236
1691262961560954423,,2028,,1691262961,560875835,"""world""",,,-2.3677027225494385,-1.0467979907989502,0.9615424275398254
1691262961570938359,,2029,,1691262961,570867257,"""world""",,,-2.373586893081665,-1.0455361604690552,0.9570068717002869
1691262961591046980,,2030,,1691262961,590933125,"""world""",,,-2.3854801654815674,-1.0423625707626343,0.9477992653846741
1691262961600968710,,2031,,1691262961,600862107,"""world""",,,-2.3914108276367188,-1.0408108234405518,0.9433923959732056
1691262961610953734,,2032,,1691262961,610885439,"""world""",,,-2.3972599506378174,-1.0389572381973267,0.9386394023895264
1691262961621019596,,2033,,1691262961,620914201,"""world""",,,-2.404738187789917,-1.0363597869873047,0.9338995814323425
1691262961631023001,,2034,,1691262961,630925281,"""world""",,,-2.408992290496826,-1.0360820293426514,0.9295651316642761
1691262961650962751,,2035,,1691262961,650878559,"""world""",,,-2.4203455448150635,-1.033239483833313,0.9204807877540588
1691262961670971323,,2036,,1691262961,670893098,"""world""",,,-2.4336812496185303,-1.0286487340927124,0.9111717343330383
1691262961690954282,,2037,,1691262961,690875608,"""world""",,,-2.444474220275879,-1.0258976221084595,0.901763916015625
1691262961710953200,,2038,,1691262961,710878091,"""world""",,,-2.4558722972869873,-1.0236961841583252,0.8933422565460205
1691262961721010586,,2039,,1691262961,720902087,"""world""",,,-2.46093487739563,-1.0214009284973145,0.8881743550300598
1691262961730960304,,2040,,1691262961,730861475,"""world""",,,-2.4668123722076416,-1.0209113359451294,0.8843433260917664
1691262961741059619,,2041,,1691262961,740935155,"""world""",,,-2.4714736938476562,-1.0193979740142822,0.8791373372077942
1691262961750974878,,2042,,1691262961,750887763,"""world""",,,-2.477407455444336,-1.0173444747924805,0.8746377825737
1691262961760929346,,2043,,1691262961,760869180,"""world""",,,-2.482224702835083,-1.0169860124588013,0.8701834082603455
1691262961770944664,,2044,,1691262961,770877442,"""world""",,,-2.488499402999878,-1.0147862434387207,0.8660337924957275
1691262961780942339,,2045,,1691262961,780870213,"""world""",,,-2.4935925006866455,-1.013357162475586,0.8610144257545471
1691262961791016171,,2046,,1691262961,790903602,"""world""",,,-2.499033212661743,-1.0125236511230469,0.8570535182952881
1691262961800929134,,2047,,1691262961,800867912,"""world""",,,-2.504129648208618,-1.0109341144561768,0.8519623875617981
1691262961810954564,,2048,,1691262961,810882175,"""world""",,,-2.5095760822296143,-1.0097869634628296,0.8478643894195557
1691262961820977829,,2049,,1691262961,820901252,"""world""",,,-2.514403820037842,-1.0085265636444092,0.8429879546165466
1691262961830920226,,2050,,1691262961,830859681,"""world""",,,-2.519740104675293,-1.0070048570632935,0.8383400440216064
1691262961840990633,,2051,,1691262961,840898525,"""world""",,,-2.5251622200012207,-1.0061568021774292,0.8342947959899902
1691262961850959946,,2052,,1691262961,850878927,"""world""",,,-2.5300865173339844,-1.0044127702713013,0.8294026255607605
1691262961860970497,,2053,,1691262961,860866580,"""world""",,,-2.5352089405059814,-1.0029608011245728,0.8248608708381653
1691262961870957728,,2054,,1691262961,870878810,"""world""",,,-2.5405330657958984,-1.0024052858352661,0.821019172668457
1691262961880956634,,2055,,1691262961,880876783,"""world""",,,-2.545407295227051,-1.0003515481948853,0.815995991230011
1691262961890998885,,2056,,1691262961,890917165,"""world""",,,-2.550776958465576,-0.9998985528945923,0.8122941851615906
1691262961900924193,,2057,,1691262961,900859552,"""world""",,,-2.555492639541626,-0.9979615211486816,0.8072518706321716
1691262961911038815,,2058,,1691262961,910911575,"""world""",,,-2.5605685710906982,-0.9964969754219055,0.8028903603553772
1691262961920983496,,2059,,1691262961,920885740,"""world""",,,-2.5649635791778564,-0.9961742758750916,0.7985097765922546
1691262961930958579,,2060,,1691262961,930857437,"""world""",,,-2.5704658031463623,-0.9943801164627075,0.7941641211509705
1691262961941160488,,2061,,1691262961,940947172,"""world""",,,-2.575572967529297,-0.9938955903053284,0.7904750108718872
1691262961950988034,,2062,,1691262961,950880672,"""world""",,,-2.580275774002075,-0.9920706152915955,0.785459578037262
1691262961960932340,,2063,,1691262961,960866647,"""world""",,,-2.5848653316497803,-0.9914194941520691,0.7812716960906982
1691262961970975580,,2064,,1691262961,970886842,"""world""",,,-2.589933156967163,-0.9899114966392517,0.7768433690071106
1691262961980959076,,2065,,1691262961,980872648,"""world""",,,-2.59505033493042,-0.9888304471969604,0.7729467749595642
1691262961990944718,,2066,,1691262961,990871005,"""world""",,,-2.5989863872528076,-0.9883254170417786,0.7682019472122192
1691262962000913428,,2067,,1691262962,851929,"""world""",,,-2.6044013500213623,-0.9864751100540161,0.7638694643974304
1691262962010961570,,2068,,1691262962,10878998,"""world""",,,-2.609218120574951,-0.9859724044799805,0.7602046728134155
1691262962020990457,,2069,,1691262962,20884619,"""world""",,,-2.6137821674346924,-0.9842089414596558,0.7552838325500488
1691262962030956091,,2070,,1691262962,30858638,"""world""",,,-2.618250608444214,-0.9836809635162354,0.7513059377670288
1691262962041024776,,2071,,1691262962,40907162,"""world""",,,-2.6224560737609863,-0.9826805591583252,0.7468116283416748
1691262962050994699,,2072,,1691262962,50877164,"""world""",,,-2.6280105113983154,-0.9805024266242981,0.7428538203239441
1691262962060936606,,2073,,1691262962,60865229,"""world""",,,-2.632223129272461,-0.9794122576713562,0.7380908131599426
1691262962070967144,,2074,,1691262962,70884501,"""world""",,,-2.637078046798706,-0.9786427617073059,0.7343536019325256
1691262962080995997,,2075,,1691262962,80891736,"""world""",,,-2.641294240951538,-0.9773162603378296,0.7297024726867676
1691262962090949463,,2076,,1691262962,90877226,"""world""",,,-2.6452012062072754,-0.9769457578659058,0.7255752086639404
1691262962100947613,,2077,,1691262962,100872596,"""world""",,,-2.650135040283203,-0.9750654101371765,0.721287727355957
1691262962110967835,,2078,,1691262962,110872394,"""world""",,,-2.6547420024871826,-0.9743697643280029,0.7176135182380676
1691262962120946250,,2079,,1691262962,120868483,"""world""",,,-2.6588923931121826,-0.9728201627731323,0.7129030227661133
1691262962130918508,,2080,,1691262962,130857002,"""world""",,,-2.6633331775665283,-0.9723210334777832,0.7092539072036743
1691262962140960488,,2081,,1691262962,140886262,"""world""",,,-2.6674728393554688,-0.9705479145050049,0.7045133709907532
1691262962151082484,,2082,,1691262962,150930220,"""world""",,,-2.6710572242736816,-0.9701595902442932,0.7004547119140625
1691262962160999815,,2083,,1691262962,160894746,"""world""",,,-2.6759774684906006,-0.968262791633606,0.6962130069732666
1691262962170965951,,2084,,1691262962,170879378,"""world""",,,-2.6804161071777344,-0.9674457907676697,0.6926392316818237
1691262962180975215,,2085,,1691262962,180871961,"""world""",,,-2.684084892272949,-0.9663175344467163,0.6881084442138672
1691262962190927704,,2086,,1691262962,190868011,"""world""",,,-2.6886327266693115,-0.9652281999588013,0.6843376755714417
1691262962200946380,,2087,,1691262962,200875162,"""world""",,,-2.692584276199341,-0.9632446765899658,0.6796042919158936
1691262962210960695,,2088,,1691262962,210875767,"""world""",,,-2.6960442066192627,-0.9629652500152588,0.6757557392120361
1691262962220944933,,2089,,1691262962,220870406,"""world""",,,-2.7007157802581787,-0.9609986543655396,0.6715219020843506
1691262962230930213,,2090,,1691262962,230868245,"""world""",,,-2.7050399780273438,-0.9595953822135925,0.6678087115287781
1691262962240960851,,2091,,1691262962,240883397,"""world""",,,-2.7086703777313232,-0.9584963321685791,0.6633608937263489
1691262962250947212,,2092,,1691262962,250871597,"""world""",,,-2.7128312587738037,-0.9576591849327087,0.6597113013267517
1691262962260938406,,2093,,1691262962,260871262,"""world""",,,-2.716540575027466,-0.9558389186859131,0.6551477313041687
1691262962270976940,,2094,,1691262962,270873074,"""world""",,,-2.7206947803497314,-0.9550622701644897,0.651729166507721
1691262962280958782,,2095,,1691262962,280873121,"""world""",,,-2.7242612838745117,-0.9536392092704773,0.6470729112625122
1691262962290993455,,2096,,1691262962,290886007,"""world""",,,-2.7275257110595703,-0.9530197978019714,0.6430302858352661
1691262962300986657,,2097,,1691262962,300871873,"""world""",,,-2.7318344116210938,-0.9512513875961304,0.6389505863189697
1691262962310954340,,2098,,1691262962,310871400,"""world""",,,-2.7349491119384766,-0.9506756067276001,0.6351054906845093
1691262962321019750,,2099,,1691262962,320895242,"""world""",,,-2.7393805980682373,-0.9486092329025269,0.6308771371841431
1691262962330950133,,2100,,1691262962,330879876,"""world""",,,-2.74247407913208,-0.9481382369995117,0.6270286440849304
1691262962341000356,,2101,,1691262962,340881541,"""world""",,,-2.7460732460021973,-0.9470513463020325,0.6230331659317017
1691262962350955771,,2102,,1691262962,350867959,"""world""",,,-2.7502963542938232,-0.9450923204421997,0.6189626455307007
1691262962360934423,,2103,,1691262962,360870414,"""world""",,,-2.7534267902374268,-0.9445607662200928,0.6150878071784973
1691262962371010978,,2104,,1691262962,370888368,"""world""",,,-2.7575502395629883,-0.9427148103713989,0.6111556887626648
1691262962380983033,,2105,,1691262962,380891121,"""world""",,,-2.76098895072937,-0.9418702125549316,0.6073915362358093
1691262962390975768,,2106,,1691262962,390881422,"""world""",,,-2.764707326889038,-0.9404453039169312,0.6033115386962891
1691262962400927718,,2107,,1691262962,400864167,"""world""",,,-2.7681381702423096,-0.939344584941864,0.5996751189231873
1691262962410988678,,2108,,1691262962,410881884,"""world""",,,-2.7717349529266357,-0.9381389021873474,0.5955707430839539
1691262962420964884,,2109,,1691262962,420885483,"""world""",,,-2.7751617431640625,-0.9370326399803162,0.5916991829872131
1691262962430959090,,2110,,1691262962,430892043,"""world""",,,-2.778686046600342,-0.9365066289901733,0.5883525609970093
1691262962440981411,,2111,,1691262962,440887591,"""world""",,,-2.7820961475372314,-0.9347711801528931,0.5839775204658508
1691262962450943243,,2112,,1691262962,450872665,"""world""",,,-2.7858123779296875,-0.93404221534729,0.5807049870491028
1691262962460943631,,2113,,1691262962,460872143,"""world""",,,-2.789017915725708,-0.9324618577957153,0.5761632919311523
1691262962470961233,,2114,,1691262962,470874070,"""world""",,,-2.7921359539031982,-0.9320370554924011,0.5725285410881042
1691262962480949022,,2115,,1691262962,480881155,"""world""",,,-2.7955617904663086,-0.930730402469635,0.5686099529266357
1691262962490997556,,2116,,1691262962,490897352,"""world""",,,-2.799088716506958,-0.9292964339256287,0.5646700263023376
1691262962500938947,,2117,,1691262962,500870557,"""world""",,,-2.8026018142700195,-0.9288188219070435,0.5615052580833435
1691262962510970292,,2118,,1691262962,510873594,"""world""",,,-2.805837631225586,-0.9270719885826111,0.5569989681243896
1691262962520966148,,2119,,1691262962,520872605,"""world""",,,-2.808852434158325,-0.9266518950462341,0.553296685218811
1691262962530961728,,2120,,1691262962,530858304,"""world""",,,-2.811807155609131,-0.9261194467544556,0.5495376586914062
1691262962540962107,,2121,,1691262962,540880125,"""world""",,,-2.8157737255096436,-0.9242052435874939,0.5456001162528992
1691262962550979730,,2122,,1691262962,550885705,"""world""",,,-2.819140911102295,-0.9237353801727295,0.54227215051651
1691262962560940492,,2123,,1691262962,560870288,"""world""",,,-2.8222005367279053,-0.9226639270782471,0.537991464138031
1691262962570966842,,2124,,1691262962,570863889,"""world""",,,-2.8255598545074463,-0.9213333129882812,0.5341960191726685
1691262962580999182,,2125,,1691262962,580893264,"""world""",,,-2.8282816410064697,-0.9212167263031006,0.5301825404167175
1691262962590988952,,2126,,1691262962,590871417,"""world""",,,-2.832127332687378,-0.9193747043609619,0.5262113213539124
1691262962600950170,,2127,,1691262962,600856257,"""world""",,,-2.835225820541382,-0.9189363718032837,0.5225985050201416
1691262962610983401,,2128,,1691262962,610879022,"""world""",,,-2.838407516479492,-0.9180412888526917,0.5187475085258484
1691262962620980174,,2129,,1691262962,620884296,"""world""",,,-2.841837167739868,-0.916824460029602,0.5147556662559509
1691262962630931687,,2130,,1691262962,630860103,"""world""",,,-2.845005512237549,-0.9161995053291321,0.5110228657722473
1691262962640984596,,2131,,1691262962,640879237,"""world""",,,-2.848153591156006,-0.9156813025474548,0.5073167681694031
1691262962651061115,,2132,,1691262962,650931945,"""world""",,,-2.8516123294830322,-0.914381742477417,0.503356397151947
1691262962661008272,,2133,,1691262962,660867471,"""world""",,,-2.8545730113983154,-0.9141121506690979,0.4998297691345215
1691262962670987611,,2134,,1691262962,670868964,"""world""",,,-2.8581669330596924,-0.9123417735099792,0.4956672191619873
1691262962680951058,,2135,,1691262962,680869950,"""world""",,,-2.8607025146484375,-0.9127414226531982,0.4921751320362091
1691262962690946030,,2136,,1691262962,690869462,"""world""",,,-2.863988161087036,-0.9117715358734131,0.4882603585720062
1691262962700917806,,2137,,1691262962,700858059,"""world""",,,-2.8671875,-0.9110991358757019,0.48475682735443115
1691262962711004889,,2138,,1691262962,710886056,"""world""",,,-2.8710849285125732,-0.9095281362533569,0.4810343086719513
1691262962721045895,,2139,,1691262962,720914168,"""world""",,,-2.8746986389160156,-0.908778190612793,0.4778535068035126
1691262962730943521,,2140,,1691262962,730859803,"""world""",,,-2.8776302337646484,-0.907926082611084,0.4736586809158325
1691262962740980300,,2141,,1691262962,740889449,"""world""",,,-2.8802244663238525,-0.9081408381462097,0.4701390266418457
1691262962750958767,,2142,,1691262962,750875363,"""world""",,,-2.883870840072632,-0.9072445034980774,0.46657824516296387
1691262962760968164,,2143,,1691262962,760906160,"""world""",,,-2.8873538970947266,-0.9059600234031677,0.46288561820983887
1691262962770921657,,2144,,1691262962,770853701,"""world""",,,-2.8907012939453125,-0.9053217768669128,0.459370493888855
1691262962780943983,,2145,,1691262962,780871714,"""world""",,,-2.893872022628784,-0.90488600730896,0.455896258354187
1691262962791057354,,2146,,1691262962,790922772,"""world""",,,-2.8972396850585938,-0.9038347601890564,0.4524248540401459
1691262962801014910,,2147,,1691262962,800936766,"""world""",,,-2.9005000591278076,-0.9032002687454224,0.44902467727661133
1691262962810951768,,2148,,1691262962,810875054,"""world""",,,-2.903817653656006,-0.9030339121818542,0.44614434242248535
1691262962820975322,,2149,,1691262962,820885781,"""world""",,,-2.9069535732269287,-0.9018144011497498,0.4421981871128082
1691262962830940108,,2150,,1691262962,830883840,"""world""",,,-2.9098377227783203,-0.9018479585647583,0.43908625841140747
1691262962840972598,,2151,,1691262962,840883454,"""world""",,,-2.9130213260650635,-0.9012973308563232,0.43594735860824585
1691262962850988691,,2152,,1691262962,850883229,"""world""",,,-2.9164371490478516,-0.8999102115631104,0.4323750436306
1691262962860965903,,2153,,1691262962,860897584,"""world""",,,-2.91961669921875,-0.8993658423423767,0.4291452467441559
1691262962870971001,,2154,,1691262962,870883722,"""world""",,,-2.922189950942993,-0.8997874855995178,0.4261671304702759
1691262962880937575,,2155,,1691262962,880869267,"""world""",,,-2.925584554672241,-0.8987869620323181,0.4233386516571045
1691262962890942362,,2156,,1691262962,890873211,"""world""",,,-2.9290761947631836,-0.8973933458328247,0.4200035631656647
1691262962900988492,,2157,,1691262962,900882229,"""world""",,,-2.9314820766448975,-0.8977306485176086,0.41708406805992126
1691262962910979972,,2158,,1691262962,910906139,"""world""",,,-2.9351301193237305,-0.8966930508613586,0.414268434047699
1691262962920999472,,2159,,1691262962,920907761,"""world""",,,-2.9383585453033447,-0.8956120014190674,0.4112655222415924
1691262962930992271,,2160,,1691262962,930895053,"""world""",,,-2.9411556720733643,-0.8957253694534302,0.4086395502090454
1691262962941002065,,2161,,1691262962,940895097,"""world""",,,-2.9443423748016357,-0.8949465751647949,0.4058394432067871
1691262962951000699,,2162,,1691262962,950900533,"""world""",,,-2.9475765228271484,-0.8937343955039978,0.4030400514602661
1691262962960930670,,2163,,1691262962,960867064,"""world""",,,-2.950645685195923,-0.8932108879089355,0.40050628781318665
