rosbagTimestamp,header,seq,stamp,secs,nsecs,frame_id,pose,position,x,y,z
1690461928463467594,,812,,1690461928,463403815,"""world""",,,3.365217685699463,13.200450897216797,-0.02108498103916645
1690461928473490210,,813,,1690461928,473439537,"""world""",,,3.365205764770508,13.200414657592773,-0.021095559000968933
1690461928493999784,,814,,1690461928,493399090,"""world""",,,3.3652150630950928,13.200431823730469,-0.021100688725709915
1690461928494004929,,815,,1690461928,493410943,"""world""",,,3.3652095794677734,13.200437545776367,-0.02107563056051731
1690461928503498359,,816,,1690461928,503405760,"""world""",,,3.3652143478393555,13.200425148010254,-0.021089499816298485
1690461928523526089,,817,,1690461928,523443830,"""world""",,,3.365203857421875,13.20041275024414,-0.02108490839600563
1690461928523533384,,818,,1690461928,523464108,"""world""",,,3.3652191162109375,13.200421333312988,-0.021091165021061897
1690461928533456634,,819,,1690461928,533399268,"""world""",,,3.3652074337005615,13.200432777404785,-0.021085260435938835
1690461928543452367,,820,,1690461928,543394866,"""world""",,,3.3652265071868896,13.200441360473633,-0.02108151465654373
1690461928553458755,,821,,1690461928,553403244,"""world""",,,3.3652029037475586,13.200419425964355,-0.02109438180923462
1690461928563610619,,822,,1690461928,563407070,"""world""",,,3.3652117252349854,13.200427055358887,-0.02108229137957096
1690461928573459242,,823,,1690461928,573397812,"""world""",,,3.365215301513672,13.200425148010254,-0.021085770800709724
1690461928583489435,,824,,1690461928,583389187,"""world""",,,3.365208387374878,13.200419425964355,-0.021094191819429398
1690461928593465812,,825,,1690461928,593390651,"""world""",,,3.3652048110961914,13.20042896270752,-0.02109331078827381
1690461928613520340,,826,,1690461928,613429172,"""world""",,,3.365224599838257,13.20042610168457,-0.02109755575656891
1690461928613524248,,827,,1690461928,613442279,"""world""",,,3.3652026653289795,13.20042896270752,-0.021110977977514267
1690461928623500708,,828,,1690461928,623427898,"""world""",,,3.365215539932251,13.200410842895508,-0.021091066300868988
1690461928643513198,,829,,1690461928,643448094,"""world""",,,3.3652184009552,13.200414657592773,-0.02111157961189747
1690461928643518190,,830,,1690461928,643458748,"""world""",,,3.3652069568634033,13.200438499450684,-0.021096834912896156
1690461928653480246,,831,,1690461928,653426403,"""world""",,,3.365219831466675,13.200435638427734,-0.02108381688594818
1690461928673492365,,832,,1690461928,673398412,"""world""",,,3.3652117252349854,13.200422286987305,-0.02109544351696968
1690461928673502876,,833,,1690461928,673413391,"""world""",,,3.3651959896087646,13.200417518615723,-0.021089646965265274
1690461928683475202,,834,,1690461928,683386853,"""world""",,,3.3652102947235107,13.200430870056152,-0.021087322384119034
1690461928703535316,,835,,1690461928,703393867,"""world""",,,3.365211009979248,13.200423240661621,-0.02107764407992363
1690461928703544606,,836,,1690461928,703404709,"""world""",,,3.3652143478393555,13.20041561126709,-0.02109428681433201
1690461928713460327,,837,,1690461928,713393528,"""world""",,,3.3652141094207764,13.200422286987305,-0.021078478544950485
1690461928733462614,,838,,1690461928,733397124,"""world""",,,3.365224599838257,13.200423240661621,-0.021091077476739883
1690461928733469208,,839,,1690461928,733409005,"""world""",,,3.3652262687683105,13.200417518615723,-0.02109426259994507
1690461928743502763,,840,,1690461928,743411515,"""world""",,,3.365216016769409,13.200403213500977,-0.021100003272294998
1690461928763540897,,841,,1690461928,763447932,"""world""",,,3.365222454071045,13.20042610168457,-0.021108917891979218
1690461928763548267,,842,,1690461928,763486318,"""world""",,,3.365219831466675,13.200435638427734,-0.02108170837163925
1690461928773513397,,843,,1690461928,773399139,"""world""",,,3.3652236461639404,13.200423240661621,-0.0211027842015028
1690461928793498582,,844,,1690461928,793433269,"""world""",,,3.365234375,13.200424194335938,-0.021099237725138664
1690461928793504136,,845,,1690461928,793449434,"""world""",,,3.365222454071045,13.200427055358887,-0.02109111100435257
1690461928803457784,,846,,1690461928,803395588,"""world""",,,3.3652172088623047,13.200420379638672,-0.021092893555760384
1690461928823483440,,847,,1690461928,823405907,"""world""",,,3.3652267456054688,13.200417518615723,-0.02110488899052143
1690461928823490384,,848,,1690461928,823424733,"""world""",,,3.365233898162842,13.20042610168457,-0.021114205941557884
1690461928833488737,,849,,1690461928,833398419,"""world""",,,3.3652217388153076,13.200422286987305,-0.021102100610733032
1690461928843439532,,850,,1690461928,843381910,"""world""",,,3.3652305603027344,13.200407981872559,-0.021105976775288582
1690461928853445864,,851,,1690461928,853391770,"""world""",,,3.365233898162842,13.200422286987305,-0.021106015890836716
1690461928863502047,,852,,1690461928,863432745,"""world""",,,3.365229845046997,13.200431823730469,-0.021092822775244713
1690461928873515549,,853,,1690461928,873426913,"""world""",,,3.3651981353759766,13.200430870056152,-0.021091150119900703
1690461928883502155,,854,,1690461928,883414297,"""world""",,,3.36521577835083,13.200423240661621,-0.021111931651830673
1690461928893468878,,855,,1690461928,893405475,"""world""",,,3.3652079105377197,13.200411796569824,-0.021091444417834282
1690461928903506763,,856,,1690461928,903423879,"""world""",,,3.3652238845825195,13.200434684753418,-0.02108876034617424
1690461928913462833,,857,,1690461928,913405325,"""world""",,,3.3652307987213135,13.200429916381836,-0.0211014486849308
1690461928923496217,,858,,1690461928,923440099,"""world""",,,3.3652243614196777,13.200414657592773,-0.02109265699982643
1690461928933462424,,859,,1690461928,933401274,"""world""",,,3.3652257919311523,13.200410842895508,-0.021109437569975853
1690461928943424578,,860,,1690461928,943381376,"""world""",,,3.365217685699463,13.20041275024414,-0.02111394889652729
1690461928953472076,,861,,1690461928,953388180,"""world""",,,3.365222454071045,13.200422286987305,-0.021103447303175926
1690461928963508573,,862,,1690461928,963419776,"""world""",,,3.365236520767212,13.200418472290039,-0.021107198670506477
1690461928973457082,,863,,1690461928,973397785,"""world""",,,3.365227460861206,13.20042896270752,-0.021102575585246086
1690461928983434561,,864,,1690461928,983382269,"""world""",,,3.36523699760437,13.200424194335938,-0.02109849639236927
1690461928993462394,,865,,1690461928,993403413,"""world""",,,3.3652079105377197,13.200410842895508,-0.021116262301802635
1690461929003454878,,866,,1690461929,3392511,"""world""",,,3.3652241230010986,13.200420379638672,-0.02111099474132061
1690461929023469285,,867,,1690461929,23398300,"""world""",,,3.365203619003296,13.200413703918457,-0.02110143005847931
1690461929033502571,,868,,1690461929,33428423,"""world""",,,3.3652069568634033,13.20042610168457,-0.02110329270362854
1690461929043516127,,869,,1690461929,43409792,"""world""",,,3.3652162551879883,13.200435638427734,-0.02109495736658573
1690461929043522370,,870,,1690461929,43418493,"""world""",,,3.365234851837158,13.200429916381836,-0.021118098869919777
1690461929053456440,,871,,1690461929,53392326,"""world""",,,3.3652079105377197,13.200423240661621,-0.02109394408762455
1690461929063525491,,872,,1690461929,63430591,"""world""",,,3.3652167320251465,13.200422286987305,-0.021112166345119476
1690461929073464298,,873,,1690461929,73398399,"""world""",,,3.3652188777923584,13.200428009033203,-0.02109653130173683
1690461929083480607,,874,,1690461929,83401254,"""world""",,,3.365206003189087,13.200428009033203,-0.021107548847794533
1690461929093497886,,875,,1690461929,93404033,"""world""",,,3.3652231693267822,13.200413703918457,-0.021110929548740387
1690461929103454971,,876,,1690461929,103396039,"""world""",,,3.3652145862579346,13.20041561126709,-0.021110009402036667
1690461929123472583,,877,,1690461929,123402010,"""world""",,,3.3652184009552,13.20041561126709,-0.021109046414494514
1690461929123479962,,878,,1690461929,123416538,"""world""",,,3.3652117252349854,13.200411796569824,-0.021090004593133926
1690461929133472052,,879,,1690461929,133396597,"""world""",,,3.365208148956299,13.200422286987305,-0.02109508216381073
1690461929143447528,,880,,1690461929,143389833,"""world""",,,3.365204334259033,13.200409889221191,-0.021103831008076668
1690461929153457091,,881,,1690461929,153394103,"""world""",,,3.3652024269104004,13.200410842895508,-0.02111000381410122
1690461929163578538,,882,,1690461929,163437039,"""world""",,,3.3652167320251465,13.200410842895508,-0.021104946732521057
1690461929173494533,,883,,1690461929,173396949,"""world""",,,3.3652191162109375,13.200421333312988,-0.021107910200953484
1690461929183484751,,884,,1690461929,183387815,"""world""",,,3.3652195930480957,13.200423240661621,-0.021099410951137543
1690461929193504920,,885,,1690461929,193407404,"""world""",,,3.3652145862579346,13.200423240661621,-0.02109789289534092
1690461929213469370,,886,,1690461929,213400365,"""world""",,,3.3652215003967285,13.200416564941406,-0.021118419244885445
1690461929213472668,,887,,1690461929,213426516,"""world""",,,3.3652234077453613,13.200428009033203,-0.021105604246258736
1690461929223462165,,888,,1690461929,223396069,"""world""",,,3.365213632583618,13.200407981872559,-0.021105946972966194
1690461929243447126,,889,,1690461929,243384322,"""world""",,,3.3652119636535645,13.200417518615723,-0.02111312560737133
1690461929243452723,,890,,1690461929,243393662,"""world""",,,3.365211009979248,13.200409889221191,-0.021108407527208328
1690461929253451260,,891,,1690461929,253388094,"""world""",,,3.365211009979248,13.200422286987305,-0.02110871858894825
1690461929273464081,,892,,1690461929,273397320,"""world""",,,3.365226984024048,13.200416564941406,-0.02111276611685753
1690461929273467812,,893,,1690461929,273409576,"""world""",,,3.3652379512786865,13.20041561126709,-0.021114610135555267
1690461929283462863,,894,,1690461929,283380627,"""world""",,,3.3652141094207764,13.200410842895508,-0.021089524030685425
1690461929293483995,,895,,1690461929,293396230,"""world""",,,3.3652079105377197,13.20041275024414,-0.02109861932694912
1690461929303475637,,896,,1690461929,303396334,"""world""",,,3.3652141094207764,13.200416564941406,-0.02110668458044529
1690461929313471947,,897,,1690461929,313396341,"""world""",,,3.3652148246765137,13.200425148010254,-0.02111179195344448
1690461929323475093,,898,,1690461929,323398702,"""world""",,,3.365208387374878,13.200416564941406,-0.021104594692587852
1690461929333478890,,899,,1690461929,333399213,"""world""",,,3.365215539932251,13.200404167175293,-0.021089185029268265
1690461929343468472,,900,,1690461929,343384845,"""world""",,,3.3652102947235107,13.200421333312988,-0.021093346178531647
1690461929363567505,,901,,1690461929,363432042,"""world""",,,3.3652114868164062,13.200421333312988,-0.021103573963046074
1690461929363578651,,902,,1690461929,363456260,"""world""",,,3.365211009979248,13.200425148010254,-0.021103087812662125
1690461929373524825,,903,,1690461929,373396255,"""world""",,,3.365205764770508,13.200413703918457,-0.021114543080329895
1690461929393492600,,904,,1690461929,393396917,"""world""",,,3.365220308303833,13.200425148010254,-0.021085485816001892
1690461929393500480,,905,,1690461929,393408811,"""world""",,,3.3652234077453613,13.200413703918457,-0.021087685599923134
1690461929403544752,,906,,1690461929,403427878,"""world""",,,3.365234613418579,13.200416564941406,-0.021107502281665802
1690461929423520017,,907,,1690461929,423400025,"""world""",,,3.3652191162109375,13.200422286987305,-0.02109791524708271
1690461929423526243,,908,,1690461929,423413307,"""world""",,,3.365225076675415,13.200417518615723,-0.021097883582115173
1690461929433507059,,909,,1690461929,433400162,"""world""",,,3.3652241230010986,13.200425148010254,-0.02108180522918701
1690461929453483511,,910,,1690461929,453400661,"""world""",,,3.3652141094207764,13.200413703918457,-0.021107470616698265
1690461929453487787,,911,,1690461929,453413203,"""world""",,,3.3652503490448,13.200440406799316,-0.021062077954411507
1690461929463568469,,912,,1690461929,463425432,"""world""",,,3.3652284145355225,13.20041275024414,-0.021127907559275627
1690461929483496479,,913,,1690461929,483390061,"""world""",,,3.365210771560669,13.200400352478027,-0.021111568436026573
1690461929483504117,,914,,1690461929,483401089,"""world""",,,3.3652267456054688,13.200393676757812,-0.021109381690621376
1690461929493471329,,915,,1690461929,493395113,"""world""",,,3.3652184009552,13.200394630432129,-0.021119050681591034
1690461929513481281,,916,,1690461929,513412770,"""world""",,,3.365236520767212,13.200421333312988,-0.021108873188495636
1690461929513488821,,917,,1690461929,513426526,"""world""",,,3.3652212619781494,13.200410842895508,-0.021106349304318428
1690461929523459163,,918,,1690461929,523396965,"""world""",,,3.365229845046997,13.20040225982666,-0.02112051285803318
1690461929533456305,,919,,1690461929,533398212,"""world""",,,3.3652162551879883,13.200407028198242,-0.02111998200416565
1690461929543477976,,920,,1690461929,543408967,"""world""",,,3.365236282348633,13.200404167175293,-0.021118752658367157
1690461929553500987,,921,,1690461929,553423529,"""world""",,,3.3652236461639404,13.20041275024414,-0.021111225709319115
1690461929563551037,,922,,1690461929,563442908,"""world""",,,3.365234613418579,13.200411796569824,-0.021102741360664368
1690461929573449272,,923,,1690461929,573395640,"""world""",,,3.365220069885254,13.200407028198242,-0.021116754040122032
1690461929583478242,,924,,1690461929,583382491,"""world""",,,3.365208148956299,13.200385093688965,-0.02110522985458374
1690461929603490990,,925,,1690461929,603425429,"""world""",,,3.3652195930480957,13.200409889221191,-0.021111296489834785
1690461929603494963,,926,,1690461929,603437371,"""world""",,,3.3652215003967285,13.20040225982666,-0.021115165203809738
1690461929613486598,,927,,1690461929,613406073,"""world""",,,3.365220785140991,13.200414657592773,-0.02110431157052517
1690461929623519127,,928,,1690461929,623427777,"""world""",,,3.365217924118042,13.200406074523926,-0.02110004797577858
1690461929633460924,,929,,1690461929,633397992,"""world""",,,3.3652074337005615,13.200408935546875,-0.021104443818330765
1690461929643432196,,930,,1690461929,643384775,"""world""",,,3.3652279376983643,13.200417518615723,-0.021097049117088318
1690461929663537236,,931,,1690461929,663456668,"""world""",,,3.365204334259033,13.200420379638672,-0.021093878895044327
1690461929663545645,,932,,1690461929,663473309,"""world""",,,3.3652255535125732,13.200437545776367,-0.02110566943883896
1690461929673462288,,933,,1690461929,673399128,"""world""",,,3.365231990814209,13.200437545776367,-0.02109811082482338
1690461929693466047,,934,,1690461929,693393206,"""world""",,,3.3652215003967285,13.20040512084961,-0.021115589886903763
1690461929693472803,,935,,1690461929,693404190,"""world""",,,3.3652091026306152,13.200414657592773,-0.02109910547733307
1690461929703482107,,936,,1690461929,703393785,"""world""",,,3.365220069885254,13.200407981872559,-0.021099092438817024
1690461929713456212,,937,,1690461929,713398486,"""world""",,,3.3652195930480957,13.20040225982666,-0.021105870604515076
1690461929723460187,,938,,1690461929,723394599,"""world""",,,3.365218162536621,13.200400352478027,-0.021117644384503365
1690461929733467473,,939,,1690461929,733401232,"""world""",,,3.3652119636535645,13.200409889221191,-0.021112145856022835
1690461929753482352,,940,,1690461929,753406139,"""world""",,,3.3652172088623047,13.200407028198242,-0.021111393347382545
1690461929753489456,,941,,1690461929,753419245,"""world""",,,3.3652162551879883,13.20040225982666,-0.021106667816638947
1690461929763578787,,942,,1690461929,763457421,"""world""",,,3.3652219772338867,13.200397491455078,-0.021125881001353264
1690461929773453538,,943,,1690461929,773393465,"""world""",,,3.3652257919311523,13.200407981872559,-0.021117419004440308
1690461929783465093,,944,,1690461929,783379709,"""world""",,,3.3652164936065674,13.200401306152344,-0.021106842905282974
1690461929793450080,,945,,1690461929,793390115,"""world""",,,3.365222454071045,13.200399398803711,-0.021128453314304352
1690461929813480358,,946,,1690461929,813391672,"""world""",,,3.3652243614196777,13.200406074523926,-0.021114341914653778
1690461929813482618,,947,,1690461929,813402062,"""world""",,,3.365231513977051,13.200406074523926,-0.021109923720359802
1690461929823479803,,948,,1690461929,823393941,"""world""",,,3.3652031421661377,13.20040512084961,-0.021097373217344284
1690461929833461109,,949,,1690461929,833397636,"""world""",,,3.3652312755584717,13.200407981872559,-0.021112767979502678
1690461929843427170,,950,,1690461929,843380384,"""world""",,,3.365222215652466,13.200409889221191,-0.021115848794579506
1690461929853478615,,951,,1690461929,853387411,"""world""",,,3.365219831466675,13.20040512084961,-0.021114183589816093
1690461929863528199,,952,,1690461929,863426710,"""world""",,,3.3652122020721436,13.20041275024414,-0.021112142130732536
1690461929883506816,,953,,1690461929,883422346,"""world""",,,3.365220308303833,13.200392723083496,-0.021111955866217613
1690461929883516085,,954,,1690461929,883435859,"""world""",,,3.365216016769409,13.20040225982666,-0.021103542298078537
1690461929893456962,,955,,1690461929,893396034,"""world""",,,3.365216016769409,13.200399398803711,-0.02111051045358181
1690461929913472421,,956,,1690461929,913400079,"""world""",,,3.365222930908203,13.200401306152344,-0.0211147703230381
1690461929913475475,,957,,1690461929,913411846,"""world""",,,3.3652267456054688,13.200408935546875,-0.021093236282467842
1690461929923464695,,958,,1690461929,923400454,"""world""",,,3.365215301513672,13.200394630432129,-0.021111156791448593
1690461929943511613,,959,,1690461929,943448317,"""world""",,,3.3652167320251465,13.200398445129395,-0.021107491105794907
1690461929943518282,,960,,1690461929,943459247,"""world""",,,3.365222215652466,13.200392723083496,-0.021109795197844505
1690461929953485127,,961,,1690461929,953420693,"""world""",,,3.3652117252349854,13.200396537780762,-0.0211224053055048
1690461929963583895,,962,,1690461929,963459723,"""world""",,,3.3652184009552,13.200403213500977,-0.021110540255904198
1690461929973487114,,963,,1690461929,973429284,"""world""",,,3.365208387374878,13.200404167175293,-0.021100949496030807
1690461929983498723,,964,,1690461929,983414114,"""world""",,,3.3652069568634033,13.200401306152344,-0.02110975794494152
1690461929993504928,,965,,1690461929,993424648,"""world""",,,3.3652098178863525,13.200407028198242,-0.021097250282764435
1690461930003482254,,966,,1690461930,3426624,"""world""",,,3.365208625793457,13.200407028198242,-0.02111915685236454
1690461930013484255,,967,,1690461930,13414289,"""world""",,,3.365210771560669,13.200400352478027,-0.02110801450908184
1690461930033502804,,968,,1690461930,33436653,"""world""",,,3.365211009979248,13.200385093688965,-0.021101713180541992
1690461930033506788,,969,,1690461930,33448947,"""world""",,,3.365208148956299,13.200404167175293,-0.02110552042722702
1690461930043461811,,970,,1690461930,43411324,"""world""",,,3.365217447280884,13.200398445129395,-0.021116480231285095
1690461930063503530,,971,,1690461930,63433109,"""world""",,,3.365201950073242,13.200392723083496,-0.02111000567674637
1690461930063510681,,972,,1690461930,63447431,"""world""",,,3.3652260303497314,13.200399398803711,-0.021097034215927124
1690461930073482452,,973,,1690461930,73425793,"""world""",,,3.3652124404907227,13.200393676757812,-0.021114986389875412
1690461930093509932,,974,,1690461930,93432584,"""world""",,,3.3652260303497314,13.200401306152344,-0.021112827584147453
1690461930093517860,,975,,1690461930,93461146,"""world""",,,3.3652257919311523,13.200398445129395,-0.021094337105751038
1690461930103485830,,976,,1690461930,103427992,"""world""",,,3.3652284145355225,13.200396537780762,-0.021112816408276558
1690461930123493367,,977,,1690461930,123429124,"""world""",,,3.3652303218841553,13.200398445129395,-0.021089408546686172
1690461930123500698,,978,,1690461930,123441370,"""world""",,,3.36523699760437,13.200384140014648,-0.02110629715025425
1690461930133489446,,979,,1690461930,133418510,"""world""",,,3.365213632583618,13.200390815734863,-0.02108919247984886
1690461930143492627,,980,,1690461930,143413771,"""world""",,,3.36521315574646,13.20039176940918,-0.02109437622129917
1690461930153465148,,981,,1690461930,153396984,"""world""",,,3.365219831466675,13.20040512084961,-0.021099667996168137
1690461930163544383,,982,,1690461930,163452682,"""world""",,,3.36521053314209,13.200390815734863,-0.02110820636153221
1690461930173513080,,983,,1690461930,173426847,"""world""",,,3.3652355670928955,13.200399398803711,-0.02110312320291996
1690461930183457741,,984,,1690461930,183412959,"""world""",,,3.3652184009552,13.200398445129395,-0.021098878234624863
1690461930193486864,,985,,1690461930,193428085,"""world""",,,3.3652076721191406,13.200400352478027,-0.021099170669913292
1690461930203516671,,986,,1690461930,203427837,"""world""",,,3.365234613418579,13.200403213500977,-0.021109430119395256
1690461930213478014,,987,,1690461930,213405717,"""world""",,,3.365215301513672,13.200428009033203,-0.021108446642756462
1690461930223488333,,988,,1690461930,223430411,"""world""",,,3.365206718444824,13.200417518615723,-0.021087676286697388
1690461930233554193,,989,,1690461930,233441916,"""world""",,,3.3652145862579346,13.20038890838623,-0.02110498771071434
1690461930243502387,,990,,1690461930,243412679,"""world""",,,3.365222692489624,13.200420379638672,-0.021082330495119095
1690461930253486845,,991,,1690461930,253428025,"""world""",,,3.365215539932251,13.200399398803711,-0.021100660786032677
1690461930263545121,,992,,1690461930,263465482,"""world""",,,3.3652114868164062,13.200400352478027,-0.021108262240886688
1690461930273489525,,993,,1690461930,273430169,"""world""",,,3.3652050495147705,13.200398445129395,-0.02109706588089466
1690461930283492221,,994,,1690461930,283413352,"""world""",,,3.365220308303833,13.200392723083496,-0.021098677068948746
1690461930293515556,,995,,1690461930,293428233,"""world""",,,3.365212917327881,13.200396537780762,-0.02109166979789734
1690461930303560134,,996,,1690461930,303428607,"""world""",,,3.3652098178863525,13.200392723083496,-0.0211016982793808
1690461930313480961,,997,,1690461930,313425914,"""world""",,,3.3652079105377197,13.20040225982666,-0.021101096644997597
1690461930323456731,,998,,1690461930,323400448,"""world""",,,3.365220069885254,13.200401306152344,-0.021110787987709045
1690461930333501930,,999,,1690461930,333441552,"""world""",,,3.3652150630950928,13.20038890838623,-0.021100539714097977
1690461930343440741,,1000,,1690461930,343392047,"""world""",,,3.3652281761169434,13.20040225982666,-0.02110176719725132
1690461930353496321,,1001,,1690461930,353429961,"""world""",,,3.365222692489624,13.200400352478027,-0.021112605929374695
1690461930373459897,,1002,,1690461930,373394840,"""world""",,,3.3652191162109375,13.200395584106445,-0.021098928526043892
1690461930373466227,,1003,,1690461930,373408264,"""world""",,,3.3652243614196777,13.20040225982666,-0.021111400797963142
1690461930383434702,,1004,,1690461930,383380858,"""world""",,,3.36521315574646,13.200404167175293,-0.021099163219332695
1690461930393452148,,1005,,1690461930,393393859,"""world""",,,3.365213394165039,13.200407028198242,-0.021094057708978653
1690461930403453016,,1006,,1690461930,403395139,"""world""",,,3.3652186393737793,13.200408935546875,-0.02110029198229313
1690461930413453669,,1007,,1690461930,413392734,"""world""",,,3.365210771560669,13.200411796569824,-0.021098103374242783
1690461930423456841,,1008,,1690461930,423396340,"""world""",,,3.3652119636535645,13.200392723083496,-0.021112853661179543
1690461930433463496,,1009,,1690461930,433400427,"""world""",,,3.3652026653289795,13.20038890838623,-0.021091388538479805
1690461930443445959,,1010,,1690461930,443389051,"""world""",,,3.3652048110961914,13.200390815734863,-0.021092046052217484
1690461930453505189,,1011,,1690461930,453396258,"""world""",,,3.365219831466675,13.200398445129395,-0.02111545205116272
1690461930463582911,,1012,,1690461930,463464364,"""world""",,,3.365216016769409,13.200403213500977,-0.02108835242688656
1690461930473484016,,1013,,1690461930,473395574,"""world""",,,3.3652336597442627,13.200407981872559,-0.021092528477311134
1690461930483429804,,1014,,1690461930,483379488,"""world""",,,3.3652186393737793,13.200404167175293,-0.021101607009768486
1690461930493455716,,1015,,1690461930,493397945,"""world""",,,3.36521315574646,13.20038890838623,-0.021113142371177673
1690461930503448315,,1016,,1690461930,503392815,"""world""",,,3.3652119636535645,13.200386047363281,-0.021103963255882263
1690461930513470559,,1017,,1690461930,513393657,"""world""",,,3.3652279376983643,13.20038890838623,-0.021112514659762383
1690461930523452537,,1018,,1690461930,523396123,"""world""",,,3.365215539932251,13.200397491455078,-0.021086575463414192
1690461930533463867,,1019,,1690461930,533399099,"""world""",,,3.3652148246765137,13.200392723083496,-0.0211001206189394
1690461930543426742,,1020,,1690461930,543378986,"""world""",,,3.365217447280884,13.200373649597168,-0.0211194958537817
1690461930553495730,,1021,,1690461930,553394104,"""world""",,,3.3652210235595703,13.200410842895508,-0.02109258621931076
1690461930563568523,,1022,,1690461930,563433200,"""world""",,,3.3652069568634033,13.200382232666016,-0.021102357655763626
1690461930573452810,,1023,,1690461930,573398060,"""world""",,,3.3652210235595703,13.200398445129395,-0.021090039983391762
1690461930583428595,,1024,,1690461930,583382915,"""world""",,,3.365213394165039,13.20040225982666,-0.02110273949801922
1690461930593454919,,1025,,1690461930,593394798,"""world""",,,3.3652069568634033,13.200411796569824,-0.02109961025416851
1690461930603449620,,1026,,1690461930,603393431,"""world""",,,3.365220785140991,13.20039176940918,-0.021117229014635086
1690461930613453365,,1027,,1690461930,613396800,"""world""",,,3.3652100563049316,13.200403213500977,-0.021101271733641624
1690461930623486243,,1028,,1690461930,623429827,"""world""",,,3.3652167320251465,13.200385093688965,-0.021095752716064453
1690461930643482480,,1029,,1690461930,643417621,"""world""",,,3.3652071952819824,13.200387001037598,-0.021093403920531273
1690461930643486080,,1030,,1690461930,643428886,"""world""",,,3.3652164936065674,13.200393676757812,-0.021103281527757645
1690461930653462399,,1031,,1690461930,653391500,"""world""",,,3.3652279376983643,13.200406074523926,-0.021106848493218422
1690461930673501128,,1032,,1690461930,673401228,"""world""",,,3.3652114868164062,13.200403213500977,-0.02111169323325157
1690461930673507308,,1033,,1690461930,673414041,"""world""",,,3.3652191162109375,13.200394630432129,-0.02110300585627556
1690461930683463000,,1034,,1690461930,683384450,"""world""",,,3.3652279376983643,13.200399398803711,-0.021109387278556824
1690461930693492230,,1035,,1690461930,693398148,"""world""",,,3.3652188777923584,13.200382232666016,-0.02109123207628727
1690461930703494132,,1036,,1690461930,703395124,"""world""",,,3.3652305603027344,13.200395584106445,-0.021111562848091125
1690461930713460000,,1037,,1690461930,713392702,"""world""",,,3.365227222442627,13.200390815734863,-0.021115710958838463
1690461930723480026,,1038,,1690461930,723395519,"""world""",,,3.365204334259033,13.200390815734863,-0.021115532144904137
1690461930733472119,,1039,,1690461930,733398249,"""world""",,,3.3652095794677734,13.200385093688965,-0.021103451028466225
1690461930743431526,,1040,,1690461930,743381523,"""world""",,,3.3652122020721436,13.2003812789917,-0.021110402420163155
1690461930753477205,,1041,,1690461930,753418835,"""world""",,,3.365217924118042,13.200392723083496,-0.02110554836690426
1690461930763551525,,1042,,1690461930,763448885,"""world""",,,3.3652307987213135,13.200380325317383,-0.021117480471730232
1690461930773456241,,1043,,1690461930,773396015,"""world""",,,3.365217685699463,13.200387954711914,-0.021109048277139664
1690461930783458721,,1044,,1690461930,783379136,"""world""",,,3.3652114868164062,13.200404167175293,-0.021113263443112373
1690461930793483614,,1045,,1690461930,793397553,"""world""",,,3.3652119636535645,13.20039176940918,-0.021103505045175552
1690461930803484442,,1046,,1690461930,803398128,"""world""",,,3.365230083465576,13.200383186340332,-0.021111086010932922
1690461930823488152,,1047,,1690461930,823396361,"""world""",,,3.365213632583618,13.20039176940918,-0.02110053226351738
1690461930823496682,,1048,,1690461930,823407690,"""world""",,,3.365211009979248,13.200393676757812,-0.021098632365465164
1690461930833465583,,1049,,1690461930,833397503,"""world""",,,3.3652234077453613,13.200382232666016,-0.021118974313139915
1690461930843534192,,1050,,1690461930,843419774,"""world""",,,3.365217447280884,13.200404167175293,-0.021098414435982704
1690461930853517082,,1051,,1690461930,853420969,"""world""",,,3.365208148956299,13.20038890838623,-0.0210947897285223
1690461930863563317,,1052,,1690461930,863458921,"""world""",,,3.365217447280884,13.200398445129395,-0.021108407527208328
1690461930883454554,,1053,,1690461930,883386990,"""world""",,,3.3652236461639404,13.200389862060547,-0.02112298272550106
1690461930883463582,,1054,,1690461930,883396829,"""world""",,,3.365215301513672,13.200390815734863,-0.02110663428902626
1690461930893462800,,1055,,1690461930,893393484,"""world""",,,3.3652219772338867,13.200401306152344,-0.021100575104355812
1690461930913464321,,1056,,1690461930,913400211,"""world""",,,3.3652074337005615,13.200394630432129,-0.021107733249664307
1690461930913467566,,1057,,1690461930,913411413,"""world""",,,3.3652143478393555,13.200386047363281,-0.02110888995230198
1690461930923452091,,1058,,1690461930,923394819,"""world""",,,3.365231513977051,13.200410842895508,-0.02110971324145794
1690461930933455673,,1059,,1690461930,933397790,"""world""",,,3.365217685699463,13.200390815734863,-0.02111966535449028
1690461930943444446,,1060,,1690461930,943386982,"""world""",,,3.3652260303497314,13.20038890838623,-0.021120507270097733
1690461930953463233,,1061,,1690461930,953397096,"""world""",,,3.365217447280884,13.200397491455078,-0.02109759859740734
1690461930973459683,,1062,,1690461930,973400842,"""world""",,,3.3652265071868896,13.200401306152344,-0.021109862253069878
1690461930973463993,,1063,,1690461930,973413804,"""world""",,,3.365205764770508,13.200385093688965,-0.02110331505537033
1690461930983509795,,1064,,1690461930,983411748,"""world""",,,3.365219831466675,13.2003812789917,-0.021109431982040405
1690461930993508904,,1065,,1690461930,993399171,"""world""",,,3.3652195930480957,13.20038890838623,-0.021100454032421112
1690461931003489753,,1066,,1690461931,3396758,"""world""",,,3.3652167320251465,13.200387001037598,-0.021103225648403168
1690461931013462105,,1067,,1690461931,13396356,"""world""",,,3.3652331829071045,13.20039176940918,-0.021122049540281296
1690461931023454787,,1068,,1690461931,23396389,"""world""",,,3.3652219772338867,13.200397491455078,-0.02110448107123375
1690461931033463765,,1069,,1690461931,33398144,"""world""",,,3.3652260303497314,13.200390815734863,-0.02112470008432865
1690461931043436210,,1070,,1690461931,43380242,"""world""",,,3.3652148246765137,13.200401306152344,-0.021108029410243034
1690461931063666994,,1071,,1690461931,63497021,"""world""",,,3.3652355670928955,13.200400352478027,-0.021112507209181786
1690461931063682175,,1072,,1690461931,63527121,"""world""",,,3.3652164936065674,13.20040512084961,-0.021091826260089874
1690461931073494367,,1073,,1690461931,73428005,"""world""",,,3.365220785140991,13.200389862060547,-0.02112383395433426
1690461931093512913,,1074,,1690461931,93414401,"""world""",,,3.3652243614196777,13.200398445129395,-0.021111875772476196
1690461931093517342,,1075,,1690461931,93427280,"""world""",,,3.365238666534424,13.200418472290039,-0.021046914160251617
1690461931103496661,,1076,,1690461931,103401302,"""world""",,,3.365217924118042,13.200383186340332,-0.021108409389853477
1690461931113468022,,1077,,1690461931,113394810,"""world""",,,3.365219831466675,13.200396537780762,-0.021117592230439186
1690461931123520045,,1078,,1690461931,123397791,"""world""",,,3.365233898162842,13.200411796569824,-0.021109336987137794
1690461931133469297,,1079,,1690461931,133396858,"""world""",,,3.3652024269104004,13.200385093688965,-0.021097373217344284
1690461931153470737,,1080,,1690461931,153390796,"""world""",,,3.365220785140991,13.200390815734863,-0.02110213227570057
1690461931153476628,,1081,,1690461931,153401862,"""world""",,,3.3652193546295166,13.200392723083496,-0.021090416237711906
1690461931163537645,,1082,,1690461931,163428082,"""world""",,,3.36523175239563,13.200386047363281,-0.021117310971021652
1690461931173489289,,1083,,1690461931,173395771,"""world""",,,3.3652184009552,13.200408935546875,-0.021094556897878647
1690461931183432049,,1084,,1690461931,183378263,"""world""",,,3.365220546722412,13.200407028198242,-0.0211018119007349
1690461931193462591,,1085,,1690461931,193393835,"""world""",,,3.3652279376983643,13.200408935546875,-0.021096277981996536
1690461931203450479,,1086,,1690461931,203392006,"""world""",,,3.3652236461639404,13.200401306152344,-0.021103179082274437
1690461931213438555,,1087,,1690461931,213393854,"""world""",,,3.3652162551879883,13.200393676757812,-0.02109489217400551
1690461931223449023,,1088,,1690461931,223394050,"""world""",,,3.365217685699463,13.200393676757812,-0.02111183851957321
1690461931233457948,,1089,,1690461931,233395436,"""world""",,,3.365217924118042,13.200413703918457,-0.02110181376338005
1690461931243470051,,1090,,1690461931,243380451,"""world""",,,3.365222930908203,13.200377464294434,-0.02111663855612278
1690461931253480044,,1091,,1690461931,253387678,"""world""",,,3.365234851837158,13.200396537780762,-0.021112557500600815
1690461931263584516,,1092,,1690461931,263463499,"""world""",,,3.3652138710021973,13.200411796569824,-0.021099815145134926
1690461931273456634,,1093,,1690461931,273396989,"""world""",,,3.36521577835083,13.200396537780762,-0.02109762839972973
1690461931283424576,,1094,,1690461931,283380278,"""world""",,,3.3652141094207764,13.200394630432129,-0.021102575585246086
1690461931293447646,,1095,,1690461931,293393260,"""world""",,,3.365213632583618,13.200411796569824,-0.02109241485595703
1690461931303489611,,1096,,1690461931,303394595,"""world""",,,3.365227699279785,13.200407028198242,-0.02109440229833126
1690461931313486648,,1097,,1690461931,313394181,"""world""",,,3.365220069885254,13.20039176940918,-0.021110406145453453
1690461931323483384,,1098,,1690461931,323394321,"""world""",,,3.365217685699463,13.200389862060547,-0.021108387038111687
1690461931343489129,,1099,,1690461931,343391480,"""world""",,,3.3652312755584717,13.200398445129395,-0.021095402538776398
1690461931343492214,,1100,,1690461931,343401005,"""world""",,,3.3652095794677734,13.200394630432129,-0.021112192422151566
1690461931353486376,,1101,,1690461931,353388261,"""world""",,,3.3652215003967285,13.200385093688965,-0.0211041197180748
1690461931373480004,,1102,,1690461931,373411986,"""world""",,,3.3652584552764893,13.200437545776367,-0.021104728803038597
1690461931373486616,,1103,,1690461931,373425651,"""world""",,,3.3652305603027344,13.200379371643066,-0.021100744605064392
1690461931383426508,,1104,,1690461931,383384618,"""world""",,,3.3652470111846924,13.200408935546875,-0.02110280469059944
1690461931393475941,,1105,,1690461931,393422249,"""world""",,,3.365201234817505,13.200425148010254,-0.021102074533700943
1690461931403522546,,1106,,1690461931,403458382,"""world""",,,3.365219831466675,13.200387001037598,-0.021109580993652344
1690461931413488221,,1107,,1690461931,413428979,"""world""",,,3.365260601043701,13.200410842895508,-0.021093638613820076
1690461931423492667,,1108,,1690461931,423433388,"""world""",,,3.365232467651367,13.200360298156738,-0.021135985851287842
1690461931433507341,,1109,,1690461931,433400497,"""world""",,,3.3652493953704834,13.20041275024414,-0.02108887955546379
1690461931443460386,,1110,,1690461931,443392377,"""world""",,,3.3652524948120117,13.200410842895508,-0.02113930881023407
1690461931463722266,,1111,,1690461931,463427868,"""world""",,,3.3652420043945312,13.200406074523926,-0.021096928045153618
1690461931463730126,,1112,,1690461931,463450789,"""world""",,,3.365229368209839,13.200382232666016,-0.021099651232361794
1690461931473461332,,1113,,1690461931,473398113,"""world""",,,3.3652656078338623,13.200407028198242,-0.02109273336827755
1690461931483439373,,1114,,1690461931,483384095,"""world""",,,3.3652470111846924,13.20042610168457,-0.021114790812134743
1690461931493494068,,1115,,1690461931,493428086,"""world""",,,3.365226984024048,13.200382232666016,-0.021088164299726486
1690461931503568896,,1116,,1690461931,503461456,"""world""",,,3.3652398586273193,13.200387954711914,-0.0211182814091444
1690461931513483325,,1117,,1690461931,513403806,"""world""",,,3.3652846813201904,13.200376510620117,-0.021117055788636208
1690461931523481689,,1118,,1690461931,523404825,"""world""",,,3.3652405738830566,13.200397491455078,-0.02111377753317356
1690461931533467353,,1119,,1690461931,533397359,"""world""",,,3.365237236022949,13.200386047363281,-0.021105105057358742
1690461931543440922,,1120,,1690461931,543384723,"""world""",,,3.3652546405792236,13.200392723083496,-0.021106509491801262
1690461931553468126,,1121,,1690461931,553397802,"""world""",,,3.3652544021606445,13.200387001037598,-0.021099455654621124
1690461931573480898,,1122,,1690461931,573403542,"""world""",,,3.365271806716919,13.200434684753418,-0.02111564576625824
1690461931573484983,,1123,,1690461931,573416112,"""world""",,,3.365250587463379,13.20042610168457,-0.0211027804762125
1690461931583428830,,1124,,1690461931,583382115,"""world""",,,3.3652586936950684,13.200401306152344,-0.02115064300596714
1690461931593444323,,1125,,1690461931,593391250,"""world""",,,3.365239143371582,13.200434684753418,-0.021104825660586357
1690461931603450809,,1126,,1690461931,603393021,"""world""",,,3.365255355834961,13.200479507446289,-0.021078988909721375
1690461931613465713,,1127,,1690461931,613400533,"""world""",,,3.365203380584717,13.200472831726074,-0.02110365405678749
1690461931623452133,,1128,,1690461931,623395228,"""world""",,,3.3652448654174805,13.20047378540039,-0.021149810403585434
1690461931643449130,,1129,,1690461931,643388361,"""world""",,,3.3651580810546875,13.200565338134766,-0.02113516256213188
1690461931643455540,,1130,,1690461931,643400750,"""world""",,,3.3650877475738525,13.200632095336914,-0.02114684507250786
1690461931653446513,,1131,,1690461931,653387879,"""world""",,,3.3650941848754883,13.20065689086914,-0.021147586405277252
1690461931673498945,,1132,,1690461931,673426785,"""world""",,,3.3650269508361816,13.200698852539062,-0.02115190215408802
1690461931673502712,,1133,,1690461931,673440863,"""world""",,,3.364985466003418,13.200860977172852,-0.021177425980567932
1690461931683431846,,1134,,1690461931,683382299,"""world""",,,3.365058183670044,13.200790405273438,-0.021180003881454468
1690461931693487814,,1135,,1690461931,693421926,"""world""",,,3.365011215209961,13.200798988342285,-0.021114062517881393
1690461931703485136,,1136,,1690461931,703392906,"""world""",,,3.365007162094116,13.200691223144531,-0.02116031013429165
1690461931713448096,,1137,,1690461931,713394537,"""world""",,,3.3649752140045166,13.200748443603516,-0.02114081010222435
1690461931723463842,,1138,,1690461931,723398887,"""world""",,,3.364983081817627,13.20068073272705,-0.021162081509828568
1690461931733455492,,1139,,1690461931,733396453,"""world""",,,3.3649492263793945,13.200678825378418,-0.02114640362560749
1690461931743470562,,1140,,1690461931,743416355,"""world""",,,3.3649065494537354,13.200662612915039,-0.02113550715148449
1690461931763536170,,1141,,1690461931,763419016,"""world""",,,3.3648502826690674,13.200653076171875,-0.021162904798984528
1690461931763540038,,1142,,1690461931,763450307,"""world""",,,3.364814519882202,13.200684547424316,-0.02114897221326828
1690461931773494453,,1143,,1690461931,773400487,"""world""",,,3.3647336959838867,13.200713157653809,-0.021134788170456886
1690461931793502789,,1144,,1690461931,793395444,"""world""",,,3.3647332191467285,13.20069408416748,-0.021124541759490967
1690461931793510234,,1145,,1690461931,793409097,"""world""",,,3.36464524269104,13.20069408416748,-0.021109940484166145
1690461931803492751,,1146,,1690461931,803396392,"""world""",,,3.364675760269165,13.200665473937988,-0.0210893377661705
1690461931823477225,,1147,,1690461931,823401753,"""world""",,,3.364713668823242,13.200617790222168,-0.021120695397257805
1690461931823482972,,1148,,1690461931,823414985,"""world""",,,3.36472487449646,13.200692176818848,-0.02100379206240177
1690461931833464332,,1149,,1690461931,833399523,"""world""",,,3.3647119998931885,13.200663566589355,-0.020922675728797913
1690461931853489999,,1150,,1690461931,853418309,"""world""",,,3.364792823791504,13.200544357299805,-0.02088267169892788
1690461931853496323,,1151,,1690461931,853429991,"""world""",,,3.3648436069488525,13.200485229492188,-0.020662812516093254
1690461931863574391,,1152,,1690461931,863445388,"""world""",,,3.3650062084198,13.200338363647461,-0.02055351436138153
1690461931873525739,,1153,,1690461931,873429649,"""world""",,,3.365147590637207,13.200252532958984,-0.020149201154708862
1690461931883463776,,1154,,1690461931,883410436,"""world""",,,3.365227460861206,13.200261116027832,-0.019626129418611526
1690461931893519885,,1155,,1690461931,893422242,"""world""",,,3.365382671356201,13.200119972229004,-0.01921774074435234
1690461931913450092,,1156,,1690461931,913395971,"""world""",,,3.365544080734253,13.20002269744873,-0.018610259518027306
1690461931913453557,,1157,,1690461931,913406574,"""world""",,,3.3656554222106934,13.199789047241211,-0.017766855657100677
1690461931923452219,,1158,,1690461931,923394592,"""world""",,,3.365854263305664,13.19962215423584,-0.016975559294223785
1690461931943524173,,1159,,1690461931,943390632,"""world""",,,3.3661491870880127,13.199600219726562,-0.015920523554086685
1690461931943530766,,1160,,1690461931,943400142,"""world""",,,3.366495370864868,13.199583053588867,-0.014580859802663326
1690461931953520149,,1161,,1690461931,953389499,"""world""",,,3.3668360710144043,13.199334144592285,-0.01317925751209259
1690461931973498076,,1162,,1690461931,973398836,"""world""",,,3.36714243888855,13.199027061462402,-0.011816990561783314
1690461931973505885,,1163,,1690461931,973410487,"""world""",,,3.3674728870391846,13.198822021484375,-0.009874948300421238
1690461931983461790,,1164,,1690461931,983411737,"""world""",,,3.367901563644409,13.198535919189453,-0.007988515309989452
1690461931993476789,,1165,,1690461931,993402101,"""world""",,,3.368410587310791,13.198125839233398,-0.0060015516355633736
1690461932003463725,,1166,,1690461932,3398573,"""world""",,,3.3689799308776855,13.197908401489258,-0.0036502606235444546
1690461932013471434,,1167,,1690461932,13398102,"""world""",,,3.369657039642334,13.197686195373535,-0.000933314033318311
1690461932023465498,,1168,,1690461932,23399143,"""world""",,,3.37044620513916,13.197493553161621,0.0017520261462777853
1690461932033470289,,1169,,1690461932,33398359,"""world""",,,3.3710694313049316,13.197203636169434,0.005071097984910011
1690461932043439018,,1170,,1690461932,43385075,"""world""",,,3.371654510498047,13.196757316589355,0.00858838390558958
1690461932053450422,,1171,,1690461932,53387380,"""world""",,,3.3723647594451904,13.19643783569336,0.012452933937311172
1690461932063483956,,1172,,1690461932,63416924,"""world""",,,3.373047351837158,13.195908546447754,0.016634901985526085
1690461932073491216,,1173,,1690461932,73399060,"""world""",,,3.373663902282715,13.195474624633789,0.021252598613500595
1690461932093480796,,1174,,1690461932,93411145,"""world""",,,3.3743045330047607,13.194833755493164,0.025907834991812706
1690461932093489468,,1175,,1690461932,93428119,"""world""",,,3.374868869781494,13.194250106811523,0.03113238885998726
1690461932103493988,,1176,,1690461932,103396664,"""world""",,,3.3755393028259277,13.193708419799805,0.036555033177137375
1690461932123476339,,1177,,1690461932,123400368,"""world""",,,3.3762471675872803,13.193024635314941,0.04207688942551613
1690461932123483903,,1178,,1690461932,123414731,"""world""",,,3.3768811225891113,13.192401885986328,0.04798174276947975
1690461932133456484,,1179,,1690461932,133396476,"""world""",,,3.377624750137329,13.191811561584473,0.05410280078649521
1690461932153485931,,1180,,1690461932,153393442,"""world""",,,3.37845778465271,13.191326141357422,0.06033914536237717
1690461932153497627,,1181,,1690461932,153407314,"""world""",,,3.379102945327759,13.190486907958984,0.06686292588710785
1690461932163515022,,1182,,1690461932,163429410,"""world""",,,3.379822254180908,13.189979553222656,0.07349345088005066
1690461932173462456,,1183,,1690461932,173396133,"""world""",,,3.3805992603302,13.189242362976074,0.08047520369291306
1690461932183426304,,1184,,1690461932,183379127,"""world""",,,3.381361484527588,13.188740730285645,0.08743583410978317
1690461932193453070,,1185,,1690461932,193391776,"""world""",,,3.381974220275879,13.188029289245605,0.09471175074577332
1690461932203487018,,1186,,1690461932,203393677,"""world""",,,3.382725477218628,13.187231063842773,0.10210781544446945
1690461932223473850,,1187,,1690461932,223397184,"""world""",,,3.383439302444458,13.186505317687988,0.10968127101659775
1690461932223484817,,1188,,1690461932,223410625,"""world""",,,3.3840079307556152,13.18584156036377,0.11740800738334656
1690461932233466366,,1189,,1690461932,233398819,"""world""",,,3.3846774101257324,13.185226440429688,0.12529316544532776
1690461932243444517,,1190,,1690461932,243381895,"""world""",,,3.3851752281188965,13.184477806091309,0.13319624960422516
1690461932253466534,,1191,,1690461932,253388863,"""world""",,,3.3857946395874023,13.183716773986816,0.14133669435977936
1690461932263516903,,1192,,1690461932,263416713,"""world""",,,3.386312246322632,13.182984352111816,0.1496286690235138
1690461932273490323,,1193,,1690461932,273398102,"""world""",,,3.38681697845459,13.182299613952637,0.1580188274383545
1690461932283464891,,1194,,1690461932,283379798,"""world""",,,3.387260675430298,13.181676864624023,0.16641715168952942
1690461932293484904,,1195,,1690461932,293394324,"""world""",,,3.387641429901123,13.18100643157959,0.17503321170806885
1690461932303502526,,1196,,1690461932,303395735,"""world""",,,3.3879921436309814,13.180421829223633,0.18364056944847107
1690461932313454287,,1197,,1690461932,313393551,"""world""",,,3.388411283493042,13.179681777954102,0.19261151552200317
1690461932323495326,,1198,,1690461932,323396595,"""world""",,,3.3888041973114014,13.178987503051758,0.201364204287529
1690461932343451112,,1199,,1690461932,343388960,"""world""",,,3.3892054557800293,13.178400993347168,0.21036657691001892
1690461932343454366,,1200,,1690461932,343401648,"""world""",,,3.3894314765930176,13.17784309387207,0.21935631334781647
1690461932353513723,,1201,,1690461932,353389830,"""world""",,,3.3896894454956055,13.177241325378418,0.2285281866788864
1690461932373502511,,1202,,1690461932,373397136,"""world""",,,3.3899877071380615,13.17674446105957,0.23774749040603638
1690461932373509209,,1203,,1690461932,373410519,"""world""",,,3.3902766704559326,13.17630672454834,0.24707309901714325
1690461932383481830,,1204,,1690461932,383380851,"""world""",,,3.3905768394470215,13.175739288330078,0.2564545273780823
1690461932403470388,,1205,,1690461932,403397199,"""world""",,,3.390770196914673,13.175312042236328,0.26589807868003845
1690461932403474208,,1206,,1690461932,403410633,"""world""",,,3.39099383354187,13.174939155578613,0.27532002329826355
1690461932413449831,,1207,,1690461932,413394213,"""world""",,,3.391190528869629,13.174448013305664,0.2848948836326599
1690461932433477421,,1208,,1690461932,433398330,"""world""",,,3.391403913497925,13.174050331115723,0.2944398522377014
1690461932433483541,,1209,,1690461932,433412363,"""world""",,,3.391531467437744,13.173772811889648,0.30410897731781006
1690461932443482820,,1210,,1690461932,443391797,"""world""",,,3.391845226287842,13.17342472076416,0.3137606382369995
1690461932453504837,,1211,,1690461932,453399436,"""world""",,,3.3919272422790527,13.173115730285645,0.32354554533958435
1690461932473467049,,1212,,1690461932,473397790,"""world""",,,3.39213490486145,13.17275619506836,0.33324337005615234
1690461932473474927,,1213,,1690461932,473411642,"""world""",,,3.3923401832580566,13.172550201416016,0.3430584967136383
1690461932483438002,,1214,,1690461932,483381905,"""world""",,,3.392512083053589,13.172396659851074,0.3528464138507843
1690461932493450019,,1215,,1690461932,493392511,"""world""",,,3.392638921737671,13.172178268432617,0.3625431954860687
1690461932503464077,,1216,,1690461932,503398461,"""world""",,,3.3928136825561523,13.171947479248047,0.37231889367103577
1690461932513473789,,1217,,1690461932,513398738,"""world""",,,3.3929874897003174,13.171818733215332,0.38208502531051636
1690461932533470704,,1218,,1690461932,533398357,"""world""",,,3.393085479736328,13.171818733215332,0.39187300205230713
1690461932533478744,,1219,,1690461932,533411982,"""world""",,,3.393165111541748,13.171724319458008,0.40165549516677856
1690461932543463748,,1220,,1690461932,543415080,"""world""",,,3.3932576179504395,13.171662330627441,0.41141536831855774
1690461932563501571,,1221,,1690461932,563417010,"""world""",,,3.3933115005493164,13.171674728393555,0.4211505055427551
1690461932563506067,,1222,,1690461932,563433672,"""world""",,,3.393460512161255,13.171521186828613,0.43084850907325745
1690461932573501698,,1223,,1690461932,573394269,"""world""",,,3.3935282230377197,13.171655654907227,0.4405282735824585
1690461932593557312,,1224,,1690461932,593424481,"""world""",,,3.3935742378234863,13.171545028686523,0.4501761496067047
1690461932593561990,,1225,,1690461932,593439410,"""world""",,,3.3936543464660645,13.171664237976074,0.4598393440246582
1690461932603498262,,1226,,1690461932,603429010,"""world""",,,3.3937041759490967,13.171744346618652,0.4693881571292877
1690461932613503537,,1227,,1690461932,613435583,"""world""",,,3.393660068511963,13.171884536743164,0.47897106409072876
1690461932623539725,,1228,,1690461932,623439488,"""world""",,,3.3937904834747314,13.172057151794434,0.4883573353290558
1690461932633495383,,1229,,1690461932,633426287,"""world""",,,3.393688678741455,13.172245025634766,0.49778103828430176
1690461932653462539,,1230,,1690461932,653391531,"""world""",,,3.393778085708618,13.17236614227295,0.5071138739585876
1690461932653472804,,1231,,1690461932,653402799,"""world""",,,3.3938043117523193,13.172652244567871,0.5163204073905945
1690461932663500242,,1232,,1690461932,663420622,"""world""",,,3.3937389850616455,13.172883987426758,0.5255051255226135
1690461932673470028,,1233,,1690461932,673398974,"""world""",,,3.3937394618988037,13.173049926757812,0.5347713232040405
1690461932683499294,,1234,,1690461932,683382519,"""world""",,,3.393688678741455,13.173218727111816,0.543765127658844
1690461932693490519,,1235,,1690461932,693391880,"""world""",,,3.3936424255371094,13.173490524291992,0.5528392195701599
1690461932713467451,,1236,,1690461932,713395005,"""world""",,,3.3935444355010986,13.17358112335205,0.5616657733917236
1690461932713474020,,1237,,1690461932,713405724,"""world""",,,3.3935225009918213,13.173842430114746,0.5706357955932617
1690461932723469969,,1238,,1690461932,723400014,"""world""",,,3.393427610397339,13.174057006835938,0.5793192386627197
1690461932743469759,,1239,,1690461932,743397044,"""world""",,,3.393385171890259,13.174238204956055,0.5880047678947449
1690461932743479100,,1240,,1690461932,743408256,"""world""",,,3.393225908279419,13.17448902130127,0.5966381430625916
1690461932753539017,,1241,,1690461932,753428405,"""world""",,,3.3931400775909424,13.174782752990723,0.6051542162895203
1690461932763515104,,1242,,1690461932,763415810,"""world""",,,3.393043279647827,13.175024032592773,0.6135731339454651
1690461932773497868,,1243,,1690461932,773401879,"""world""",,,3.392930030822754,13.17527961730957,0.6218163371086121
1690461932783470542,,1244,,1690461932,783382180,"""world""",,,3.3928890228271484,13.175528526306152,0.63004070520401
1690461932793497803,,1245,,1690461932,793396526,"""world""",,,3.3927736282348633,13.17590045928955,0.6382726430892944
1690461932803492875,,1246,,1690461932,803395329,"""world""",,,3.3926990032196045,13.176097869873047,0.646100640296936
1690461932813460524,,1247,,1690461932,813396503,"""world""",,,3.392533779144287,13.176314353942871,0.6540745496749878
1690461932833494440,,1248,,1690461932,833397891,"""world""",,,3.3923864364624023,13.176628112792969,0.6618091464042664
1690461932833499536,,1249,,1690461932,833408795,"""world""",,,3.392317533493042,13.176815032958984,0.6695398688316345
1690461932843435062,,1250,,1690461932,843385978,"""world""",,,3.3921802043914795,13.177063941955566,0.6771553754806519
1690461932863516236,,1251,,1690461932,863425788,"""world""",,,3.3920114040374756,13.177361488342285,0.684668779373169
1690461932863527115,,1252,,1690461932,863461095,"""world""",,,3.3918800354003906,13.177690505981445,0.6919354200363159
1690461932873451727,,1253,,1690461932,873395019,"""world""",,,3.3918302059173584,13.177911758422852,0.699195146560669
1690461932893504849,,1254,,1690461932,893431156,"""world""",,,3.3916735649108887,13.178182601928711,0.7063202857971191
1690461932893511476,,1255,,1690461932,893443428,"""world""",,,3.391554355621338,13.178574562072754,0.7133418321609497
1690461932903523707,,1256,,1690461932,903431193,"""world""",,,3.3914530277252197,13.17885684967041,0.7201700806617737
1690461932913496072,,1257,,1690461932,913431859,"""world""",,,3.3913941383361816,13.179128646850586,0.7269701361656189
1690461932933465063,,1258,,1690461932,933396859,"""world""",,,3.3913002014160156,13.179386138916016,0.7336300611495972
1690461932933472276,,1259,,1690461932,933409369,"""world""",,,3.3912973403930664,13.17967700958252,0.7400512099266052
1690461932943446103,,1260,,1690461932,943390671,"""world""",,,3.391223669052124,13.180000305175781,0.7465010285377502
1690461932953474394,,1261,,1690461932,953393299,"""world""",,,3.39119291305542,13.180294036865234,0.7526232004165649
1690461932963504303,,1262,,1690461932,963413598,"""world""",,,3.3911235332489014,13.180530548095703,0.7588118314743042
1690461932973477810,,1263,,1690461932,973411381,"""world""",,,3.391124725341797,13.180891990661621,0.7648483514785767
1690461932993486951,,1264,,1690461932,993399446,"""world""",,,3.3910958766937256,13.181188583374023,0.7707169651985168
1690461932993495557,,1265,,1690461932,993411193,"""world""",,,3.391113042831421,13.181541442871094,0.7764357924461365
1690461933013521398,,1266,,1690461933,13402222,"""world""",,,3.3910980224609375,13.181774139404297,0.7821080684661865
1690461933013524931,,1267,,1690461933,13413990,"""world""",,,3.391057252883911,13.182058334350586,0.7876015901565552
1690461933023473023,,1268,,1690461933,23400527,"""world""",,,3.3910789489746094,13.182381629943848,0.79295414686203
1690461933033501788,,1269,,1690461933,33405468,"""world""",,,3.3911402225494385,13.182724952697754,0.7982287406921387
1690461933043482304,,1270,,1690461933,43391972,"""world""",,,3.3910744190216064,13.18304443359375,0.803415834903717
1690461933053492518,,1271,,1690461933,53407240,"""world""",,,3.3910701274871826,13.183331489562988,0.808430552482605
1690461933063544754,,1272,,1690461933,63432097,"""world""",,,3.391174554824829,13.183680534362793,0.813338577747345
1690461933073501687,,1273,,1690461933,73398626,"""world""",,,3.3912692070007324,13.18405818939209,0.8181388974189758
1690461933083457113,,1274,,1690461933,83395472,"""world""",,,3.3913707733154297,13.184443473815918,0.8228966593742371
1690461933093519002,,1275,,1690461933,93407166,"""world""",,,3.391406774520874,13.18470573425293,0.8275454640388489
1690461933103516341,,1276,,1690461933,103409890,"""world""",,,3.3914217948913574,13.18508243560791,0.8320385217666626
1690461933113498928,,1277,,1690461933,113403078,"""world""",,,3.391544818878174,13.185572624206543,0.8363812565803528
1690461933133524699,,1278,,1690461933,133404610,"""world""",,,3.391740322113037,13.18600845336914,0.8405621647834778
1690461933133527966,,1279,,1690461933,133422228,"""world""",,,3.3918564319610596,13.186291694641113,0.8447985649108887
1690461933143462045,,1280,,1690461933,143392890,"""world""",,,3.3919475078582764,13.186615943908691,0.8488182425498962
1690461933153491176,,1281,,1690461933,153405736,"""world""",,,3.392035961151123,13.186983108520508,0.8527893424034119
1690461933163514936,,1282,,1690461933,163437588,"""world""",,,3.3921258449554443,13.187329292297363,0.8566901087760925
1690461933173495381,,1283,,1690461933,173430645,"""world""",,,3.39225697517395,13.187664031982422,0.8604539632797241
1690461933193479068,,1284,,1690461933,193399158,"""world""",,,3.392303705215454,13.188027381896973,0.8641632795333862
1690461933193487607,,1285,,1690461933,193411931,"""world""",,,3.3924028873443604,13.188438415527344,0.8676325678825378
1690461933203492719,,1286,,1690461933,203399550,"""world""",,,3.3925724029541016,13.188846588134766,0.8711707592010498
1690461933223479223,,1287,,1690461933,223400737,"""world""",,,3.392596483230591,13.189281463623047,0.8745571374893188
1690461933223486756,,1288,,1690461933,223413097,"""world""",,,3.3927061557769775,13.18972110748291,0.877784252166748
1690461933233497167,,1289,,1690461933,233406074,"""world""",,,3.3927433490753174,13.1901273727417,0.8809868097305298
1690461933243448710,,1290,,1690461933,243391467,"""world""",,,3.3928821086883545,13.190560340881348,0.8840030431747437
1690461933253471135,,1291,,1690461933,253395060,"""world""",,,3.3929779529571533,13.190937995910645,0.8869422674179077
1690461933263524916,,1292,,1690461933,263449931,"""world""",,,3.3930575847625732,13.191370010375977,0.8899092078208923
1690461933283485399,,1293,,1690461933,283418673,"""world""",,,3.393117904663086,13.191780090332031,0.8926562666893005
1690461933283491657,,1294,,1690461933,283431921,"""world""",,,3.3931798934936523,13.192195892333984,0.8954412341117859
1690461933293490154,,1295,,1690461933,293407025,"""world""",,,3.393169641494751,13.192546844482422,0.8980398774147034
1690461933313476093,,1296,,1690461933,313407500,"""world""",,,3.393235445022583,13.192989349365234,0.9006214141845703
1690461933313481758,,1297,,1690461933,313425722,"""world""",,,3.3932371139526367,13.193496704101562,0.903157114982605
1690461933323465718,,1298,,1690461933,323402649,"""world""",,,3.3932290077209473,13.193927764892578,0.9056806564331055
1690461933343478269,,1299,,1690461933,343396278,"""world""",,,3.393263101577759,13.194369316101074,0.9079357385635376
1690461933343482401,,1300,,1690461933,343407709,"""world""",,,3.3931987285614014,13.194852828979492,0.9102131724357605
1690461933353486768,,1301,,1690461933,353401474,"""world""",,,3.3932044506073,13.195244789123535,0.9123948812484741
1690461933373478887,,1302,,1690461933,373405531,"""world""",,,3.393125057220459,13.195602416992188,0.9145147204399109
1690461933373486560,,1303,,1690461933,373418609,"""world""",,,3.393071174621582,13.196150779724121,0.9166572690010071
1690461933383433640,,1304,,1690461933,383384213,"""world""",,,3.393033981323242,13.19655990600586,0.9186098575592041
1690461933393456981,,1305,,1690461933,393396869,"""world""",,,3.392958164215088,13.197151184082031,0.9205573797225952
1690461933403458391,,1306,,1690461933,403396743,"""world""",,,3.392833709716797,13.197592735290527,0.922467052936554
1690461933413454286,,1307,,1690461933,413396630,"""world""",,,3.3927793502807617,13.198115348815918,0.9243550300598145
