rosbagTimestamp,header,seq,stamp,secs,nsecs,frame_id,pose,position,x,y,z
1690462920273434306,,37364,,1690462920,273394608,"""world""",,,3.366075277328491,13.212130546569824,-0.021309610456228256
1690462920283521582,,37365,,1690462920,283431075,"""world""",,,3.36608624458313,13.212136268615723,-0.02129478193819523
1690462920293507834,,37366,,1690462920,293419367,"""world""",,,3.3660776615142822,13.212150573730469,-0.021299339830875397
1690462920303467682,,37367,,1690462920,303405468,"""world""",,,3.3660669326782227,13.212154388427734,-0.021292023360729218
1690462920313453100,,37368,,1690462920,313401213,"""world""",,,3.3660831451416016,13.212143898010254,-0.02129848673939705
1690462920323452304,,37369,,1690462920,323397869,"""world""",,,3.3660800457000732,13.212142944335938,-0.021288195624947548
1690462920333427977,,37370,,1690462920,333383881,"""world""",,,3.366072416305542,13.212128639221191,-0.02130868285894394
1690462920343479707,,37371,,1690462920,343394537,"""world""",,,3.3660781383514404,13.212130546569824,-0.021309884265065193
1690462920353452951,,37372,,1690462920,353400952,"""world""",,,3.3660695552825928,13.212124824523926,-0.021307043731212616
1690462920363513474,,37373,,1690462920,363425276,"""world""",,,3.3660805225372314,13.212139129638672,-0.021311726421117783
1690462920373484699,,37374,,1690462920,373396812,"""world""",,,3.366065740585327,13.212154388427734,-0.021296706050634384
1690462920383492975,,37375,,1690462920,383401466,"""world""",,,3.366067886352539,13.212143898010254,-0.021313168108463287
1690462920393436140,,37376,,1690462920,393391255,"""world""",,,3.3660805225372314,13.212149620056152,-0.021281007677316666
1690462920403483392,,37377,,1690462920,403428170,"""world""",,,3.366077423095703,13.212135314941406,-0.02130354568362236
1690462920413513087,,37378,,1690462920,413423792,"""world""",,,3.3660786151885986,13.212153434753418,-0.021291878074407578
1690462920423502798,,37379,,1690462920,423443947,"""world""",,,3.366086721420288,13.212153434753418,-0.02130158618092537
1690462920433444254,,37380,,1690462920,433391585,"""world""",,,3.3660857677459717,13.212142944335938,-0.021295975893735886
1690462920443457045,,37381,,1690462920,443395422,"""world""",,,3.3660776615142822,13.212145805358887,-0.021280452609062195
1690462920453479575,,37382,,1690462920,453408432,"""world""",,,3.3660669326782227,13.212157249450684,-0.021278604865074158
1690462920463519088,,37383,,1690462920,463433972,"""world""",,,3.366079330444336,13.212141990661621,-0.021303441375494003
1690462920473453692,,37384,,1690462920,473393743,"""world""",,,3.3660786151885986,13.212154388427734,-0.02128918096423149
1690462920483469082,,37385,,1690462920,483406983,"""world""",,,3.366079330444336,13.212157249450684,-0.021297965198755264
1690462920493476969,,37386,,1690462920,493390727,"""world""",,,3.3660848140716553,13.212150573730469,-0.021296687424182892
1690462920503507701,,37387,,1690462920,503411292,"""world""",,,3.366079330444336,13.212124824523926,-0.02130073308944702
1690462920513451555,,37388,,1690462920,513394712,"""world""",,,3.366074323654175,13.212139129638672,-0.021278688684105873
1690462920523493931,,37389,,1690462920,523435612,"""world""",,,3.3660824298858643,13.212142944335938,-0.021293502300977707
1690462920533454011,,37390,,1690462920,533379550,"""world""",,,3.366077184677124,13.212139129638672,-0.021290572360157967
1690462920543455092,,37391,,1690462920,543397827,"""world""",,,3.3660809993743896,13.212142944335938,-0.021303843706846237
1690462920553473204,,37392,,1690462920,553399873,"""world""",,,3.3660709857940674,13.21214771270752,-0.021297670900821686
1690462920563511588,,37393,,1690462920,563392196,"""world""",,,3.366076707839966,13.212138175964355,-0.021287191659212112
1690462920573452196,,37394,,1690462920,573392598,"""world""",,,3.3660728931427,13.212136268615723,-0.021302077919244766
1690462920583494172,,37395,,1690462920,583397498,"""world""",,,3.366077423095703,13.212135314941406,-0.021291688084602356
1690462920593445087,,37396,,1690462920,593386907,"""world""",,,3.3660879135131836,13.21216106414795,-0.021297216415405273
1690462920603536692,,37397,,1690462920,603400193,"""world""",,,3.3660738468170166,13.212079048156738,-0.021398501470685005
1690462920613495487,,37398,,1690462920,613391299,"""world""",,,3.366072416305542,13.212128639221191,-0.021312685683369637
1690462920623539970,,37399,,1690462920,623446240,"""world""",,,3.366070032119751,13.212153434753418,-0.021286368370056152
1690462920633429496,,37400,,1690462920,633379880,"""world""",,,3.366069793701172,13.212132453918457,-0.02128826454281807
1690462920643450344,,37401,,1690462920,643392886,"""world""",,,3.3660762310028076,13.212138175964355,-0.021272191777825356
1690462920653468277,,37402,,1690462920,653400345,"""world""",,,3.3660733699798584,13.212142944335938,-0.021276727318763733
1690462920663441816,,37403,,1690462920,663386882,"""world""",,,3.366060972213745,13.212157249450684,-0.02129887416958809
1690462920673447977,,37404,,1690462920,673386395,"""world""",,,3.366058111190796,13.21214771270752,-0.02129337191581726
1690462920683451182,,37405,,1690462920,683395978,"""world""",,,3.3660695552825928,13.21214771270752,-0.02129293978214264
1690462920693474066,,37406,,1690462920,693391597,"""world""",,,3.3660805225372314,13.212162017822266,-0.021271053701639175
1690462920703492847,,37407,,1690462920,703404638,"""world""",,,3.3660526275634766,13.21214771270752,-0.021291550248861313
1690462920713475768,,37408,,1690462920,713392402,"""world""",,,3.3660621643066406,13.21216106414795,-0.02127561718225479
1690462920723542926,,37409,,1690462920,723454323,"""world""",,,3.36608624458313,13.212154388427734,-0.021301405504345894
1690462920733449760,,37410,,1690462920,733379385,"""world""",,,3.3660876750946045,13.212166786193848,-0.021280759945511818
1690462920743453799,,37411,,1690462920,743396495,"""world""",,,3.366088628768921,13.212143898010254,-0.021292999386787415
1690462920753490781,,37412,,1690462920,753399226,"""world""",,,3.3660812377929688,13.212080955505371,-0.021384714171290398
1690462920763460709,,37413,,1690462920,763386362,"""world""",,,3.366077423095703,13.21214771270752,-0.021280186250805855
1690462920773448836,,37414,,1690462920,773388018,"""world""",,,3.3660671710968018,13.212150573730469,-0.021286968141794205
1690462920783495855,,37415,,1690462920,783397255,"""world""",,,3.366063117980957,13.212150573730469,-0.02128446102142334
1690462920793476661,,37416,,1690462920,793384183,"""world""",,,3.3660640716552734,13.212153434753418,-0.0212877057492733
1690462920803469603,,37417,,1690462920,803403295,"""world""",,,3.366074800491333,13.212078094482422,-0.021383479237556458
1690462920813471346,,37418,,1690462920,813391950,"""world""",,,3.366072416305542,13.212150573730469,-0.02128179371356964
1690462920823509880,,37419,,1690462920,823448869,"""world""",,,3.366082191467285,13.212136268615723,-0.02129908837378025
1690462920833565454,,37420,,1690462920,833442465,"""world""",,,3.3660812377929688,13.212140083312988,-0.02130001410841942
1690462920843479679,,37421,,1690462920,843390811,"""world""",,,3.3660738468170166,13.212141990661621,-0.02128840610384941
1690462920853461843,,37422,,1690462920,853400716,"""world""",,,3.366081476211548,13.212138175964355,-0.0212999377399683
1690462920863475804,,37423,,1690462920,863390400,"""world""",,,3.3660728931427,13.212122917175293,-0.02130810171365738
1690462920873454098,,37424,,1690462920,873394303,"""world""",,,3.3660888671875,13.212140083312988,-0.021302122622728348
1690462920883486361,,37425,,1690462920,883395639,"""world""",,,3.3660850524902344,13.212127685546875,-0.021303372457623482
1690462920893474498,,37426,,1690462920,893390560,"""world""",,,3.366058588027954,13.212126731872559,-0.021322080865502357
1690462920903479021,,37427,,1690462920,903409892,"""world""",,,3.3660831451416016,13.212090492248535,-0.021391330286860466
1690462920913457410,,37428,,1690462920,913394220,"""world""",,,3.366058588027954,13.212149620056152,-0.021293992176651955
1690462920923481633,,37429,,1690462920,923424951,"""world""",,,3.3660736083984375,13.21214771270752,-0.02128930762410164
1690462920933431671,,37430,,1690462920,933381792,"""world""",,,3.3660776615142822,13.212127685546875,-0.021296031773090363
1690462920943477881,,37431,,1690462920,943423847,"""world""",,,3.366091012954712,13.212145805358887,-0.021279893815517426
1690462920953502056,,37432,,1690462920,953431098,"""world""",,,3.3660755157470703,13.212151527404785,-0.021286047995090485
1690462920963453125,,37433,,1690462920,963392669,"""world""",,,3.3660943508148193,13.212150573730469,-0.02130231447517872
1690462920973506201,,37434,,1690462920,973441934,"""world""",,,3.3660972118377686,13.212132453918457,-0.021316159516572952
1690462920983506872,,37435,,1690462920,983432424,"""world""",,,3.3660831451416016,13.212138175964355,-0.02129453420639038
1690462920993454273,,37436,,1690462920,993395611,"""world""",,,3.3660738468170166,13.212139129638672,-0.021301347762346268
1690462921003497273,,37437,,1690462921,3433741,"""world""",,,3.3660919666290283,13.212130546569824,-0.02129082754254341
1690462921013454298,,37438,,1690462921,13399846,"""world""",,,3.3660929203033447,13.212140083312988,-0.021290600299835205
1690462921023457830,,37439,,1690462921,23400792,"""world""",,,3.366084098815918,13.212143898010254,-0.02129676192998886
1690462921033480536,,37440,,1690462921,33433352,"""world""",,,3.366074562072754,13.212145805358887,-0.021296702325344086
1690462921043455693,,37441,,1690462921,43397930,"""world""",,,3.3660714626312256,13.212143898010254,-0.021289564669132233
1690462921053473680,,37442,,1690462921,53399265,"""world""",,,3.3660764694213867,13.212124824523926,-0.021312978118658066
1690462921063444691,,37443,,1690462921,63390699,"""world""",,,3.3660805225372314,13.212145805358887,-0.021295392885804176
1690462921073456750,,37444,,1690462921,73397726,"""world""",,,3.366060972213745,13.212130546569824,-0.02128605544567108
1690462921083481500,,37445,,1690462921,83402023,"""world""",,,3.3660733699798584,13.212136268615723,-0.021304937079548836
1690462921093457069,,37446,,1690462921,93400854,"""world""",,,3.3660762310028076,13.212159156799316,-0.02129928208887577
1690462921103473874,,37447,,1690462921,103401158,"""world""",,,3.3660695552825928,13.212165832519531,-0.02129802107810974
1690462921113462423,,37448,,1690462921,113396364,"""world""",,,3.366072416305542,13.21213436126709,-0.021304916590452194
1690462921123545952,,37449,,1690462921,123448941,"""world""",,,3.3660786151885986,13.212138175964355,-0.021293917670845985
1690462921133509982,,37450,,1690462921,133453760,"""world""",,,3.366065263748169,13.212149620056152,-0.021286863833665848
1690462921143453240,,37451,,1690462921,143390454,"""world""",,,3.3660919666290283,13.212136268615723,-0.021314430981874466
1690462921153468951,,37452,,1690462921,153399697,"""world""",,,3.366062879562378,13.212153434753418,-0.021285172551870346
1690462921163464755,,37453,,1690462921,163396136,"""world""",,,3.3660640716552734,13.212138175964355,-0.021290302276611328
1690462921173478435,,37454,,1690462921,173404231,"""world""",,,3.3660690784454346,13.212136268615723,-0.02130122110247612
1690462921183498912,,37455,,1690462921,183412089,"""world""",,,3.3660991191864014,13.21214771270752,-0.021289467811584473
1690462921193444679,,37456,,1690462921,193389119,"""world""",,,3.3660590648651123,13.212135314941406,-0.02130158245563507
1690462921203479207,,37457,,1690462921,203413779,"""world""",,,3.3660762310028076,13.212158203125,-0.02129862830042839
1690462921213461060,,37458,,1690462921,213406791,"""world""",,,3.3660805225372314,13.21215534210205,-0.021300606429576874
1690462921223505603,,37459,,1690462921,223452733,"""world""",,,3.3660852909088135,13.212141990661621,-0.02130782976746559
1690462921233500949,,37460,,1690462921,233443128,"""world""",,,3.3660688400268555,13.212150573730469,-0.0213015116751194
1690462921243446787,,37461,,1690462921,243393117,"""world""",,,3.3660805225372314,13.212140083312988,-0.02129499241709709
1690462921253467109,,37462,,1690462921,253399297,"""world""",,,3.366075277328491,13.212078094482422,-0.021400056779384613
1690462921263526158,,37463,,1690462921,263434454,"""world""",,,3.3660764694213867,13.212140083312988,-0.021295035257935524
1690462921273458110,,37464,,1690462921,273395505,"""world""",,,3.3660762310028076,13.212150573730469,-0.02129197306931019
1690462921283487073,,37465,,1690462921,283401598,"""world""",,,3.366076707839966,13.212166786193848,-0.021291280165314674
1690462921293518292,,37466,,1690462921,293390048,"""world""",,,3.3660900592803955,13.21214771270752,-0.021300628781318665
1690462921303486971,,37467,,1690462921,303396416,"""world""",,,3.366065263748169,13.212079048156738,-0.0213872492313385
1690462921313492348,,37468,,1690462921,313395985,"""world""",,,3.366082191467285,13.21214771270752,-0.021317170932888985
1690462921323453230,,37469,,1690462921,323394417,"""world""",,,3.3660755157470703,13.212151527404785,-0.021295953541994095
1690462921333470514,,37470,,1690462921,333426719,"""world""",,,3.366069793701172,13.212079048156738,-0.021400338038802147
1690462921343450185,,37471,,1690462921,343391273,"""world""",,,3.3660738468170166,13.212151527404785,-0.021304676309227943
1690462921353477164,,37472,,1690462921,353404618,"""world""",,,3.3660755157470703,13.21215534210205,-0.02128380537033081
1690462921363532744,,37473,,1690462921,363435409,"""world""",,,3.366077184677124,13.212153434753418,-0.021297099068760872
1690462921373486936,,37474,,1690462921,373396267,"""world""",,,3.3660717010498047,13.212139129638672,-0.021302927285432816
1690462921383486811,,37475,,1690462921,383404101,"""world""",,,3.366074562072754,13.21215534210205,-0.021291714161634445
1690462921393474650,,37476,,1690462921,393387604,"""world""",,,3.3660717010498047,13.21216869354248,-0.021306626498699188
1690462921403577651,,37477,,1690462921,403446728,"""world""",,,3.3660593032836914,13.212105751037598,-0.021399788558483124
1690462921413486665,,37478,,1690462921,413396606,"""world""",,,3.366079330444336,13.212162971496582,-0.021286332979798317
1690462921423482325,,37479,,1690462921,423393713,"""world""",,,3.366074800491333,13.212153434753418,-0.021285736933350563
1690462921433488950,,37480,,1690462921,433383888,"""world""",,,3.3660671710968018,13.212157249450684,-0.021298611536622047
1690462921443456488,,37481,,1690462921,443398196,"""world""",,,3.3660833835601807,13.212145805358887,-0.021295644342899323
1690462921453493052,,37482,,1690462921,453416840,"""world""",,,3.3660666942596436,13.212143898010254,-0.021302223205566406
1690462921463458130,,37483,,1690462921,463401283,"""world""",,,3.3660669326782227,13.21215534210205,-0.021309681236743927
1690462921473492955,,37484,,1690462921,473430432,"""world""",,,3.366067886352539,13.21215534210205,-0.02129106968641281
1690462921483473479,,37485,,1690462921,483401900,"""world""",,,3.366076707839966,13.212165832519531,-0.021292850375175476
1690462921493498965,,37486,,1690462921,493433768,"""world""",,,3.3660669326782227,13.212165832519531,-0.021289320662617683
1690462921503453116,,37487,,1690462921,503398493,"""world""",,,3.3660728931427,13.212162971496582,-0.021296413615345955
1690462921513502040,,37488,,1690462921,513432623,"""world""",,,3.36606502532959,13.21214771270752,-0.021308744326233864
1690462921523494994,,37489,,1690462921,523431593,"""world""",,,3.36608624458313,13.212154388427734,-0.02130761370062828
1690462921533471289,,37490,,1690462921,533416608,"""world""",,,3.366067886352539,13.212158203125,-0.021285297349095345
1690462921543483849,,37491,,1690462921,543430027,"""world""",,,3.366079092025757,13.212165832519531,-0.0212976336479187
1690462921553518743,,37492,,1690462921,553445263,"""world""",,,3.366072416305542,13.212158203125,-0.021291155368089676
1690462921563451107,,37493,,1690462921,563397778,"""world""",,,3.3660755157470703,13.212170600891113,-0.02128353901207447
1690462921573482408,,37494,,1690462921,573424586,"""world""",,,3.366074800491333,13.212153434753418,-0.021301455795764923
1690462921583476679,,37495,,1690462921,583406323,"""world""",,,3.3660755157470703,13.212176322937012,-0.02128438837826252
1690462921593539460,,37496,,1690462921,593481061,"""world""",,,3.3660850524902344,13.212145805358887,-0.021309681236743927
1690462921603526398,,37497,,1690462921,603469289,"""world""",,,3.366074323654175,13.212176322937012,-0.02128404565155506
1690462921613455871,,37498,,1690462921,613400690,"""world""",,,3.3660736083984375,13.212162971496582,-0.02130461484193802
1690462921623485870,,37499,,1690462921,623423676,"""world""",,,3.3660805225372314,13.212158203125,-0.021295877173542976
1690462921633442965,,37500,,1690462921,633390619,"""world""",,,3.3660824298858643,13.212146759033203,-0.02130233682692051
1690462921643518512,,37501,,1690462921,643430825,"""world""",,,3.3660736083984375,13.21216106414795,-0.021275151520967484
1690462921653486235,,37502,,1690462921,653399948,"""world""",,,3.3660783767700195,13.212153434753418,-0.021308237686753273
1690462921663498306,,37503,,1690462921,663445856,"""world""",,,3.366072416305542,13.21215534210205,-0.02130933851003647
1690462921673448720,,37504,,1690462921,673393273,"""world""",,,3.366065263748169,13.212158203125,-0.02129092812538147
1690462921683480425,,37505,,1690462921,683406243,"""world""",,,3.3660881519317627,13.212162971496582,-0.0212931577116251
1690462921693471614,,37506,,1690462921,693391680,"""world""",,,3.366072654724121,13.212142944335938,-0.02129657007753849
1690462921703528534,,37507,,1690462921,703439497,"""world""",,,3.366081953048706,13.21216106414795,-0.021293535828590393
1690462921713456722,,37508,,1690462921,713395217,"""world""",,,3.366077423095703,13.212142944335938,-0.021312706172466278
1690462921723457766,,37509,,1690462921,723395488,"""world""",,,3.3660945892333984,13.21215534210205,-0.021303454414010048
1690462921733460909,,37510,,1690462921,733384432,"""world""",,,3.3660900592803955,13.212158203125,-0.021310321986675262
1690462921743449152,,37511,,1690462921,743392061,"""world""",,,3.3660924434661865,13.212164878845215,-0.021320108324289322
1690462921753472848,,37512,,1690462921,753402533,"""world""",,,3.3660805225372314,13.212084770202637,-0.02140725404024124
1690462921763495339,,37513,,1690462921,763418120,"""world""",,,3.366088628768921,13.212164878845215,-0.021312177181243896
1690462921773471893,,37514,,1690462921,773392374,"""world""",,,3.3660945892333984,13.212165832519531,-0.021310755982995033
1690462921783458539,,37515,,1690462921,783399320,"""world""",,,3.366102933883667,13.212170600891113,-0.021304259076714516
1690462921793527646,,37516,,1690462921,793441202,"""world""",,,3.3661038875579834,13.212181091308594,-0.021301478147506714
1690462921803458017,,37517,,1690462921,803396130,"""world""",,,3.3660888671875,13.212173461914062,-0.021302076056599617
1690462921813470692,,37518,,1690462921,813404042,"""world""",,,3.3660812377929688,13.21216106414795,-0.021312512457370758
1690462921823480560,,37519,,1690462921,823393862,"""world""",,,3.3660972118377686,13.212153434753418,-0.021330147981643677
1690462921833432233,,37520,,1690462921,833380350,"""world""",,,3.366069793701172,13.21219253540039,-0.021288756281137466
1690462921843457493,,37521,,1690462921,843400136,"""world""",,,3.366093635559082,13.212170600891113,-0.021284960210323334
1690462921853479837,,37522,,1690462921,853402192,"""world""",,,3.3660802841186523,13.212159156799316,-0.021293658763170242
1690462921863506969,,37523,,1690462921,863449137,"""world""",,,3.366077423095703,13.212153434753418,-0.02129393257200718
1690462921873447715,,37524,,1690462921,873390725,"""world""",,,3.3660714626312256,13.212149620056152,-0.021298419684171677
1690462921883474323,,37525,,1690462921,883397642,"""world""",,,3.366091012954712,13.212176322937012,-0.021286189556121826
1690462921893542748,,37526,,1690462921,893450016,"""world""",,,3.366093397140503,13.212162017822266,-0.02129250392317772
1690462921903449912,,37527,,1690462921,903394969,"""world""",,,3.3660762310028076,13.212150573730469,-0.02131257951259613
1690462921913456217,,37528,,1690462921,913396793,"""world""",,,3.3660831451416016,13.212141990661621,-0.021306272596120834
1690462921923465256,,37529,,1690462921,923403555,"""world""",,,3.3660829067230225,13.212124824523926,-0.021309860050678253
1690462921933428420,,37530,,1690462921,933382787,"""world""",,,3.366077423095703,13.212145805358887,-0.02130427397787571
1690462921943466997,,37531,,1690462921,943395190,"""world""",,,3.3660926818847656,13.212158203125,-0.021298233419656754
1690462921953503141,,37532,,1690462921,953402241,"""world""",,,3.3660812377929688,13.212150573730469,-0.021306069567799568
1690462921963482140,,37533,,1690462921,963392626,"""world""",,,3.366074323654175,13.212101936340332,-0.02137535624206066
1690462921973454108,,37534,,1690462921,973393590,"""world""",,,3.3660738468170166,13.212146759033203,-0.021301764994859695
1690462921983461419,,37535,,1690462921,983400681,"""world""",,,3.3660850524902344,13.21215534210205,-0.02129977196455002
1690462921993433499,,37536,,1690462921,993386710,"""world""",,,3.3660895824432373,13.212172508239746,-0.021293628960847855
1690462922003448168,,37537,,1690462922,3397017,"""world""",,,3.366093873977661,13.212170600891113,-0.02130393125116825
1690462922013550476,,37538,,1690462922,13439689,"""world""",,,3.366089105606079,13.212145805358887,-0.021307894960045815
1690462922023511632,,37539,,1690462922,23448649,"""world""",,,3.366079330444336,13.212169647216797,-0.021298572421073914
1690462922033492264,,37540,,1690462922,33440869,"""world""",,,3.366079330444336,13.212146759033203,-0.021314749494194984
1690462922043490637,,37541,,1690462922,43401498,"""world""",,,3.366088628768921,13.212149620056152,-0.02131347730755806
1690462922053467314,,37542,,1690462922,53406749,"""world""",,,3.3660647869110107,13.212153434753418,-0.021303489804267883
1690462922063444762,,37543,,1690462922,63392653,"""world""",,,3.3660852909088135,13.212166786193848,-0.021301040425896645
1690462922073452513,,37544,,1690462922,73392260,"""world""",,,3.3660895824432373,13.212145805358887,-0.021306607872247696
1690462922083462585,,37545,,1690462922,83397892,"""world""",,,3.3660781383514404,13.212140083312988,-0.021307917311787605
1690462922093435021,,37546,,1690462922,93385683,"""world""",,,3.3660776615142822,13.212153434753418,-0.021300368010997772
1690462922103477374,,37547,,1690462922,103406818,"""world""",,,3.366072416305542,13.212150573730469,-0.02128423936665058
1690462922113500262,,37548,,1690462922,113419066,"""world""",,,3.3660755157470703,13.21214771270752,-0.021311158314347267
1690462922123562526,,37549,,1690462922,123502830,"""world""",,,3.3660686016082764,13.212092399597168,-0.021404528990387917
1690462922133502345,,37550,,1690462922,133412591,"""world""",,,3.3660812377929688,13.21213150024414,-0.021316077560186386
1690462922143518706,,37551,,1690462922,143421293,"""world""",,,3.366072416305542,13.212138175964355,-0.021307798102498055
1690462922153456782,,37552,,1690462922,153403462,"""world""",,,3.3660686016082764,13.212058067321777,-0.02141762338578701
1690462922163487515,,37553,,1690462922,163392192,"""world""",,,3.366068124771118,13.212063789367676,-0.021410519257187843
1690462922173461569,,37554,,1690462922,173394153,"""world""",,,3.366083860397339,13.212124824523926,-0.021324757486581802
1690462922183480393,,37555,,1690462922,183412743,"""world""",,,3.3660852909088135,13.212146759033203,-0.021310914307832718
1690462922193455022,,37556,,1690462922,193401241,"""world""",,,3.3660786151885986,13.212071418762207,-0.021421628072857857
1690462922203464507,,37557,,1690462922,203404145,"""world""",,,3.3660781383514404,13.212135314941406,-0.0212944857776165
1690462922213469792,,37558,,1690462922,213415018,"""world""",,,3.366089105606079,13.212139129638672,-0.021313246339559555
1690462922223494481,,37559,,1690462922,223441688,"""world""",,,3.366074800491333,13.21213436126709,-0.021313171833753586
1690462922233428373,,37560,,1690462922,233383420,"""world""",,,3.366074800491333,13.21207332611084,-0.02141883783042431
1690462922243443279,,37561,,1690462922,243391602,"""world""",,,3.3660786151885986,13.212082862854004,-0.02142667956650257
1690462922253469164,,37562,,1690462922,253407185,"""world""",,,3.3660728931427,13.212124824523926,-0.021319888532161713
1690462922263488975,,37563,,1690462922,263399555,"""world""",,,3.366060256958008,13.21214771270752,-0.021317267790436745
1690462922273510392,,37564,,1690462922,273421813,"""world""",,,3.3660802841186523,13.212101936340332,-0.02131972648203373
1690462922283497187,,37565,,1690462922,283434057,"""world""",,,3.3660876750946045,13.212117195129395,-0.02134886384010315
1690462922293481324,,37566,,1690462922,293399831,"""world""",,,3.3660643100738525,13.2121000289917,-0.021347494795918465
1690462922303481756,,37567,,1690462922,303427615,"""world""",,,3.3660809993743896,13.212127685546875,-0.02132277376949787
1690462922313475274,,37568,,1690462922,313419281,"""world""",,,3.3660624027252197,13.21212387084961,-0.021316416561603546
1690462922323480680,,37569,,1690462922,323426110,"""world""",,,3.366091728210449,13.21209716796875,-0.021332578733563423
1690462922333502951,,37570,,1690462922,333461450,"""world""",,,3.366074562072754,13.212056159973145,-0.021366972476243973
1690462922343476082,,37571,,1690462922,343421291,"""world""",,,3.3660857677459717,13.212159156799316,-0.02129710651934147
1690462922353467024,,37572,,1690462922,353408448,"""world""",,,3.366088628768921,13.212058067321777,-0.021364707499742508
1690462922363455482,,37573,,1690462922,363399486,"""world""",,,3.3660717010498047,13.21210765838623,-0.021317992359399796
1690462922373528106,,37574,,1690462922,373426657,"""world""",,,3.366082191467285,13.212120056152344,-0.02129197120666504
1690462922383458642,,37575,,1690462922,383399220,"""world""",,,3.3660762310028076,13.212130546569824,-0.02130729891359806
1690462922393442180,,37576,,1690462922,393388674,"""world""",,,3.3660547733306885,13.212108612060547,-0.02130729891359806
1690462922403479743,,37577,,1690462922,403398240,"""world""",,,3.3660781383514404,13.2121000289917,-0.021281231194734573
1690462922413466105,,37578,,1690462922,413409455,"""world""",,,3.3660905361175537,13.212122917175293,-0.021307233721017838
1690462922423487424,,37579,,1690462922,423431252,"""world""",,,3.3660876750946045,13.212127685546875,-0.021286413073539734
1690462922433470144,,37580,,1690462922,433424389,"""world""",,,3.3660576343536377,13.212117195129395,-0.021330885589122772
1690462922443461217,,37581,,1690462922,443406873,"""world""",,,3.3660805225372314,13.212136268615723,-0.021300876513123512
1690462922453520596,,37582,,1690462922,453422997,"""world""",,,3.3660809993743896,13.212149620056152,-0.02129516378045082
1690462922463517857,,37583,,1690462922,463430034,"""world""",,,3.366060495376587,13.212150573730469,-0.021293915808200836
1690462922473446990,,37584,,1690462922,473394592,"""world""",,,3.3660542964935303,13.21219253540039,-0.021334726363420486
1690462922483457491,,37585,,1690462922,483399505,"""world""",,,3.366018295288086,13.2122220993042,-0.021292757242918015
1690462922493457149,,37586,,1690462922,493397749,"""world""",,,3.365992546081543,13.212199211120605,-0.021404149010777473
1690462922503453816,,37587,,1690462922,503399439,"""world""",,,3.3660056591033936,13.212231636047363,-0.02133794315159321
1690462922513524697,,37588,,1690462922,513437123,"""world""",,,3.366029977798462,13.212237358093262,-0.021300341933965683
1690462922523489283,,37589,,1690462922,523428152,"""world""",,,3.365969657897949,13.212267875671387,-0.02129802480340004
1690462922533458164,,37590,,1690462922,533411499,"""world""",,,3.3659744262695312,13.212288856506348,-0.021308448165655136
1690462922543516642,,37591,,1690462922,543433065,"""world""",,,3.365997076034546,13.212300300598145,-0.021320775151252747
1690462922553469898,,37592,,1690462922,553409545,"""world""",,,3.3659751415252686,13.212367057800293,-0.021333562210202217
1690462922563520248,,37593,,1690462922,563461159,"""world""",,,3.365961790084839,13.212467193603516,-0.021344518288969994
1690462922573460024,,37594,,1690462922,573395683,"""world""",,,3.3659350872039795,13.212563514709473,-0.02133559063076973
1690462922583491221,,37595,,1690462922,583432007,"""world""",,,3.365870714187622,13.212706565856934,-0.02130025438964367
1690462922593473958,,37596,,1690462922,593419240,"""world""",,,3.3657848834991455,13.212791442871094,-0.021351154893636703
1690462922603484020,,37597,,1690462922,603427047,"""world""",,,3.365724563598633,13.212867736816406,-0.021353336051106453
1690462922613485861,,37598,,1690462922,613427613,"""world""",,,3.3656165599823,13.212928771972656,-0.021348973736166954
1690462922623482018,,37599,,1690462922,623424370,"""world""",,,3.36560320854187,13.212969779968262,-0.021314511075615883
1690462922633518308,,37600,,1690462922,633472542,"""world""",,,3.3655595779418945,13.213017463684082,-0.021324649453163147
1690462922643474741,,37601,,1690462922,643420001,"""world""",,,3.3655178546905518,13.212979316711426,-0.021395931020379066
1690462922653470207,,37602,,1690462922,653412469,"""world""",,,3.3655331134796143,13.212899208068848,-0.021374689415097237
1690462922663480179,,37603,,1690462922,663392480,"""world""",,,3.3655831813812256,13.212834358215332,-0.021310757845640182
1690462922673465586,,37604,,1690462922,673409452,"""world""",,,3.3656013011932373,13.212764739990234,-0.02133062668144703
1690462922683513436,,37605,,1690462922,683446020,"""world""",,,3.3656723499298096,13.212654113769531,-0.0213310606777668
1690462922693479868,,37606,,1690462922,693401161,"""world""",,,3.365676164627075,13.212586402893066,-0.021375508978962898
1690462922703461520,,37607,,1690462922,703403905,"""world""",,,3.3657777309417725,13.212550163269043,-0.021318022161722183
1690462922713459594,,37608,,1690462922,713402141,"""world""",,,3.3657710552215576,13.212532043457031,-0.021306265145540237
1690462922723452531,,37609,,1690462922,723397035,"""world""",,,3.3658502101898193,13.212380409240723,-0.02123057097196579
1690462922733438381,,37610,,1690462922,733383513,"""world""",,,3.365870714187622,13.212318420410156,-0.02125053107738495
1690462922743450105,,37611,,1690462922,743393575,"""world""",,,3.3659279346466064,13.212332725524902,-0.021289126947522163
1690462922753468990,,37612,,1690462922,753408384,"""world""",,,3.3659489154815674,13.212246894836426,-0.02128545567393303
1690462922763509065,,37613,,1690462922,763443455,"""world""",,,3.366013765335083,13.212267875671387,-0.0212317556142807
1690462922773455427,,37614,,1690462922,773398255,"""world""",,,3.3660688400268555,13.212112426757812,-0.021244775503873825
1690462922783473953,,37615,,1690462922,783404318,"""world""",,,3.3661205768585205,13.212154388427734,-0.02122311480343342
1690462922793461282,,37616,,1690462922,793398849,"""world""",,,3.3661911487579346,13.21213150024414,-0.02126409485936165
1690462922803490811,,37617,,1690462922,803397552,"""world""",,,3.366274118423462,13.212165832519531,-0.021257536485791206
1690462922813465980,,37618,,1690462922,813398480,"""world""",,,3.3664026260375977,13.212157249450684,-0.021172503009438515
1690462922823488058,,37619,,1690462922,823398414,"""world""",,,3.3665199279785156,13.212101936340332,-0.021124141290783882
1690462922833455531,,37620,,1690462922,833410184,"""world""",,,3.3667221069335938,13.212092399597168,-0.020986469462513924
1690462922843475085,,37621,,1690462922,843421216,"""world""",,,3.366925001144409,13.212090492248535,-0.020825525745749474
1690462922853501018,,37622,,1690462922,853414352,"""world""",,,3.3671600818634033,13.212023735046387,-0.02066909894347191
1690462922863582724,,37623,,1690462922,863466764,"""world""",,,3.3674027919769287,13.211971282958984,-0.020370056852698326
1690462922873456991,,37624,,1690462922,873394219,"""world""",,,3.367671251296997,13.211926460266113,-0.01998228393495083
1690462922883501624,,37625,,1690462922,883435945,"""world""",,,3.368008852005005,13.211883544921875,-0.019485080614686012
1690462922893472390,,37626,,1690462922,893420669,"""world""",,,3.368253469467163,13.211727142333984,-0.018819475546479225
1690462922903492824,,37627,,1690462922,903431671,"""world""",,,3.368706464767456,13.211627006530762,-0.018335208296775818
1690462922913468371,,37628,,1690462922,913407439,"""world""",,,3.369128465652466,13.211529731750488,-0.017390113323926926
1690462922923539264,,37629,,1690462922,923484557,"""world""",,,3.3695895671844482,13.211517333984375,-0.016249336302280426
1690462922933460194,,37630,,1690462922,933418270,"""world""",,,3.370116949081421,13.21146297454834,-0.015096412971615791
1690462922943479980,,37631,,1690462922,943426122,"""world""",,,3.37058424949646,13.211368560791016,-0.01393561065196991
1690462922953464238,,37632,,1690462922,953408711,"""world""",,,3.371166229248047,13.211189270019531,-0.012522726319730282
1690462922963485658,,37633,,1690462922,963434732,"""world""",,,3.3718700408935547,13.211224555969238,-0.01107039861381054
1690462922973482354,,37634,,1690462922,973428065,"""world""",,,3.3719940185546875,13.210986137390137,-0.009055125527083874
1690462922983506884,,37635,,1690462922,983439098,"""world""",,,3.37260365486145,13.210925102233887,-0.007096719462424517
1690462922993471799,,37636,,1690462922,993389490,"""world""",,,3.3730857372283936,13.210810661315918,-0.0050260950811207294
1690462923003495882,,37637,,1690462923,3439616,"""world""",,,3.3736202716827393,13.210772514343262,-0.0025530164130032063
1690462923013480649,,37638,,1690462923,13425691,"""world""",,,3.3742456436157227,13.210624694824219,7.254366937559098e-05
1690462923023555298,,37639,,1690462923,23464434,"""world""",,,3.374913215637207,13.210450172424316,0.003152140649035573
1690462923033507336,,37640,,1690462923,33459310,"""world""",,,3.3757951259613037,13.21039867401123,0.006212013773620129
1690462923043459692,,37641,,1690462923,43406312,"""world""",,,3.3762905597686768,13.210193634033203,0.009845605120062828
1690462923053475194,,37642,,1690462923,53413269,"""world""",,,3.377119779586792,13.209898948669434,0.013736729510128498
1690462923063506533,,37643,,1690462923,63421899,"""world""",,,3.3778903484344482,13.209691047668457,0.01786734350025654
1690462923073455592,,37644,,1690462923,73394602,"""world""",,,3.3785958290100098,13.209617614746094,0.02234612964093685
1690462923083512356,,37645,,1690462923,83444785,"""world""",,,3.3794078826904297,13.209370613098145,0.026983551681041718
1690462923093445165,,37646,,1690462923,93391879,"""world""",,,3.3801066875457764,13.209027290344238,0.032051946967840195
1690462923103500700,,37647,,1690462923,103434900,"""world""",,,3.3808326721191406,13.208828926086426,0.03725810348987579
1690462923113495547,,37648,,1690462923,113399381,"""world""",,,3.381502866744995,13.208534240722656,0.042609237134456635
1690462923123481176,,37649,,1690462923,123425379,"""world""",,,3.3822250366210938,13.20840072631836,0.048192501068115234
1690462923133470030,,37650,,1690462923,133415604,"""world""",,,3.3829920291900635,13.208106994628906,0.05407227575778961
1690462923143434622,,37651,,1690462923,143390372,"""world""",,,3.3835771083831787,13.207806587219238,0.060029737651348114
1690462923153496546,,37652,,1690462923,153429896,"""world""",,,3.384211540222168,13.207613945007324,0.0663667619228363
1690462923163549741,,37653,,1690462923,163440731,"""world""",,,3.3849403858184814,13.207379341125488,0.07279343158006668
1690462923173471438,,37654,,1690462923,173410798,"""world""",,,3.3856537342071533,13.207173347473145,0.07938627898693085
1690462923183476916,,37655,,1690462923,183410941,"""world""",,,3.386169910430908,13.206904411315918,0.08632678538560867
1690462923193450509,,37656,,1690462923,193392249,"""world""",,,3.386706590652466,13.20667552947998,0.09326348453760147
1690462923203464960,,37657,,1690462923,203394852,"""world""",,,3.387288808822632,13.206439018249512,0.10036324709653854
1690462923213445402,,37658,,1690462923,213389133,"""world""",,,3.3879382610321045,13.206299781799316,0.10770614445209503
1690462923223459434,,37659,,1690462923,223395857,"""world""",,,3.388432502746582,13.206169128417969,0.11534705758094788
1690462923233433109,,37660,,1690462923,233383567,"""world""",,,3.388902425765991,13.205986022949219,0.12282929569482803
1690462923243461022,,37661,,1690462923,243396730,"""world""",,,3.389343023300171,13.205917358398438,0.13067853450775146
1690462923253487505,,37662,,1690462923,253414321,"""world""",,,3.3899612426757812,13.2057466506958,0.13852982223033905
1690462923263448727,,37663,,1690462923,263395094,"""world""",,,3.390376329421997,13.205510139465332,0.14631283283233643
1690462923273446708,,37664,,1690462923,273389775,"""world""",,,3.3908958435058594,13.205458641052246,0.15454359352588654
1690462923283476189,,37665,,1690462923,283408134,"""world""",,,3.3913333415985107,13.205212593078613,0.16268093883991241
1690462923293454513,,37666,,1690462923,293401342,"""world""",,,3.3917534351348877,13.205109596252441,0.17103426158428192
1690462923303466414,,37667,,1690462923,303404347,"""world""",,,3.3921210765838623,13.205020904541016,0.17941705882549286
1690462923313460182,,37668,,1690462923,313398437,"""world""",,,3.3925647735595703,13.204940795898438,0.1878863126039505
1690462923323454371,,37669,,1690462923,323395420,"""world""",,,3.3929359912872314,13.204684257507324,0.19638828933238983
1690462923333459370,,37670,,1690462923,333410849,"""world""",,,3.393284559249878,13.204620361328125,0.20520861446857452
1690462923343479392,,37671,,1690462923,343423056,"""world""",,,3.393564224243164,13.20462417602539,0.2139958292245865
1690462923353476794,,37672,,1690462923,353405620,"""world""",,,3.393817663192749,13.204509735107422,0.22294773161411285
1690462923363564190,,37673,,1690462923,363434304,"""world""",,,3.3940908908843994,13.204451560974121,0.23185192048549652
1690462923373446957,,37674,,1690462923,373388100,"""world""",,,3.3943674564361572,13.204508781433105,0.24102182686328888
1690462923383467831,,37675,,1690462923,383403330,"""world""",,,3.3945982456207275,13.204498291015625,0.25001516938209534
1690462923393486464,,37676,,1690462923,393398420,"""world""",,,3.3947765827178955,13.20455551147461,0.2593611180782318
1690462923403498039,,37677,,1690462923,403437313,"""world""",,,3.3949034214019775,13.204559326171875,0.2685225009918213
1690462923413521177,,37678,,1690462923,413432061,"""world""",,,3.3951575756073,13.204691886901855,0.277868390083313
1690462923423525351,,37679,,1690462923,423434062,"""world""",,,3.3952863216400146,13.204681396484375,0.2873482406139374
1690462923433452443,,37680,,1690462923,433398679,"""world""",,,3.395366668701172,13.204789161682129,0.29684582352638245
1690462923443463301,,37681,,1690462923,443405931,"""world""",,,3.39546799659729,13.204940795898438,0.30638250708580017
1690462923453478201,,37682,,1690462923,453415361,"""world""",,,3.3955161571502686,13.205047607421875,0.31592702865600586
1690462923463511198,,37683,,1690462923,463453355,"""world""",,,3.3954408168792725,13.2052001953125,0.3255232870578766
1690462923473447152,,37684,,1690462923,473392341,"""world""",,,3.3954877853393555,13.205384254455566,0.3351885974407196
1690462923483472537,,37685,,1690462923,483394785,"""world""",,,3.3954904079437256,13.205550193786621,0.34476980566978455
1690462923493458247,,37686,,1690462923,493395389,"""world""",,,3.395418405532837,13.205757141113281,0.35444334149360657
1690462923503459423,,37687,,1690462923,503398229,"""world""",,,3.3954017162323,13.206027030944824,0.36419394612312317
1690462923513448366,,37688,,1690462923,513394231,"""world""",,,3.3952531814575195,13.20632266998291,0.3738642632961273
1690462923523457958,,37689,,1690462923,523394866,"""world""",,,3.3951399326324463,13.206521034240723,0.38365182280540466
1690462923543472694,,37690,,1690462923,543404699,"""world""",,,3.395024299621582,13.206924438476562,0.3934125602245331
1690462923543480436,,37691,,1690462923,543415081,"""world""",,,3.394906759262085,13.20724105834961,0.4031480550765991
1690462923553458793,,37692,,1690462923,553398996,"""world""",,,3.394775629043579,13.207489013671875,0.4129830300807953
1690462923563479618,,37693,,1690462923,563390814,"""world""",,,3.3944246768951416,13.208014488220215,0.42271044850349426
1690462923573450178,,37694,,1690462923,573390836,"""world""",,,3.394235372543335,13.20837688446045,0.4325995445251465
1690462923583474769,,37695,,1690462923,583395190,"""world""",,,3.3939616680145264,13.208783149719238,0.44235360622406006
1690462923593448646,,37696,,1690462923,593391365,"""world""",,,3.3937246799468994,13.209220886230469,0.45214739441871643
1690462923603453626,,37697,,1690462923,603396037,"""world""",,,3.393367052078247,13.209723472595215,0.46200624108314514
1690462923613451989,,37698,,1690462923,613394507,"""world""",,,3.393054962158203,13.210196495056152,0.47168228030204773
1690462923623453236,,37699,,1690462923,623394685,"""world""",,,3.392793655395508,13.210670471191406,0.4813999831676483
1690462923633427580,,37700,,1690462923,633381738,"""world""",,,3.392303228378296,13.211285591125488,0.49118390679359436
1690462923643445199,,37701,,1690462923,643389980,"""world""",,,3.3919124603271484,13.211913108825684,0.5008857846260071
1690462923653457838,,37702,,1690462923,653399926,"""world""",,,3.3915207386016846,13.212435722351074,0.5105069279670715
1690462923663483166,,37703,,1690462923,663392553,"""world""",,,3.391073226928711,13.213086128234863,0.5201436877250671
1690462923673457274,,37704,,1690462923,673390269,"""world""",,,3.3905868530273438,13.21377182006836,0.5297088027000427
1690462923683498983,,37705,,1690462923,683434352,"""world""",,,3.390320062637329,13.214329719543457,0.5392583012580872
1690462923693486912,,37706,,1690462923,693426860,"""world""",,,3.3898985385894775,13.215001106262207,0.5488308072090149
1690462923703462446,,37707,,1690462923,703404050,"""world""",,,3.3894710540771484,13.215736389160156,0.5583382248878479
1690462923713459168,,37708,,1690462923,713400666,"""world""",,,3.389146566390991,13.216437339782715,0.5676543712615967
1690462923723453916,,37709,,1690462923,723398905,"""world""",,,3.3887717723846436,13.217166900634766,0.5771233439445496
1690462923733470100,,37710,,1690462923,733383767,"""world""",,,3.3883469104766846,13.217951774597168,0.5865424871444702
1690462923743469703,,37711,,1690462923,743396545,"""world""",,,3.3880202770233154,13.218684196472168,0.5957894325256348
1690462923753500744,,37712,,1690462923,753431542,"""world""",,,3.387643575668335,13.219483375549316,0.6049882769584656
1690462923763454015,,37713,,1690462923,763395776,"""world""",,,3.387186288833618,13.220311164855957,0.6143121719360352
1690462923773504905,,37714,,1690462923,773413322,"""world""",,,3.3868048191070557,13.22104549407959,0.6233735084533691
1690462923783468777,,37715,,1690462923,783404263,"""world""",,,3.3864548206329346,13.221874237060547,0.6325183510780334
1690462923793474958,,37716,,1690462923,793408544,"""world""",,,3.3860206604003906,13.222724914550781,0.64151930809021
1690462923803466167,,37717,,1690462923,803404443,"""world""",,,3.385679244995117,13.223450660705566,0.6505450010299683
1690462923813471291,,37718,,1690462923,813401657,"""world""",,,3.3853518962860107,13.224366188049316,0.6594283580780029
1690462923823513928,,37719,,1690462923,823425387,"""world""",,,3.384963035583496,13.225138664245605,0.6681267619132996
1690462923833466795,,37720,,1690462923,833383066,"""world""",,,3.3846213817596436,13.225884437561035,0.6769495606422424
1690462923843439614,,37721,,1690462923,843388146,"""world""",,,3.3842849731445312,13.226730346679688,0.6856235861778259
1690462923853467835,,37722,,1690462923,853402530,"""world""",,,3.3839848041534424,13.227442741394043,0.6941630244255066
1690462923863527795,,37723,,1690462923,863474189,"""world""",,,3.3835887908935547,13.228388786315918,0.7026968598365784
1690462923873449815,,37724,,1690462923,873393611,"""world""",,,3.3833301067352295,13.229148864746094,0.7110503315925598
1690462923883461486,,37725,,1690462923,883405291,"""world""",,,3.3829221725463867,13.230010986328125,0.7193160057067871
1690462923893508981,,37726,,1690462923,893423141,"""world""",,,3.382706642150879,13.230788230895996,0.7275152802467346
1690462923903455027,,37727,,1690462923,903402779,"""world""",,,3.3823747634887695,13.231644630432129,0.735650360584259
1690462923913466272,,37728,,1690462923,913400373,"""world""",,,3.382094621658325,13.23242473602295,0.7436223030090332
1690462923923502501,,37729,,1690462923,923441638,"""world""",,,3.381812810897827,13.233365058898926,0.7515597939491272
1690462923933431684,,37730,,1690462923,933384202,"""world""",,,3.3816115856170654,13.234127044677734,0.7592540383338928
1690462923943449196,,37731,,1690462923,943391890,"""world""",,,3.381342649459839,13.235065460205078,0.7669522166252136
1690462923953519054,,37732,,1690462923,953411002,"""world""",,,3.3811089992523193,13.23598861694336,0.7745189666748047
1690462923963521720,,37733,,1690462923,963425814,"""world""",,,3.3808586597442627,13.236865043640137,0.7819337844848633
1690462923973524418,,37734,,1690462923,973428979,"""world""",,,3.380579710006714,13.237812995910645,0.7892968654632568
1690462923983509762,,37735,,1690462923,983433236,"""world""",,,3.380322217941284,13.238659858703613,0.7965002059936523
1690462923993508944,,37736,,1690462923,993454350,"""world""",,,3.3801069259643555,13.239550590515137,0.8036505579948425
1690462924003491073,,37737,,1690462924,3429658,"""world""",,,3.379873275756836,13.240531921386719,0.8106367588043213
1690462924013451015,,37738,,1690462924,13399137,"""world""",,,3.3796377182006836,13.241386413574219,0.8175053000450134
1690462924023450521,,37739,,1690462924,23399521,"""world""",,,3.3793258666992188,13.242215156555176,0.8242918848991394
1690462924033433565,,37740,,1690462924,33388131,"""world""",,,3.3791329860687256,13.243107795715332,0.8309022784233093
1690462924043489265,,37741,,1690462924,43427195,"""world""",,,3.3789901733398438,13.244032859802246,0.8373727798461914
1690462924053476824,,37742,,1690462924,53402422,"""world""",,,3.3788435459136963,13.244803428649902,0.8438008427619934
1690462924063452868,,37743,,1690462924,63390844,"""world""",,,3.378680467605591,13.245600700378418,0.8499829173088074
1690462924073485422,,37744,,1690462924,73393519,"""world""",,,3.3785641193389893,13.246402740478516,0.856192409992218
1690462924083461792,,37745,,1690462924,83395216,"""world""",,,3.378394365310669,13.247241020202637,0.8620586395263672
1690462924093451138,,37746,,1690462924,93394083,"""world""",,,3.378272294998169,13.24811840057373,0.8680839538574219
1690462924103457342,,37747,,1690462924,103397706,"""world""",,,3.37807297706604,13.249037742614746,0.8738471865653992
1690462924113465755,,37748,,1690462924,113397347,"""world""",,,3.3779680728912354,13.249886512756348,0.8794959187507629
1690462924123492609,,37749,,1690462924,123435030,"""world""",,,3.3777666091918945,13.250751495361328,0.885066568851471
1690462924133433725,,37750,,1690462924,133384122,"""world""",,,3.3776769638061523,13.251729011535645,0.8904921412467957
1690462924143444345,,37751,,1690462924,143391412,"""world""",,,3.3775596618652344,13.25260066986084,0.8957483172416687
1690462924153467643,,37752,,1690462924,153406164,"""world""",,,3.377502202987671,13.253544807434082,0.9008999466896057
1690462924163518781,,37753,,1690462924,163425973,"""world""",,,3.377396821975708,13.254425048828125,0.9059554934501648
1690462924173529947,,37754,,1690462924,173415615,"""world""",,,3.3772153854370117,13.255337715148926,0.910843551158905
1690462924183477338,,37755,,1690462924,183409071,"""world""",,,3.3771440982818604,13.256317138671875,0.9155788421630859
1690462924193459464,,37756,,1690462924,193398510,"""world""",,,3.3771421909332275,13.257220268249512,0.9202707409858704
1690462924203462929,,37757,,1690462924,203397767,"""world""",,,3.3770930767059326,13.258008003234863,0.9249138832092285
1690462924213469144,,37758,,1690462924,213399765,"""world""",,,3.3769454956054688,13.25899600982666,0.9292159676551819
1690462924223503381,,37759,,1690462924,223437901,"""world""",,,3.3769195079803467,13.259808540344238,0.9336438775062561
1690462924233462667,,37760,,1690462924,233381822,"""world""",,,3.3769445419311523,13.260795593261719,0.9378497004508972
1690462924243448188,,37761,,1690462924,243388433,"""world""",,,3.37680721282959,13.261731147766113,0.9419102072715759
1690462924253497033,,37762,,1690462924,253407388,"""world""",,,3.376814603805542,13.2626314163208,0.94589763879776
1690462924263456010,,37763,,1690462924,263393411,"""world""",,,3.376802444458008,13.263580322265625,0.9498248100280762
1690462924273501982,,37764,,1690462924,273427728,"""world""",,,3.3767263889312744,13.26458740234375,0.9536119103431702
1690462924283507485,,37765,,1690462924,283430929,"""world""",,,3.3768088817596436,13.265376091003418,0.957314670085907
1690462924293516448,,37766,,1690462924,293424877,"""world""",,,3.376858711242676,13.266318321228027,0.9608724117279053
1690462924303453093,,37767,,1690462924,303399886,"""world""",,,3.376826524734497,13.267242431640625,0.9644877314567566
1690462924313514017,,37768,,1690462924,313428958,"""world""",,,3.3768956661224365,13.26818561553955,0.9678688645362854
1690462924323487264,,37769,,1690462924,323430384,"""world""",,,3.376897096633911,13.269196510314941,0.9710955619812012
1690462924333508431,,37770,,1690462924,333411515,"""world""",,,3.376957893371582,13.27010726928711,0.9743747711181641
1690462924343523660,,37771,,1690462924,343425552,"""world""",,,3.376967668533325,13.270983695983887,0.9774451851844788
1690462924353540409,,37772,,1690462924,353417389,"""world""",,,3.3771774768829346,13.272056579589844,0.9804611206054688
1690462924363492004,,37773,,1690462924,363421635,"""world""",,,3.3771235942840576,13.273030281066895,0.983485221862793
1690462924373491491,,37774,,1690462924,373430645,"""world""",,,3.3772811889648438,13.27387523651123,0.986365556716919
1690462924383500776,,37775,,1690462924,383426502,"""world""",,,3.377309799194336,13.27489185333252,0.9890725612640381
1690462924393452340,,37776,,1690462924,393395290,"""world""",,,3.377441167831421,13.27582836151123,0.9918177127838135
1690462924403456790,,37777,,1690462924,403395427,"""world""",,,3.3775548934936523,13.276694297790527,0.994483232498169
1690462924413460090,,37778,,1690462924,413395315,"""world""",,,3.3776769638061523,13.277640342712402,0.9969642758369446
1690462924423457433,,37779,,1690462924,423397734,"""world""",,,3.377732276916504,13.278541564941406,0.9995924830436707
1690462924433444400,,37780,,1690462924,433389341,"""world""",,,3.3779211044311523,13.279522895812988,1.0018590688705444
1690462924443454430,,37781,,1690462924,443397825,"""world""",,,3.378056764602661,13.28039836883545,1.0041919946670532
1690462924453480315,,37782,,1690462924,453409594,"""world""",,,3.378225564956665,13.2813081741333,1.0064860582351685
1690462924463522070,,37783,,1690462924,463450108,"""world""",,,3.378347396850586,13.282210350036621,1.0085525512695312
1690462924473456063,,37784,,1690462924,473391334,"""world""",,,3.378514289855957,13.283074378967285,1.0107529163360596
1690462924483499375,,37785,,1690462924,483407051,"""world""",,,3.37872052192688,13.283957481384277,1.0126067399978638
1690462924493457101,,37786,,1690462924,493396787,"""world""",,,3.3787319660186768,13.284854888916016,1.0147132873535156
1690462924503471100,,37787,,1690462924,503395012,"""world""",,,3.3789796829223633,13.285770416259766,1.016446590423584
1690462924513483884,,37788,,1690462924,513399133,"""world""",,,3.3792316913604736,13.28664779663086,1.0181159973144531
1690462924523498011,,37789,,1690462924,523409427,"""world""",,,3.3792812824249268,13.287501335144043,1.0198787450790405
1690462924533504800,,37790,,1690462924,533411678,"""world""",,,3.379506826400757,13.288352966308594,1.0214697122573853
1690462924543501464,,37791,,1690462924,543427677,"""world""",,,3.3797099590301514,13.289233207702637,1.0229363441467285
1690462924553459372,,37792,,1690462924,553398009,"""world""",,,3.379901885986328,13.290013313293457,1.0244048833847046
1690462924563444496,,37793,,1690462924,563390658,"""world""",,,3.380018472671509,13.290855407714844,1.0258311033248901
1690462924573494109,,37794,,1690462924,573416929,"""world""",,,3.380261182785034,13.291714668273926,1.0269956588745117
1690462924583482386,,37795,,1690462924,583390166,"""world""",,,3.380443572998047,13.292441368103027,1.0281765460968018
1690462924593450614,,37796,,1690462924,593391828,"""world""",,,3.380620241165161,13.29321002960205,1.0294480323791504
1690462924603450775,,37797,,1690462924,603393965,"""world""",,,3.3807411193847656,13.293936729431152,1.030561089515686
1690462924613488228,,37798,,1690462924,613392994,"""world""",,,3.380892038345337,13.294638633728027,1.0315301418304443
1690462924623457540,,37799,,1690462924,623397260,"""world""",,,3.3810760974884033,13.295342445373535,1.032364010810852
1690462924633423493,,37800,,1690462924,633379721,"""world""",,,3.381246566772461,13.296074867248535,1.0332473516464233
1690462924643494025,,37801,,1690462924,643416739,"""world""",,,3.381394386291504,13.296775817871094,1.0341116189956665
1690462924653465959,,37802,,1690462924,653400730,"""world""",,,3.3816092014312744,13.297467231750488,1.0349516868591309
1690462924663489074,,37803,,1690462924,663442290,"""world""",,,3.38181471824646,13.29813003540039,1.0356385707855225
1690462924673436799,,37804,,1690462924,673380181,"""world""",,,3.38195538520813,13.298794746398926,1.0362862348556519
1690462924683455949,,37805,,1690462924,683397144,"""world""",,,3.382117509841919,13.299461364746094,1.0368640422821045
1690462924693449247,,37806,,1690462924,693394727,"""world""",,,3.3822453022003174,13.300206184387207,1.0374469757080078
1690462924703449722,,37807,,1690462924,703395784,"""world""",,,3.382331609725952,13.300883293151855,1.0379866361618042
1690462924713454331,,37808,,1690462924,713391341,"""world""",,,3.3824708461761475,13.301518440246582,1.038408637046814
1690462924723518569,,37809,,1690462924,723431228,"""world""",,,3.3826141357421875,13.302135467529297,1.0387829542160034
1690462924733453449,,37810,,1690462924,733411673,"""world""",,,3.3827247619628906,13.302760124206543,1.0391322374343872
1690462924743475661,,37811,,1690462924,743420760,"""world""",,,3.382859468460083,13.303390502929688,1.0394821166992188
1690462924753479130,,37812,,1690462924,753405911,"""world""",,,3.382984161376953,13.303974151611328,1.0397392511367798
1690462924763501062,,37813,,1690462924,763444235,"""world""",,,3.383119821548462,13.304561614990234,1.0399842262268066
1690462924773432065,,37814,,1690462924,773385294,"""world""",,,3.3832473754882812,13.305109977722168,1.0401982069015503
1690462924783468227,,37815,,1690462924,783398716,"""world""",,,3.3833510875701904,13.305625915527344,1.0403523445129395
1690462924793494814,,37816,,1690462924,793399733,"""world""",,,3.3834915161132812,13.306114196777344,1.0404434204101562
1690462924803498344,,37817,,1690462924,803399154,"""world""",,,3.383607864379883,13.30657958984375,1.0405222177505493
1690462924813459204,,37818,,1690462924,813397528,"""world""",,,3.3837146759033203,13.30701732635498,1.0405906438827515
1690462924823492159,,37819,,1690462924,823397543,"""world""",,,3.383824110031128,13.307467460632324,1.0406440496444702
1690462924833453048,,37820,,1690462924,833386461,"""world""",,,3.383941650390625,13.307907104492188,1.0406502485275269
1690462924843503380,,37821,,1690462924,843398084,"""world""",,,3.3840525150299072,13.308354377746582,1.0405468940734863
1690462924853539558,,37822,,1690462924,853434645,"""world""",,,3.3841426372528076,13.30875301361084,1.0404911041259766
1690462924863523546,,37823,,1690462924,863393366,"""world""",,,3.3842086791992188,13.309147834777832,1.040451169013977
1690462924873490990,,37824,,1690462924,873391763,"""world""",,,3.3842875957489014,13.309517860412598,1.0403286218643188
1690462924883496343,,37825,,1690462924,883393584,"""world""",,,3.3843557834625244,13.30986499786377,1.0402039289474487
1690462924893461696,,37826,,1690462924,893397646,"""world""",,,3.3844006061553955,13.3101167678833,1.0400772094726562
1690462924903457741,,37827,,1690462924,903397316,"""world""",,,3.384434461593628,13.310404777526855,1.039924144744873
1690462924913456451,,37828,,1690462924,913398160,"""world""",,,3.3844926357269287,13.31067180633545,1.0397615432739258
1690462924923457414,,37829,,1690462924,923397478,"""world""",,,3.384551763534546,13.310897827148438,1.0395909547805786
1690462924933429510,,37830,,1690462924,933380384,"""world""",,,3.3846187591552734,13.311108589172363,1.039401888847351
1690462924943445312,,37831,,1690462924,943390422,"""world""",,,3.3846657276153564,13.311312675476074,1.0391845703125
1690462924953469317,,37832,,1690462924,953402655,"""world""",,,3.3847153186798096,13.311467170715332,1.0389589071273804
1690462924963438137,,37833,,1690462924,963390639,"""world""",,,3.384794235229492,13.311660766601562,1.0386449098587036
1690462924973457748,,37834,,1690462924,973386329,"""world""",,,3.3848326206207275,13.311751365661621,1.038375735282898
1690462924983445637,,37835,,1690462924,983390762,"""world""",,,3.384864091873169,13.31187915802002,1.0381120443344116
1690462924993483951,,37836,,1690462924,993391839,"""world""",,,3.3849451541900635,13.311980247497559,1.0377941131591797
1690462925003457259,,37837,,1690462925,3398225,"""world""",,,3.3849306106567383,13.31201457977295,1.0375620126724243
1690462925013453000,,37838,,1690462925,13394534,"""world""",,,3.3849639892578125,13.312034606933594,1.0372520685195923
1690462925023454361,,37839,,1690462925,23393827,"""world""",,,3.385007858276367,13.312030792236328,1.036948561668396
1690462925033494001,,37840,,1690462925,33414868,"""world""",,,3.3850491046905518,13.31197452545166,1.0366030931472778
1690462925043456954,,37841,,1690462925,43390664,"""world""",,,3.3850157260894775,13.311927795410156,1.0363245010375977
1690462925053513996,,37842,,1690462925,53440958,"""world""",,,3.3850667476654053,13.311833381652832,1.0359628200531006
1690462925063478258,,37843,,1690462925,63424077,"""world""",,,3.3852884769439697,13.31174087524414,1.0354210138320923
1690462925073447003,,37844,,1690462925,73392884,"""world""",,,3.385286331176758,13.311572074890137,1.0350795984268188
1690462925083445235,,37845,,1690462925,83391956,"""world""",,,3.385277032852173,13.311394691467285,1.0347121953964233
1690462925093450749,,37846,,1690462925,93394550,"""world""",,,3.3852787017822266,13.311163902282715,1.0343326330184937
1690462925103452167,,37847,,1690462925,103398536,"""world""",,,3.3852756023406982,13.310906410217285,1.0340396165847778
1690462925113507658,,37848,,1690462925,113406938,"""world""",,,3.385289192199707,13.310629844665527,1.0336518287658691
1690462925123545473,,37849,,1690462925,123410195,"""world""",,,3.385298728942871,13.310359954833984,1.0332213640213013
1690462925133540340,,37850,,1690462925,133484479,"""world""",,,3.3852901458740234,13.310019493103027,1.032854437828064
1690462925143488237,,37851,,1690462925,143392670,"""world""",,,3.38529372215271,13.30964183807373,1.0324360132217407
1690462925153478317,,37852,,1690462925,153416261,"""world""",,,3.3853213787078857,13.309208869934082,1.0320210456848145
1690462925163470292,,37853,,1690462925,163419480,"""world""",,,3.385350465774536,13.308703422546387,1.0316323041915894
1690462925173470579,,37854,,1690462925,173408682,"""world""",,,3.385364532470703,13.308283805847168,1.0312601327896118
1690462925183464624,,37855,,1690462925,183403016,"""world""",,,3.385406494140625,13.307757377624512,1.0308610200881958
