rosbagTimestamp,header,seq,stamp,secs,nsecs,frame_id,pose,position,x,y,z
1690462141523434130,,10614,,1690462141,523389057,"""world""",,,3.3587357997894287,13.208675384521484,-0.02126273140311241
1690462141533433854,,10615,,1690462141,533382570,"""world""",,,3.3587186336517334,13.208656311035156,-0.021257827058434486
1690462141543476029,,10616,,1690462141,543429470,"""world""",,,3.358727216720581,13.208637237548828,-0.021236300468444824
1690462141543482506,,10617,,1690462141,543439846,"""world""",,,3.3587427139282227,13.208659172058105,-0.021242231130599976
1690462141563482835,,10618,,1690462141,563397236,"""world""",,,3.358717203140259,13.208651542663574,-0.021253861486911774
1690462141573490038,,10619,,1690462141,573399775,"""world""",,,3.358736038208008,13.208662986755371,-0.0212447140365839
1690462141573498983,,10620,,1690462141,573410247,"""world""",,,3.3587214946746826,13.208656311035156,-0.021250415593385696
1690462141583501827,,10621,,1690462141,583403229,"""world""",,,3.3587398529052734,13.208724021911621,-0.0213383249938488
1690462141603510775,,10622,,1690462141,603422766,"""world""",,,3.358748197555542,13.208725929260254,-0.021332787349820137
1690462141613456624,,10623,,1690462141,613399080,"""world""",,,3.3587112426757812,13.208747863769531,-0.02132001705467701
1690462141623459309,,10624,,1690462141,623407069,"""world""",,,3.3587582111358643,13.208720207214355,-0.021331312134861946
1690462141633454181,,10625,,1690462141,633412682,"""world""",,,3.358736753463745,13.208659172058105,-0.02125375159084797
1690462141643476144,,10626,,1690462141,643422868,"""world""",,,3.358718156814575,13.208748817443848,-0.021342908963561058
1690462141643481118,,10627,,1690462141,643432641,"""world""",,,3.3587276935577393,13.208656311035156,-0.02124600112438202
1690462141663454920,,10628,,1690462141,663398765,"""world""",,,3.358724355697632,13.208720207214355,-0.021328944712877274
1690462141673455203,,10629,,1690462141,673391344,"""world""",,,3.358745574951172,13.208717346191406,-0.021329885348677635
1690462141673463028,,10630,,1690462141,673401149,"""world""",,,3.3587563037872314,13.208724021911621,-0.021324550732970238
1690462141693491434,,10631,,1690462141,693433370,"""world""",,,3.3587722778320312,13.208739280700684,-0.02133420668542385
1690462141703427417,,10632,,1690462141,703379637,"""world""",,,3.358753204345703,13.208724021911621,-0.02132287248969078
1690462141703434079,,10633,,1690462141,703386977,"""world""",,,3.3587424755096436,13.208724975585938,-0.021337179467082024
1690462141723481231,,10634,,1690462141,723407352,"""world""",,,3.3587217330932617,13.208645820617676,-0.02122809924185276
1690462141733442901,,10635,,1690462141,733380822,"""world""",,,3.3587522506713867,13.2086820602417,-0.021241310983896255
1690462141733449177,,10636,,1690462141,733389125,"""world""",,,3.358727216720581,13.208661079406738,-0.02125212550163269
1690462141753476717,,10637,,1690462141,753407604,"""world""",,,3.358743906021118,13.208728790283203,-0.02133694477379322
1690462141763455750,,10638,,1690462141,763397554,"""world""",,,3.358726739883423,13.208671569824219,-0.021256478503346443
1690462141773532235,,10639,,1690462141,773431071,"""world""",,,3.3587589263916016,13.208733558654785,-0.02133338712155819
1690462141783631974,,10640,,1690462141,783557142,"""world""",,,3.358731508255005,13.208663940429688,-0.021284380927681923
1690462141783642659,,10641,,1690462141,783570081,"""world""",,,3.358736038208008,13.208641052246094,-0.021263346076011658
1690462141793478868,,10642,,1690462141,793422461,"""world""",,,3.358752489089966,13.208706855773926,-0.021341955289244652
1690462141813492008,,10643,,1690462141,813417375,"""world""",,,3.358722686767578,13.208653450012207,-0.02126280404627323
1690462141813500732,,10644,,1690462141,813432060,"""world""",,,3.3587334156036377,13.208648681640625,-0.021260734647512436
1690462141823492799,,10645,,1690462141,823396814,"""world""",,,3.3587653636932373,13.208674430847168,-0.021272998303174973
1690462141843458979,,10646,,1690462141,843391971,"""world""",,,3.358738660812378,13.20865249633789,-0.02127043344080448
1690462141853483330,,10647,,1690462141,853404735,"""world""",,,3.3587265014648438,13.20870590209961,-0.02133292332291603
1690462141863453619,,10648,,1690462141,863395416,"""world""",,,3.3587348461151123,13.208724021911621,-0.021325157955288887
1690462141873515517,,10649,,1690462141,873396918,"""world""",,,3.3586981296539307,13.208704948425293,-0.0212479867041111
1690462141884290879,,10650,,1690462141,883408097,"""world""",,,3.358736753463745,13.208663940429688,-0.02128286100924015
1690462141893503596,,10651,,1690462141,893401867,"""world""",,,3.358752489089966,13.2086763381958,-0.02128606103360653
1690462141893512279,,10652,,1690462141,893415976,"""world""",,,3.3587353229522705,13.208664894104004,-0.02125035598874092
1690462141913520775,,10653,,1690462141,913412316,"""world""",,,3.358731985092163,13.208659172058105,-0.021276678889989853
1690462141923498747,,10654,,1690462141,923396230,"""world""",,,3.3587610721588135,13.208662986755371,-0.02125971019268036
1690462141923502951,,10655,,1690462141,923407812,"""world""",,,3.3587512969970703,13.208645820617676,-0.02128009870648384
1690462141943491514,,10656,,1690462141,943393640,"""world""",,,3.358748197555542,13.208659172058105,-0.021251946687698364
1690462141943497012,,10657,,1690462141,943404350,"""world""",,,3.3586671352386475,13.208694458007812,-0.02124704048037529
1690462141963456180,,10658,,1690462141,963396470,"""world""",,,3.3587405681610107,13.208672523498535,-0.021281130611896515
1690462141973490562,,10659,,1690462141,973427648,"""world""",,,3.358752965927124,13.208745002746582,-0.02135271020233631
1690462141973497425,,10660,,1690462141,973436103,"""world""",,,3.3587512969970703,13.208710670471191,-0.021352041512727737
1690462141983508203,,10661,,1690462141,983432087,"""world""",,,3.358675241470337,13.208706855773926,-0.02123972773551941
1690462142003469302,,10662,,1690462142,3416277,"""world""",,,3.358745574951172,13.208720207214355,-0.02134646661579609
1690462142013492660,,10663,,1690462142,13418229,"""world""",,,3.3587543964385986,13.208739280700684,-0.021358469501137733
1690462142023451207,,10664,,1690462142,23395831,"""world""",,,3.358757734298706,13.208739280700684,-0.021364696323871613
1690462142033427332,,10665,,1690462142,33380059,"""world""",,,3.3587324619293213,13.208648681640625,-0.02125924825668335
1690462142043434931,,10666,,1690462142,43386971,"""world""",,,3.358759880065918,13.20865535736084,-0.021268974989652634
1690462142053453872,,10667,,1690462142,53395207,"""world""",,,3.3586950302124023,13.2086763381958,-0.0212656632065773
1690462142063454621,,10668,,1690462142,63395019,"""world""",,,3.358769178390503,13.208736419677734,-0.02134290523827076
1690462142073446237,,10669,,1690462142,73386864,"""world""",,,3.358751058578491,13.208732604980469,-0.02132464572787285
1690462142073452674,,10670,,1690462142,73395178,"""world""",,,3.3587377071380615,13.208706855773926,-0.02134736254811287
1690462142093512765,,10671,,1690462142,93393819,"""world""",,,3.3587656021118164,13.208746910095215,-0.021374691277742386
1690462142103444916,,10672,,1690462142,103390323,"""world""",,,3.358727216720581,13.208659172058105,-0.021274114027619362
1690462142113535537,,10673,,1690462142,113408965,"""world""",,,3.358762502670288,13.208718299865723,-0.021342014893889427
1690462142123463531,,10674,,1690462142,123398662,"""world""",,,3.3587253093719482,13.208695411682129,-0.02134317345917225
1690462142133437702,,10675,,1690462142,133386191,"""world""",,,3.358745813369751,13.208718299865723,-0.021351827308535576
1690462142143451435,,10676,,1690462142,143393267,"""world""",,,3.358772039413452,13.208687782287598,-0.021285846829414368
1690462142153461995,,10677,,1690462142,153397099,"""world""",,,3.3587276935577393,13.208651542663574,-0.021289631724357605
1690462142153467888,,10678,,1690462142,153409004,"""world""",,,3.358724594116211,13.208645820617676,-0.021273527294397354
1690462142173451028,,10679,,1690462142,173393204,"""world""",,,3.3587405681610107,13.208709716796875,-0.021326174959540367
1690462142183480831,,10680,,1690462142,183403603,"""world""",,,3.358731985092163,13.20871353149414,-0.021342268213629723
1690462142183486913,,10681,,1690462142,183414661,"""world""",,,3.3586995601654053,13.20870304107666,-0.02128462679684162
1690462142203447416,,10682,,1690462142,203388209,"""world""",,,3.3587207794189453,13.20867919921875,-0.021294275298714638
1690462142203455646,,10683,,1690462142,203397551,"""world""",,,3.3587467670440674,13.208714485168457,-0.0213656984269619
1690462142223460911,,10684,,1690462142,223395094,"""world""",,,3.3587162494659424,13.208735466003418,-0.02136111818253994
1690462142233466824,,10685,,1690462142,233382060,"""world""",,,3.358734130859375,13.20871353149414,-0.021344799548387527
1690462142243476958,,10686,,1690462142,243389005,"""world""",,,3.3587381839752197,13.208712577819824,-0.021335234865546227
1690462142253453315,,10687,,1690462142,253393364,"""world""",,,3.3587124347686768,13.208634376525879,-0.02126992866396904
1690462142263443742,,10688,,1690462142,263393017,"""world""",,,3.3587515354156494,13.20866870880127,-0.021278392523527145
1690462142273480147,,10689,,1690462142,273389196,"""world""",,,3.3587028980255127,13.208714485168457,-0.02128731645643711
1690462142283494807,,10690,,1690462142,283403884,"""world""",,,3.3587372303009033,13.208659172058105,-0.021275484934449196
1690462142283500070,,10691,,1690462142,283417278,"""world""",,,3.358739137649536,13.208728790283203,-0.02132766880095005
1690462142303469772,,10692,,1690462142,303385386,"""world""",,,3.3586931228637695,13.208691596984863,-0.021252186968922615
1690462142313514176,,10693,,1690462142,313430310,"""world""",,,3.3587512969970703,13.20872974395752,-0.021365121006965637
1690462142323463234,,10694,,1690462142,323395928,"""world""",,,3.3587558269500732,13.208754539489746,-0.021343881264328957
1690462142333463586,,10695,,1690462142,333414985,"""world""",,,3.358764886856079,13.208697319030762,-0.021280087530612946
1690462142343446186,,10696,,1690462142,343392809,"""world""",,,3.3587090969085693,13.208763122558594,-0.02133236639201641
1690462142353465696,,10697,,1690462142,353403051,"""world""",,,3.3587701320648193,13.208683967590332,-0.021252144128084183
1690462142353468690,,10698,,1690462142,353414028,"""world""",,,3.3587396144866943,13.208660125732422,-0.02125249244272709
1690462142373501231,,10699,,1690462142,373435552,"""world""",,,3.358760118484497,13.20873737335205,-0.021333886310458183
1690462142383493984,,10700,,1690462142,383422383,"""world""",,,3.358772039413452,13.20873737335205,-0.021357141435146332
1690462142393444022,,10701,,1690462142,393391306,"""world""",,,3.358792304992676,13.208760261535645,-0.021336955949664116
1690462142403429551,,10702,,1690462142,403383975,"""world""",,,3.3587563037872314,13.208725929260254,-0.021333958953619003
1690462142413473219,,10703,,1690462142,413401966,"""world""",,,3.35874080657959,13.208666801452637,-0.021267825737595558
1690462142423551309,,10704,,1690462142,423428603,"""world""",,,3.358754873275757,13.20875072479248,-0.02132376655936241
1690462142433461060,,10705,,1690462142,433392024,"""world""",,,3.3587934970855713,13.208760261535645,-0.02133079431951046
1690462142433469511,,10706,,1690462142,433401702,"""world""",,,3.3587777614593506,13.208735466003418,-0.021325765177607536
1690462142453468838,,10707,,1690462142,453402095,"""world""",,,3.358785629272461,13.20874309539795,-0.021340947598218918
1690462142463456707,,10708,,1690462142,463398121,"""world""",,,3.358746290206909,13.208721160888672,-0.021338315680623055
1690462142473485415,,10709,,1690462142,473395959,"""world""",,,3.3587534427642822,13.208709716796875,-0.021341608837246895
1690462142483494243,,10710,,1690462142,483416262,"""world""",,,3.3587417602539062,13.208724975585938,-0.021324491128325462
1690462142493474212,,10711,,1690462142,493386999,"""world""",,,3.3587493896484375,13.208724975585938,-0.021329933777451515
1690462142503461274,,10712,,1690462142,503380954,"""world""",,,3.358747720718384,13.208708763122559,-0.021313903853297234
1690462142513466100,,10713,,1690462142,513400858,"""world""",,,3.3587770462036133,13.208724975585938,-0.021358627825975418
1690462142523458649,,10714,,1690462142,523394759,"""world""",,,3.3587303161621094,13.208697319030762,-0.02137516625225544
1690462142533466050,,10715,,1690462142,533413135,"""world""",,,3.358706474304199,13.208695411682129,-0.021240338683128357
1690462142543508309,,10716,,1690462142,543422230,"""world""",,,3.3587448596954346,13.208732604980469,-0.021331066265702248
1690462142553496726,,10717,,1690462142,553427129,"""world""",,,3.358764886856079,13.208718299865723,-0.021335674449801445
1690462142553499891,,10718,,1690462142,553439853,"""world""",,,3.3587491512298584,13.20871639251709,-0.02132311649620533
1690462142573493814,,10719,,1690462142,573395275,"""world""",,,3.3586971759796143,13.208686828613281,-0.02124200202524662
1690462142583468022,,10720,,1690462142,583399717,"""world""",,,3.3587608337402344,13.208720207214355,-0.021339820697903633
1690462142593504320,,10721,,1690462142,593388362,"""world""",,,3.358781099319458,13.208732604980469,-0.02134058065712452
1690462142603495217,,10722,,1690462142,603382412,"""world""",,,3.35874342918396,13.208735466003418,-0.021311195567250252
1690462142613458560,,10723,,1690462142,613400057,"""world""",,,3.3587417602539062,13.208722114562988,-0.02132357843220234
1690462142623505737,,10724,,1690462142,623400520,"""world""",,,3.358705520629883,13.208760261535645,-0.02131076529622078
1690462142633475605,,10725,,1690462142,633385688,"""world""",,,3.358734130859375,13.20873737335205,-0.021285777911543846
1690462142633479886,,10726,,1690462142,633393622,"""world""",,,3.358701467514038,13.208721160888672,-0.02127363532781601
1690462142653472624,,10727,,1690462142,653403532,"""world""",,,3.358739137649536,13.2086820602417,-0.02127012051641941
1690462142663451673,,10728,,1690462142,663397457,"""world""",,,3.3586971759796143,13.208755493164062,-0.021302392706274986
1690462142673454390,,10729,,1690462142,673395789,"""world""",,,3.358752489089966,13.20872974395752,-0.0213211290538311
1690462142683497701,,10730,,1690462142,683403648,"""world""",,,3.3587570190429688,13.208690643310547,-0.021270986646413803
1690462142693444319,,10731,,1690462142,693388362,"""world""",,,3.3587615489959717,13.208746910095215,-0.02136196568608284
1690462142703434843,,10732,,1690462142,703380572,"""world""",,,3.358736753463745,13.208675384521484,-0.02126280404627323
1690462142703441226,,10733,,1690462142,703387948,"""world""",,,3.3587684631347656,13.208717346191406,-0.021348902955651283
1690462142723468948,,10734,,1690462142,723399536,"""world""",,,3.3587605953216553,13.208740234375,-0.02135796844959259
1690462142723476184,,10735,,1690462142,723411858,"""world""",,,3.358750581741333,13.20866870880127,-0.021260835230350494
1690462142743443599,,10736,,1690462142,743390376,"""world""",,,3.358720541000366,13.208651542663574,-0.021247845143079758
1690462142753458623,,10737,,1690462142,753395861,"""world""",,,3.3587334156036377,13.208666801452637,-0.02127012237906456
1690462142753462078,,10738,,1690462142,753406732,"""world""",,,3.3586978912353516,13.208779335021973,-0.021342534571886063
1690462142773491058,,10739,,1690462142,773392345,"""world""",,,3.35867977142334,13.208695411682129,-0.021252751350402832
1690462142783465304,,10740,,1690462142,783401439,"""world""",,,3.358692169189453,13.208704948425293,-0.021252568811178207
1690462142783470406,,10741,,1690462142,783412479,"""world""",,,3.3587377071380615,13.208663940429688,-0.021261561661958694
1690462142793455700,,10742,,1690462142,793393635,"""world""",,,3.3587491512298584,13.208701133728027,-0.02124175801873207
1690462142813482882,,10743,,1690462142,813420164,"""world""",,,3.358754873275757,13.208724021911621,-0.02135527692735195
1690462142823527850,,10744,,1690462142,823427283,"""world""",,,3.358752489089966,13.208724975585938,-0.02134767360985279
1690462142833511090,,10745,,1690462142,833414165,"""world""",,,3.3587372303009033,13.208686828613281,-0.02129558101296425
1690462142843515452,,10746,,1690462142,843421117,"""world""",,,3.3587141036987305,13.208647727966309,-0.021237818524241447
1690462142853510653,,10747,,1690462142,853406269,"""world""",,,3.3586931228637695,13.208702087402344,-0.021255003288388252
1690462142863507470,,10748,,1690462142,863427016,"""world""",,,3.358752489089966,13.208722114562988,-0.02133372612297535
1690462142873484258,,10749,,1690462142,873423500,"""world""",,,3.358732223510742,13.20867919921875,-0.021280944347381592
1690462142883487213,,10750,,1690462142,883419233,"""world""",,,3.3587491512298584,13.208686828613281,-0.021296638995409012
1690462142893438176,,10751,,1690462142,893388033,"""world""",,,3.358722448348999,13.208661079406738,-0.02128537744283676
1690462142903468508,,10752,,1690462142,903380529,"""world""",,,3.3587334156036377,13.208648681640625,-0.02126312628388405
1690462142913469290,,10753,,1690462142,913403131,"""world""",,,3.3587512969970703,13.208660125732422,-0.021249162033200264
1690462142923530877,,10754,,1690462142,923398572,"""world""",,,3.3587429523468018,13.208718299865723,-0.021317215636372566
1690462142933497308,,10755,,1690462142,933387936,"""world""",,,3.358696937561035,13.208744049072266,-0.02132679894566536
1690462142943493242,,10756,,1690462142,943396244,"""world""",,,3.3587563037872314,13.208724021911621,-0.021352404728531837
1690462142953504686,,10757,,1690462142,953398925,"""world""",,,3.3587372303009033,13.208657264709473,-0.02127930521965027
1690462142963456262,,10758,,1690462142,963395087,"""world""",,,3.3587334156036377,13.208662986755371,-0.021276162937283516
1690462142973486845,,10759,,1690462142,973391827,"""world""",,,3.358718156814575,13.208656311035156,-0.021238796412944794
1690462142983487993,,10760,,1690462142,983408093,"""world""",,,3.358748197555542,13.208712577819824,-0.021339599043130875
1690462142993489785,,10761,,1690462142,993390405,"""world""",,,3.3587067127227783,13.20875072479248,-0.021343957632780075
1690462143003429599,,10762,,1690462143,3382117,"""world""",,,3.3587114810943604,13.208678245544434,-0.0213082917034626
1690462143013498486,,10763,,1690462143,13401091,"""world""",,,3.358689308166504,13.208763122558594,-0.021347176283597946
1690462143023474918,,10764,,1690462143,23400638,"""world""",,,3.358748197555542,13.208735466003418,-0.02133891172707081
1690462143023483566,,10765,,1690462143,23425575,"""world""",,,3.358717203140259,13.208687782287598,-0.021397333592176437
1690462143043448095,,10766,,1690462143,43395174,"""world""",,,3.3587207794189453,13.208725929260254,-0.021323781460523605
1690462143053465057,,10767,,1690462143,53398788,"""world""",,,3.358706474304199,13.208664894104004,-0.02120812237262726
1690462143053476013,,10768,,1690462143,53409846,"""world""",,,3.3587253093719482,13.208662986755371,-0.021255161613225937
1690462143073488939,,10769,,1690462143,73394572,"""world""",,,3.358734130859375,13.20867919921875,-0.02127261459827423
1690462143083505009,,10770,,1690462143,83401047,"""world""",,,3.358750581741333,13.208747863769531,-0.021375026553869247
1690462143093518929,,10771,,1690462143,93386155,"""world""",,,3.358731269836426,13.208690643310547,-0.02142483927309513
1690462143103467958,,10772,,1690462143,103387672,"""world""",,,3.3587124347686768,13.208638191223145,-0.021251404657959938
1690462143113467901,,10773,,1690462143,113400487,"""world""",,,3.3587353229522705,13.208720207214355,-0.021336248144507408
1690462143123505229,,10774,,1690462143,123402568,"""world""",,,3.358724594116211,13.208664894104004,-0.02126597985625267
1690462143133443009,,10775,,1690462143,133389473,"""world""",,,3.358741044998169,13.208672523498535,-0.02127704955637455
1690462143143468546,,10776,,1690462143,143395783,"""world""",,,3.3587310314178467,13.208678245544434,-0.021271033212542534
1690462143143477383,,10777,,1690462143,143406922,"""world""",,,3.3587543964385986,13.20872974395752,-0.021353721618652344
1690462143163451619,,10778,,1690462143,163395663,"""world""",,,3.3587334156036377,13.208660125732422,-0.021225903183221817
1690462143173452324,,10779,,1690462143,173392173,"""world""",,,3.358718156814575,13.208659172058105,-0.021244416013360023
1690462143183488443,,10780,,1690462143,183413916,"""world""",,,3.3587334156036377,13.208720207214355,-0.021332504227757454
1690462143193444015,,10781,,1690462143,193389282,"""world""",,,3.358734130859375,13.20873737335205,-0.021333204582333565
1690462143203433445,,10782,,1690462143,203382545,"""world""",,,3.358708143234253,13.20877456665039,-0.021362558007240295
1690462143203438212,,10783,,1690462143,203390046,"""world""",,,3.3587493896484375,13.208718299865723,-0.021345214918255806
1690462143223466892,,10784,,1690462143,223394995,"""world""",,,3.358717679977417,13.208645820617676,-0.021253421902656555
1690462143233476998,,10785,,1690462143,233386397,"""world""",,,3.3587257862091064,13.208709716796875,-0.021327288821339607
1690462143243466567,,10786,,1690462143,243394769,"""world""",,,3.3587405681610107,13.208645820617676,-0.021259495988488197
1690462143253489816,,10787,,1690462143,253396180,"""world""",,,3.358715295791626,13.208744049072266,-0.021340589970350266
1690462143263487733,,10788,,1690462143,263396874,"""world""",,,3.358682632446289,13.20870590209961,-0.02125805988907814
1690462143273520149,,10789,,1690462143,273392419,"""world""",,,3.358701705932617,13.208767890930176,-0.021341243758797646
1690462143283489938,,10790,,1690462143,283407910,"""world""",,,3.3587646484375,13.208725929260254,-0.021366849541664124
1690462143293474761,,10791,,1690462143,293389215,"""world""",,,3.358672857284546,13.208693504333496,-0.02123597264289856
1690462143303460897,,10792,,1690462143,303379759,"""world""",,,3.3587357997894287,13.208698272705078,-0.021336747333407402
1690462143313492059,,10793,,1690462143,313398512,"""world""",,,3.3587465286254883,13.208641052246094,-0.021271871402859688
1690462143323493295,,10794,,1690462143,323397794,"""world""",,,3.3587329387664795,13.20866870880127,-0.021287914365530014
1690462143333473034,,10795,,1690462143,333388677,"""world""",,,3.3586881160736084,13.208695411682129,-0.021262578666210175
1690462143343531870,,10796,,1690462143,343391756,"""world""",,,3.358731985092163,13.208687782287598,-0.021285811439156532
1690462143353451201,,10797,,1690462143,353395550,"""world""",,,3.3587353229522705,13.208694458007812,-0.021346045657992363
1690462143363457282,,10798,,1690462143,363397069,"""world""",,,3.358748197555542,13.208699226379395,-0.021343505010008812
1690462143373467634,,10799,,1690462143,373391010,"""world""",,,3.3587141036987305,13.208636283874512,-0.021220935508608818
1690462143383494716,,10800,,1690462143,383415398,"""world""",,,3.3587357997894287,13.208651542663574,-0.0212688148021698
1690462143383502648,,10801,,1690462143,383434072,"""world""",,,3.3587310314178467,13.208662986755371,-0.02127474546432495
1690462143403486589,,10802,,1690462143,403388755,"""world""",,,3.3587357997894287,13.20867919921875,-0.021284203976392746
1690462143403493362,,10803,,1690462143,403399336,"""world""",,,3.3586947917938232,13.208694458007812,-0.021254144608974457
1690462143423475361,,10804,,1690462143,423403886,"""world""",,,3.3586947917938232,13.208674430847168,-0.02125181257724762
1690462143433450524,,10805,,1690462143,433394527,"""world""",,,3.3587329387664795,13.208653450012207,-0.021258722990751266
1690462143443463100,,10806,,1690462143,443401753,"""world""",,,3.3587005138397217,13.208702087402344,-0.021290646865963936
1690462143453462792,,10807,,1690462143,453401137,"""world""",,,3.358700752258301,13.20871353149414,-0.02128133550286293
1690462143453466419,,10808,,1690462143,453412578,"""world""",,,3.358759880065918,13.208744049072266,-0.02136017009615898
1690462143473458870,,10809,,1690462143,473393999,"""world""",,,3.35874342918396,13.208661079406738,-0.021260473877191544
1690462143483466026,,10810,,1690462143,483397703,"""world""",,,3.358774423599243,13.208694458007812,-0.021270709112286568
1690462143493452091,,10811,,1690462143,493397777,"""world""",,,3.3587493896484375,13.208657264709473,-0.021275963634252548
1690462143503426392,,10812,,1690462143,503381759,"""world""",,,3.358741044998169,13.208672523498535,-0.02126413770020008
1690462143513457061,,10813,,1690462143,513399905,"""world""",,,3.3587398529052734,13.208666801452637,-0.021259846165776253
1690462143523467508,,10814,,1690462143,523405591,"""world""",,,3.3587710857391357,13.208683967590332,-0.021287880837917328
1690462143533429242,,10815,,1690462143,533385641,"""world""",,,3.358705759048462,13.208756446838379,-0.02133483812212944
1690462143543453027,,10816,,1690462143,543391031,"""world""",,,3.3587467670440674,13.208656311035156,-0.02126927301287651
1690462143543459316,,10817,,1690462143,543402176,"""world""",,,3.3587207794189453,13.208651542663574,-0.021215682849287987
1690462143563530530,,10818,,1690462143,563398089,"""world""",,,3.358750581741333,13.208660125732422,-0.021246032789349556
1690462143573462084,,10819,,1690462143,573392466,"""world""",,,3.3587448596954346,13.20864486694336,-0.021274730563163757
1690462143573471244,,10820,,1690462143,573402279,"""world""",,,3.3587453365325928,13.208683013916016,-0.0212709940969944
1690462143593452033,,10821,,1690462143,593395895,"""world""",,,3.3587093353271484,13.208693504333496,-0.021256456151604652
1690462143603426503,,10822,,1690462143,603381057,"""world""",,,3.3587329387664795,13.208657264709473,-0.021245980635285378
1690462143613485084,,10823,,1690462143,613396889,"""world""",,,3.3587567806243896,13.208712577819824,-0.021344712004065514
1690462143623498036,,10824,,1690462143,623403455,"""world""",,,3.3587350845336914,13.20864200592041,-0.02124844864010811
1690462143633458533,,10825,,1690462143,633384368,"""world""",,,3.3587143421173096,13.20862865447998,-0.02127065882086754
1690462143643467560,,10826,,1690462143,643386893,"""world""",,,3.3586885929107666,13.20877456665039,-0.021330034360289574
1690462143653476991,,10827,,1690462143,653394536,"""world""",,,3.3586771488189697,13.2086820602417,-0.021302953362464905
1690462143663446604,,10828,,1690462143,663393256,"""world""",,,3.358741521835327,13.208724975585938,-0.021359317004680634
1690462143673441576,,10829,,1690462143,673386947,"""world""",,,3.3587706089019775,13.208731651306152,-0.021370334550738335
1690462143683480854,,10830,,1690462143,683408030,"""world""",,,3.3587491512298584,13.208704948425293,-0.021381868049502373
1690462143693437303,,10831,,1690462143,693387138,"""world""",,,3.3587303161621094,13.208641052246094,-0.021277928724884987
1690462143703451574,,10832,,1690462143,703379247,"""world""",,,3.35868239402771,13.208770751953125,-0.021361488848924637
1690462143713473551,,10833,,1690462143,713400569,"""world""",,,3.358743906021118,13.208660125732422,-0.021289028227329254
1690462143723474410,,10834,,1690462143,723399931,"""world""",,,3.35872483253479,13.208647727966309,-0.021258952096104622
1690462143733465533,,10835,,1690462143,733384229,"""world""",,,3.358706474304199,13.208640098571777,-0.02126798965036869
1690462143743473584,,10836,,1690462143,743387799,"""world""",,,3.358729362487793,13.20865535736084,-0.02125803381204605
1690462143753450078,,10837,,1690462143,753396718,"""world""",,,3.3587446212768555,13.208724975585938,-0.021347135305404663
1690462143763483705,,10838,,1690462143,763395924,"""world""",,,3.358720541000366,13.20865535736084,-0.021293921396136284
1690462143773481907,,10839,,1690462143,773387549,"""world""",,,3.3587169647216797,13.208674430847168,-0.021260792389512062
1690462143783488551,,10840,,1690462143,783398860,"""world""",,,3.3587095737457275,13.208717346191406,-0.021334728226065636
1690462143793478127,,10841,,1690462143,793425723,"""world""",,,3.3587121963500977,13.208788871765137,-0.021306561306118965
1690462143803428323,,10842,,1690462143,803379211,"""world""",,,3.3586490154266357,13.208720207214355,-0.021282702684402466
1690462143803432233,,10843,,1690462143,803385760,"""world""",,,3.3586857318878174,13.208725929260254,-0.021327348425984383
1690462143823503187,,10844,,1690462143,823422126,"""world""",,,3.3587074279785156,13.208714485168457,-0.021241724491119385
1690462143833437874,,10845,,1690462143,833385294,"""world""",,,3.3586432933807373,13.208809852600098,-0.02137015387415886
1690462143843441031,,10846,,1690462143,843390310,"""world""",,,3.358612060546875,13.208807945251465,-0.0212648194283247
1690462143853451415,,10847,,1690462143,853394458,"""world""",,,3.3586208820343018,13.208858489990234,-0.02137344516813755
1690462143863452675,,10848,,1690462143,863397540,"""world""",,,3.358696937561035,13.208888053894043,-0.021368253976106644
1690462143873527391,,10849,,1690462143,873423187,"""world""",,,3.358657121658325,13.208821296691895,-0.02136991359293461
1690462143883495413,,10850,,1690462143,883420145,"""world""",,,3.358625650405884,13.208885192871094,-0.021337702870368958
1690462143893561042,,10851,,1690462143,893424362,"""world""",,,3.3585875034332275,13.208901405334473,-0.021350190043449402
1690462143903471066,,10852,,1690462143,903411139,"""world""",,,3.3586337566375732,13.208939552307129,-0.021356509998440742
1690462143903476446,,10853,,1690462143,903427076,"""world""",,,3.358654260635376,13.208962440490723,-0.02136220782995224
1690462143923483552,,10854,,1690462143,923410585,"""world""",,,3.3586084842681885,13.209049224853516,-0.021366190165281296
1690462143933466583,,10855,,1690462143,933412863,"""world""",,,3.3585193157196045,13.209071159362793,-0.021344272419810295
1690462143943470167,,10856,,1690462143,943420984,"""world""",,,3.3585731983184814,13.208965301513672,-0.02141362614929676
1690462143953478895,,10857,,1690462143,953427040,"""world""",,,3.3585479259490967,13.208983421325684,-0.02135852910578251
1690462143963481718,,10858,,1690462143,963427818,"""world""",,,3.358502149581909,13.208918571472168,-0.02135315164923668
1690462143973488387,,10859,,1690462143,973401673,"""world""",,,3.358520746231079,13.20887279510498,-0.021354787051677704
1690462143983486344,,10860,,1690462143,983425596,"""world""",,,3.3585402965545654,13.208876609802246,-0.021332481876015663
1690462143993460371,,10861,,1690462143,993401560,"""world""",,,3.3585386276245117,13.208831787109375,-0.021376721560955048
1690462144003472494,,10862,,1690462144,3415463,"""world""",,,3.358555555343628,13.208805084228516,-0.021349679678678513
1690462144003479451,,10863,,1690462144,3424344,"""world""",,,3.358548402786255,13.208809852600098,-0.02132573351264
1690462144023481820,,10864,,1690462144,23417522,"""world""",,,3.3585526943206787,13.208756446838379,-0.02128475159406662
1690462144033471069,,10865,,1690462144,33415654,"""world""",,,3.3584842681884766,13.2088041305542,-0.02132452465593815
1690462144033474815,,10866,,1690462144,33424704,"""world""",,,3.358449697494507,13.208830833435059,-0.02135326899588108
1690462144053498909,,10867,,1690462144,53431842,"""world""",,,3.3584377765655518,13.208819389343262,-0.021305985748767853
1690462144063560707,,10868,,1690462144,63428838,"""world""",,,3.3583858013153076,13.208809852600098,-0.02131083980202675
1690462144073553094,,10869,,1690462144,73428041,"""world""",,,3.3584372997283936,13.208778381347656,-0.021323349326848984
1690462144083490074,,10870,,1690462144,83415815,"""world""",,,3.3583755493164062,13.208740234375,-0.021353671327233315
1690462144093497985,,10871,,1690462144,93425448,"""world""",,,3.3584177494049072,13.208727836608887,-0.021298116073012352
1690462144093505894,,10872,,1690462144,93437321,"""world""",,,3.3584375381469727,13.208747863769531,-0.021296849474310875
1690462144113491128,,10873,,1690462144,113433956,"""world""",,,3.3584396839141846,13.208808898925781,-0.021315205842256546
1690462144123475938,,10874,,1690462144,123410541,"""world""",,,3.358483076095581,13.208722114562988,-0.02122008427977562
1690462144123483569,,10875,,1690462144,123434414,"""world""",,,3.3584859371185303,13.208667755126953,-0.02118578739464283
1690462144143530755,,10876,,1690462144,143426207,"""world""",,,3.358546495437622,13.208614349365234,-0.021110761910676956
1690462144153465782,,10877,,1690462144,153401503,"""world""",,,3.3585872650146484,13.208537101745605,-0.021071946248412132
1690462144153473175,,10878,,1690462144,153413322,"""world""",,,3.3586864471435547,13.20837688446045,-0.020708231255412102
1690462144173503202,,10879,,1690462144,173409676,"""world""",,,3.3587305545806885,13.208198547363281,-0.020456960424780846
1690462144183456567,,10880,,1690462144,183397666,"""world""",,,3.358869791030884,13.20806884765625,-0.020157022401690483
1690462144193452477,,10881,,1690462144,193397195,"""world""",,,3.3589770793914795,13.207866668701172,-0.019769463688135147
1690462144203473178,,10882,,1690462144,203413226,"""world""",,,3.359104871749878,13.207633972167969,-0.019307129085063934
1690462144213462775,,10883,,1690462144,213401284,"""world""",,,3.359278917312622,13.207565307617188,-0.01858462765812874
1690462144223485928,,10884,,1690462144,223405917,"""world""",,,3.3593883514404297,13.207430839538574,-0.017858585342764854
1690462144223489452,,10885,,1690462144,223422984,"""world""",,,3.3594582080841064,13.20699691772461,-0.016913969069719315
1690462144243471293,,10886,,1690462144,243395134,"""world""",,,3.359703779220581,13.206887245178223,-0.015796739608049393
1690462144253464567,,10887,,1690462144,253395780,"""world""",,,3.3601016998291016,13.206746101379395,-0.014648426324129105
1690462144253467662,,10888,,1690462144,253408890,"""world""",,,3.3602044582366943,13.206536293029785,-0.01314021646976471
1690462144273505115,,10889,,1690462144,273402798,"""world""",,,3.360354423522949,13.206406593322754,-0.011481678113341331
1690462144283465984,,10890,,1690462144,283401519,"""world""",,,3.3606631755828857,13.206146240234375,-0.009761960245668888
1690462144293444289,,10891,,1690462144,293390329,"""world""",,,3.36102032661438,13.205814361572266,-0.007825315929949284
1690462144303433371,,10892,,1690462144,303381302,"""world""",,,3.361217737197876,13.20556926727295,-0.0056407940573990345
1690462144313466688,,10893,,1690462144,313406191,"""world""",,,3.361530303955078,13.205132484436035,-0.003202255582436919
1690462144323463663,,10894,,1690462144,323400249,"""world""",,,3.3618335723876953,13.2047758102417,-0.000624217966105789
1690462144333438821,,10895,,1690462144,333386465,"""world""",,,3.3622798919677734,13.204487800598145,0.002236704109236598
1690462144343457817,,10896,,1690462144,343391848,"""world""",,,3.362694025039673,13.204007148742676,0.0054124100133776665
1690462144343465608,,10897,,1690462144,343405019,"""world""",,,3.3631808757781982,13.20366096496582,0.00905563309788704
1690462144363459661,,10898,,1690462144,363397913,"""world""",,,3.363720178604126,13.203102111816406,0.012716459110379219
1690462144373484690,,10899,,1690462144,373397922,"""world""",,,3.3641936779022217,13.202719688415527,0.017003072425723076
1690462144383475437,,10900,,1690462144,383412887,"""world""",,,3.364626407623291,13.202302932739258,0.021425439044833183
1690462144393491268,,10901,,1690462144,393398073,"""world""",,,3.365072250366211,13.201741218566895,0.026114463806152344
1690462144403433527,,10902,,1690462144,403380320,"""world""",,,3.3657617568969727,13.201024055480957,0.030932070687413216
1690462144413552737,,10903,,1690462144,413435273,"""world""",,,3.3662612438201904,13.200530052185059,0.036266669631004333
1690462144423478395,,10904,,1690462144,423404832,"""world""",,,3.3669068813323975,13.199913024902344,0.04186655953526497
1690462144433461652,,10905,,1690462144,433396586,"""world""",,,3.3675413131713867,13.199405670166016,0.04763982072472572
1690462144433465748,,10906,,1690462144,433408441,"""world""",,,3.3681325912475586,13.198684692382812,0.053672634065151215
1690462144453493570,,10907,,1690462144,453407932,"""world""",,,3.3688995838165283,13.19791030883789,0.05989891290664673
1690462144463462355,,10908,,1690462144,463397444,"""world""",,,3.369497060775757,13.197184562683105,0.06630586087703705
1690462144473467459,,10909,,1690462144,473400671,"""world""",,,3.3701000213623047,13.196511268615723,0.07292640209197998
1690462144483460999,,10910,,1690462144,483395224,"""world""",,,3.370771646499634,13.195857048034668,0.07976692169904709
1690462144493488497,,10911,,1690462144,493400153,"""world""",,,3.3713293075561523,13.195293426513672,0.08687686175107956
1690462144503431158,,10912,,1690462144,503383801,"""world""",,,3.3720626831054688,13.19461441040039,0.09395212680101395
1690462144513504292,,10913,,1690462144,513405403,"""world""",,,3.37262225151062,13.193950653076172,0.10123506188392639
1690462144523465969,,10914,,1690462144,523400681,"""world""",,,3.3731796741485596,13.193329811096191,0.10878437757492065
1690462144533449435,,10915,,1690462144,533392221,"""world""",,,3.373790979385376,13.19286823272705,0.11634548753499985
1690462144543526680,,10916,,1690462144,543427762,"""world""",,,3.374307632446289,13.192278861999512,0.1243070736527443
1690462144553475206,,10917,,1690462144,553401073,"""world""",,,3.3747146129608154,13.191840171813965,0.132205069065094
1690462144553478600,,10918,,1690462144,553422319,"""world""",,,3.375337600708008,13.191277503967285,0.13997578620910645
1690462144573502853,,10919,,1690462144,573402626,"""world""",,,3.375769853591919,13.190735816955566,0.14822666347026825
1690462144583514482,,10920,,1690462144,583398720,"""world""",,,3.3761985301971436,13.190200805664062,0.15661153197288513
1690462144593471647,,10921,,1690462144,593407493,"""world""",,,3.3766415119171143,13.189753532409668,0.16482891142368317
1690462144603434049,,10922,,1690462144,603385716,"""world""",,,3.3770017623901367,13.18938159942627,0.17330820858478546
1690462144613472605,,10923,,1690462144,613407770,"""world""",,,3.3773772716522217,13.188849449157715,0.18192483484745026
1690462144623513511,,10924,,1690462144,623411772,"""world""",,,3.377697706222534,13.188514709472656,0.19049666821956635
1690462144633490403,,10925,,1690462144,633403633,"""world""",,,3.3781116008758545,13.188041687011719,0.19931988418102264
1690462144643455887,,10926,,1690462144,643390432,"""world""",,,3.378398895263672,13.18768310546875,0.20805959403514862
1690462144643460034,,10927,,1690462144,643402939,"""world""",,,3.3787076473236084,13.187328338623047,0.21688556671142578
1690462144663462097,,10928,,1690462144,663398497,"""world""",,,3.3789422512054443,13.18690013885498,0.22597241401672363
1690462144673466236,,10929,,1690462144,673385736,"""world""",,,3.3791606426239014,13.186534881591797,0.23489658534526825
1690462144673470486,,10930,,1690462144,673395498,"""world""",,,3.379349946975708,13.18622875213623,0.24418067932128906
1690462144693457200,,10931,,1690462144,693397226,"""world""",,,3.3795032501220703,13.185989379882812,0.2532278895378113
1690462144703455302,,10932,,1690462144,703382015,"""world""",,,3.3796510696411133,13.185700416564941,0.26259845495224
1690462144713455397,,10933,,1690462144,713397415,"""world""",,,3.3796565532684326,13.1854829788208,0.2719614505767822
1690462144723460427,,10934,,1690462144,723397895,"""world""",,,3.3798511028289795,13.185185432434082,0.2812918722629547
1690462144733434479,,10935,,1690462144,733383603,"""world""",,,3.3798348903656006,13.185027122497559,0.29080450534820557
1690462144743445746,,10936,,1690462144,743390109,"""world""",,,3.3799638748168945,13.184799194335938,0.3003256916999817
1690462144753453634,,10937,,1690462144,753396190,"""world""",,,3.3799619674682617,13.184666633605957,0.3098851144313812
1690462144763498991,,10938,,1690462144,763397284,"""world""",,,3.379972457885742,13.18441104888916,0.31947290897369385
1690462144773443964,,10939,,1690462144,773387981,"""world""",,,3.3800556659698486,13.184173583984375,0.32912978529930115
1690462144783466278,,10940,,1690462144,783399928,"""world""",,,3.3800747394561768,13.18414306640625,0.3388356864452362
1690462144793442299,,10941,,1690462144,793390558,"""world""",,,3.380143165588379,13.183873176574707,0.348454087972641
1690462144803427161,,10942,,1690462144,803381800,"""world""",,,3.3800888061523438,13.183666229248047,0.35837307572364807
1690462144813455093,,10943,,1690462144,813399337,"""world""",,,3.3800933361053467,13.183547019958496,0.36815008521080017
1690462144823462273,,10944,,1690462144,823399577,"""world""",,,3.3800199031829834,13.183292388916016,0.3780248165130615
1690462144833428419,,10945,,1690462144,833384699,"""world""",,,3.3800048828125,13.183087348937988,0.3879646062850952
1690462144843479705,,10946,,1690462144,843391674,"""world""",,,3.3800013065338135,13.182917594909668,0.39781656861305237
1690462144853453676,,10947,,1690462144,853397315,"""world""",,,3.379932403564453,13.182889938354492,0.4076306223869324
1690462144863449736,,10948,,1690462144,863395676,"""world""",,,3.3800065517425537,13.182652473449707,0.4175466001033783
1690462144873438810,,10949,,1690462144,873389270,"""world""",,,3.3798625469207764,13.182530403137207,0.4274960458278656
1690462144883507135,,10950,,1690462144,883414919,"""world""",,,3.379772424697876,13.182312965393066,0.43748652935028076
1690462144893462742,,10951,,1690462144,893391592,"""world""",,,3.3797237873077393,13.182194709777832,0.44729089736938477
1690462144893468977,,10952,,1690462144,893401752,"""world""",,,3.37976336479187,13.1820068359375,0.45726871490478516
1690462144913502588,,10953,,1690462144,913399855,"""world""",,,3.3795840740203857,13.181902885437012,0.4671151340007782
1690462144923463347,,10954,,1690462144,923396052,"""world""",,,3.379512071609497,13.18166732788086,0.4770471155643463
1690462144923468375,,10955,,1690462144,923409577,"""world""",,,3.379427671432495,13.181624412536621,0.486878365278244
1690462144943453339,,10956,,1690462144,943394687,"""world""",,,3.3793087005615234,13.181446075439453,0.49678826332092285
1690462144953459844,,10957,,1690462144,953401709,"""world""",,,3.3792426586151123,13.181358337402344,0.5065467953681946
1690462144963457010,,10958,,1690462144,963397451,"""world""",,,3.3792285919189453,13.181195259094238,0.5164148211479187
1690462144973457432,,10959,,1690462144,973397620,"""world""",,,3.379194498062134,13.181111335754395,0.5260553359985352
1690462144983501007,,10960,,1690462144,983394758,"""world""",,,3.379009962081909,13.181012153625488,0.5358502864837646
1690462144983506107,,10961,,1690462144,983409222,"""world""",,,3.378918409347534,13.180912971496582,0.5455275177955627
1690462145003487611,,10962,,1690462145,3385186,"""world""",,,3.378816843032837,13.18084716796875,0.5551589131355286
1690462145003491683,,10963,,1690462145,3397404,"""world""",,,3.3787755966186523,13.18077564239502,0.564732015132904
1690462145023470087,,10964,,1690462145,23403911,"""world""",,,3.378710985183716,13.180645942687988,0.5742763876914978
1690462145033443752,,10965,,1690462145,33390973,"""world""",,,3.3786096572875977,13.18060302734375,0.5837472677230835
1690462145043449851,,10966,,1690462145,43393957,"""world""",,,3.378495216369629,13.18063735961914,0.593181312084198
1690462145053480832,,10967,,1690462145,53411403,"""world""",,,3.378448247909546,13.18049144744873,0.6025167107582092
1690462145063480311,,10968,,1690462145,63425494,"""world""",,,3.378208875656128,13.180511474609375,0.6118195652961731
1690462145073449250,,10969,,1690462145,73393093,"""world""",,,3.378138303756714,13.180388450622559,0.621015191078186
1690462145073453930,,10970,,1690462145,73410740,"""world""",,,3.377939462661743,13.180496215820312,0.6300515532493591
1690462145093453957,,10971,,1690462145,93399636,"""world""",,,3.3777916431427,13.180413246154785,0.6392050385475159
1690462145103436715,,10972,,1690462145,103387878,"""world""",,,3.3775947093963623,13.180418968200684,0.6481080651283264
1690462145113477139,,10973,,1690462145,113404072,"""world""",,,3.3774845600128174,13.180346488952637,0.6570562720298767
1690462145123471696,,10974,,1690462145,123402597,"""world""",,,3.3773176670074463,13.180424690246582,0.6658278107643127
1690462145133481804,,10975,,1690462145,133423930,"""world""",,,3.3771793842315674,13.180424690246582,0.6744902729988098
1690462145143455582,,10976,,1690462145,143393435,"""world""",,,3.3769643306732178,13.180427551269531,0.6830862164497375
1690462145153474163,,10977,,1690462145,153410401,"""world""",,,3.3768951892852783,13.180469512939453,0.6916444301605225
1690462145163450180,,10978,,1690462145,163395218,"""world""",,,3.37678599357605,13.1804780960083,0.6999236941337585
1690462145173499787,,10979,,1690462145,173392983,"""world""",,,3.3767051696777344,13.18059253692627,0.7082686424255371
1690462145183481756,,10980,,1690462145,183390633,"""world""",,,3.3765628337860107,13.180663108825684,0.7163346409797668
1690462145193455513,,10981,,1690462145,193398365,"""world""",,,3.3764288425445557,13.180778503417969,0.7244589924812317
1690462145203461003,,10982,,1690462145,203383785,"""world""",,,3.3763368129730225,13.180882453918457,0.7324090003967285
1690462145213502508,,10983,,1690462145,213433597,"""world""",,,3.376244306564331,13.18099594116211,0.7402704358100891
1690462145223470807,,10984,,1690462145,223404149,"""world""",,,3.3761062622070312,13.181075096130371,0.7479508519172668
1690462145233484865,,10985,,1690462145,233418381,"""world""",,,3.3759765625,13.181193351745605,0.7555668354034424
1690462145243512405,,10986,,1690462145,243422324,"""world""",,,3.375882863998413,13.181350708007812,0.7630102634429932
1690462145253503348,,10987,,1690462145,253428003,"""world""",,,3.3757359981536865,13.181620597839355,0.7703493237495422
1690462145263498846,,10988,,1690462145,263428729,"""world""",,,3.375558853149414,13.181724548339844,0.7776565551757812
1690462145273482932,,10989,,1690462145,273396356,"""world""",,,3.3754100799560547,13.181865692138672,0.7848876118659973
1690462145283517368,,10990,,1690462145,283408104,"""world""",,,3.3753602504730225,13.182036399841309,0.7918208241462708
1690462145293525837,,10991,,1690462145,293426244,"""world""",,,3.3751676082611084,13.18221378326416,0.7987594604492188
1690462145303496226,,10992,,1690462145,303409450,"""world""",,,3.3750483989715576,13.182446479797363,0.8055806159973145
1690462145313471797,,10993,,1690462145,313408547,"""world""",,,3.3748586177825928,13.18266773223877,0.8121733069419861
1690462145323470854,,10994,,1690462145,323402357,"""world""",,,3.3747494220733643,13.182902336120605,0.818768322467804
1690462145333479048,,10995,,1690462145,333389473,"""world""",,,3.3746516704559326,13.183159828186035,0.8250763416290283
1690462145343489364,,10996,,1690462145,343422956,"""world""",,,3.3745181560516357,13.18342113494873,0.8313291668891907
1690462145353499954,,10997,,1690462145,353427162,"""world""",,,3.3744029998779297,13.183712005615234,0.8374703526496887
1690462145363495411,,10998,,1690462145,363431497,"""world""",,,3.374295234680176,13.184029579162598,0.8434379696846008
1690462145373459485,,10999,,1690462145,373395966,"""world""",,,3.3741073608398438,13.18442153930664,0.8493029475212097
1690462145383494934,,11000,,1690462145,383428088,"""world""",,,3.3739864826202393,13.184783935546875,0.8550335764884949
1690462145393500376,,11001,,1690462145,393425684,"""world""",,,3.373941659927368,13.185107231140137,0.8606842160224915
1690462145393504505,,11002,,1690462145,393439835,"""world""",,,3.3738181591033936,13.185559272766113,0.866116464138031
1690462145413495798,,11003,,1690462145,413428859,"""world""",,,3.3737385272979736,13.18588638305664,0.8715526461601257
1690462145423495020,,11004,,1690462145,423397890,"""world""",,,3.373671770095825,13.1863431930542,0.8768436908721924
1690462145433455445,,11005,,1690462145,433393556,"""world""",,,3.373615264892578,13.18681812286377,0.8819459080696106
1690462145443486691,,11006,,1690462145,443407612,"""world""",,,3.3735244274139404,13.187190055847168,0.8870130181312561
1690462145453472558,,11007,,1690462145,453398040,"""world""",,,3.3734047412872314,13.18759822845459,0.8918769955635071
1690462145453476027,,11008,,1690462145,453410225,"""world""",,,3.3733479976654053,13.18797779083252,0.8965825438499451
1690462145473462716,,11009,,1690462145,473399440,"""world""",,,3.373303174972534,13.18847370147705,0.9012314677238464
1690462145483510035,,11010,,1690462145,483398799,"""world""",,,3.3731918334960938,13.188937187194824,0.9058516621589661
1690462145483519371,,11011,,1690462145,483409068,"""world""",,,3.3730571269989014,13.18940258026123,0.9104046821594238
1690462145503445964,,11012,,1690462145,503384444,"""world""",,,3.3728835582733154,13.189990043640137,0.9146739840507507
1690462145513490642,,11013,,1690462145,513400853,"""world""",,,3.372828245162964,13.190460205078125,0.9189757704734802
1690462145523490178,,11014,,1690462145,523395717,"""world""",,,3.3727991580963135,13.190779685974121,0.9231303334236145
1690462145533444726,,11015,,1690462145,533386291,"""world""",,,3.3725967407226562,13.191386222839355,0.927154004573822
1690462145543449486,,11016,,1690462145,543391677,"""world""",,,3.3725011348724365,13.191826820373535,0.9312203526496887
1690462145543453600,,11017,,1690462145,543401042,"""world""",,,3.3724281787872314,13.192368507385254,0.9350407123565674
1690462145563487858,,11018,,1690462145,563394354,"""world""",,,3.372328996658325,13.192984580993652,0.9386380314826965
1690462145573460276,,11019,,1690462145,573389917,"""world""",,,3.3723318576812744,13.193530082702637,0.9422993063926697
1690462145573469133,,11020,,1690462145,573403361,"""world""",,,3.3722012042999268,13.194121360778809,0.9459239840507507
1690462145583531597,,11021,,1690462145,583396356,"""world""",,,3.372174024581909,13.19454288482666,0.9493916630744934
1690462145603443691,,11022,,1690462145,603387371,"""world""",,,3.3720619678497314,13.195063591003418,0.9527918696403503
1690462145613484992,,11023,,1690462145,613428949,"""world""",,,3.371986150741577,13.195704460144043,0.9560237526893616
1690462145623476351,,11024,,1690462145,623409846,"""world""",,,3.3719451427459717,13.19623851776123,0.9592143893241882
1690462145633479926,,11025,,1690462145,633400380,"""world""",,,3.371936082839966,13.19686508178711,0.9623280167579651
1690462145643467036,,11026,,1690462145,643395514,"""world""",,,3.371904134750366,13.197391510009766,0.9654564261436462
1690462145643470929,,11027,,1690462145,643417785,"""world""",,,3.371852159500122,13.197955131530762,0.9683074951171875
1690462145663459449,,11028,,1690462145,663399390,"""world""",,,3.3718879222869873,13.198546409606934,0.9711968302726746
1690462145673443328,,11029,,1690462145,673383771,"""world""",,,3.371856689453125,13.199101448059082,0.9740187525749207
1690462145683460767,,11030,,1690462145,683397288,"""world""",,,3.3718574047088623,13.1996431350708,0.9767937064170837
1690462145693455683,,11031,,1690462145,693397113,"""world""",,,3.371821641921997,13.200325012207031,0.9792990684509277
1690462145703442649,,11032,,1690462145,703383200,"""world""",,,3.3717167377471924,13.200892448425293,0.9820051193237305
1690462145703446727,,11033,,1690462145,703400719,"""world""",,,3.371891736984253,13.201534271240234,0.9844439029693604
1690462145723465128,,11034,,1690462145,723397311,"""world""",,,3.3718035221099854,13.202110290527344,0.9869311451911926
1690462145733478881,,11035,,1690462145,733390301,"""world""",,,3.371922254562378,13.2027006149292,0.9892263412475586
1690462145743463619,,11036,,1690462145,743396370,"""world""",,,3.371795654296875,13.203319549560547,0.9916900992393494
1690462145753470524,,11037,,1690462145,753400816,"""world""",,,3.371837854385376,13.20389175415039,0.9937946200370789
1690462145753480079,,11038,,1690462145,753415979,"""world""",,,3.3718841075897217,13.204444885253906,0.9960576891899109
1690462145773449824,,11039,,1690462145,773388132,"""world""",,,3.3718674182891846,13.205013275146484,0.9982174038887024
1690462145783461462,,11040,,1690462145,783397699,"""world""",,,3.371885299682617,13.205703735351562,1.000224232673645
1690462145793458280,,11041,,1690462145,793397445,"""world""",,,3.3719732761383057,13.206194877624512,1.0023616552352905
1690462145803433643,,11042,,1690462145,803382500,"""world""",,,3.371993064880371,13.2068452835083,1.0043283700942993
1690462145813467840,,11043,,1690462145,813400384,"""world""",,,3.3720638751983643,13.207417488098145,1.0061968564987183
1690462145823461041,,11044,,1690462145,823397589,"""world""",,,3.372168779373169,13.207985877990723,1.0081948041915894
1690462145833483627,,11045,,1690462145,833419019,"""world""",,,3.372225522994995,13.208539009094238,1.0099252462387085
1690462145843515756,,11046,,1690462145,843433361,"""world""",,,3.372281312942505,13.209101676940918,1.0118635892868042
1690462145853479597,,11047,,1690462145,853405759,"""world""",,,3.3723678588867188,13.209799766540527,1.0136405229568481
1690462145863464169,,11048,,1690462145,863398443,"""world""",,,3.3723933696746826,13.210371971130371,1.0154433250427246
1690462145873440929,,11049,,1690462145,873383919,"""world""",,,3.372471570968628,13.210895538330078,1.0171650648117065
1690462145883484857,,11050,,1690462145,883402265,"""world""",,,3.3725414276123047,13.211554527282715,1.0189446210861206
1690462145893463627,,11051,,1690462145,893396858,"""world""",,,3.372652053833008,13.212051391601562,1.0206784009933472
1690462145893470524,,11052,,1690462145,893410767,"""world""",,,3.372713088989258,13.21268081665039,1.0223218202590942
1690462145913466534,,11053,,1690462145,913402839,"""world""",,,3.3728630542755127,13.213290214538574,1.0240163803100586
1690462145923485389,,11054,,1690462145,923405250,"""world""",,,3.373004913330078,13.213894844055176,1.0257104635238647
1690462145923490723,,11055,,1690462145,923430257,"""world""",,,3.3729851245880127,13.214615821838379,1.0272618532180786
1690462145943459777,,11056,,1690462145,943392747,"""world""",,,3.3731441497802734,13.215226173400879,1.0288758277893066
1690462145953461159,,11057,,1690462145,953389924,"""world""",,,3.3733303546905518,13.215725898742676,1.0305259227752686
1690462145953466396,,11058,,1690462145,953404088,"""world""",,,3.3733901977539062,13.21643352508545,1.032066822052002
1690462145973484692,,11059,,1690462145,973387388,"""world""",,,3.3734147548675537,13.217049598693848,1.033610224723816
1690462145983480279,,11060,,1690462145,983399963,"""world""",,,3.3735406398773193,13.217643737792969,1.0352472066879272
1690462145983490021,,11061,,1690462145,983414207,"""world""",,,3.3736917972564697,13.218241691589355,1.0367088317871094
1690462146003485546,,11062,,1690462146,3387190,"""world""",,,3.3738815784454346,13.218831062316895,1.0382871627807617
1690462146013459514,,11063,,1690462146,13398166,"""world""",,,3.3740055561065674,13.219406127929688,1.0398123264312744
1690462146023465069,,11064,,1690462146,23398174,"""world""",,,3.374187469482422,13.220038414001465,1.041298747062683
1690462146033443935,,11065,,1690462146,33388327,"""world""",,,3.3743956089019775,13.220535278320312,1.042771339416504
1690462146043461508,,11066,,1690462146,43393717,"""world""",,,3.374527931213379,13.221123695373535,1.044355869293213
1690462146043469147,,11067,,1690462146,43406373,"""world""",,,3.374685049057007,13.221749305725098,1.0457805395126343
1690462146063455580,,11068,,1690462146,63396558,"""world""",,,3.374840497970581,13.222309112548828,1.0472508668899536
1690462146073432208,,11069,,1690462146,73381798,"""world""",,,3.375033378601074,13.222846984863281,1.0487881898880005
1690462146083461676,,11070,,1690462146,83397186,"""world""",,,3.375135660171509,13.223483085632324,1.0502386093139648
1690462146093480707,,11071,,1690462146,93396295,"""world""",,,3.375272512435913,13.223949432373047,1.0517326593399048
1690462146103443899,,11072,,1690462146,103388209,"""world""",,,3.375446319580078,13.224506378173828,1.0531901121139526
1690462146113463139,,11073,,1690462146,113398195,"""world""",,,3.3756637573242188,13.225172996520996,1.0545992851257324
1690462146123478163,,11074,,1690462146,123412213,"""world""",,,3.375849485397339,13.225768089294434,1.0559718608856201
1690462146133494168,,11075,,1690462146,133427670,"""world""",,,3.376035451889038,13.22638988494873,1.0573816299438477
1690462146133501279,,11076,,1690462146,133438195,"""world""",,,3.3761959075927734,13.226977348327637,1.058946967124939
1690462146153483504,,11077,,1690462146,153408486,"""world""",,,3.3764219284057617,13.227496147155762,1.060308575630188
1690462146163488627,,11078,,1690462146,163428055,"""world""",,,3.3765342235565186,13.227989196777344,1.0617661476135254
1690462146173429337,,11079,,1690462146,173383081,"""world""",,,3.376715660095215,13.228591918945312,1.0631580352783203
1690462146183457117,,11080,,1690462146,183398337,"""world""",,,3.376976251602173,13.22922134399414,1.0645174980163574
1690462146193511636,,11081,,1690462146,193426543,"""world""",,,3.3771212100982666,13.229769706726074,1.0659784078598022
1690462146203474702,,11082,,1690462146,203410537,"""world""",,,3.3772592544555664,13.230347633361816,1.0673307180404663
1690462146213464646,,11083,,1690462146,213401989,"""world""",,,3.3773462772369385,13.23099136352539,1.0686691999435425
1690462146223462537,,11084,,1690462146,223400642,"""world""",,,3.3775923252105713,13.231491088867188,1.0701638460159302
1690462146233470571,,11085,,1690462146,233387804,"""world""",,,3.3777923583984375,13.232131958007812,1.0713921785354614
1690462146243448397,,11086,,1690462146,243388273,"""world""",,,3.3779022693634033,13.23271656036377,1.0728580951690674
1690462146253462612,,11087,,1690462146,253398790,"""world""",,,3.378026008605957,13.23328685760498,1.0741338729858398
1690462146263457733,,11088,,1690462146,263396871,"""world""",,,3.378199815750122,13.233779907226562,1.0755757093429565
1690462146273423900,,11089,,1690462146,273378644,"""world""",,,3.3783328533172607,13.234358787536621,1.0769435167312622
1690462146283457269,,11090,,1690462146,283394432,"""world""",,,3.378432512283325,13.234978675842285,1.0782557725906372
1690462146293461934,,11091,,1690462146,293398481,"""world""",,,3.3786075115203857,13.235530853271484,1.0795494318008423
1690462146293468925,,11092,,1690462146,293410751,"""world""",,,3.3787572383880615,13.2360200881958,1.0809727907180786
1690462146313458726,,11093,,1690462146,313400173,"""world""",,,3.3789241313934326,13.236656188964844,1.0823030471801758
1690462146323461276,,11094,,1690462146,323397671,"""world""",,,3.3790018558502197,13.237078666687012,1.0836480855941772
1690462146333473734,,11095,,1690462146,333386865,"""world""",,,3.3791561126708984,13.237727165222168,1.084935188293457
1690462146343447861,,11096,,1690462146,343387332,"""world""",,,3.3792502880096436,13.238326072692871,1.08625066280365
1690462146353468633,,11097,,1690462146,353400725,"""world""",,,3.3794357776641846,13.238953590393066,1.0874903202056885
1690462146363495216,,11098,,1690462146,363396754,"""world""",,,3.379641532897949,13.239460945129395,1.0888009071350098
1690462146373424832,,11099,,1690462146,373379425,"""world""",,,3.37968373298645,13.239997863769531,1.0902081727981567
1690462146383510308,,11100,,1690462146,383416247,"""world""",,,3.3797848224639893,13.240538597106934,1.091428279876709
1690462146383518121,,11101,,1690462146,383447143,"""world""",,,3.3799171447753906,13.241081237792969,1.0926424264907837
1690462146403482149,,11102,,1690462146,403419603,"""world""",,,3.3800747394561768,13.241619110107422,1.0940617322921753
1690462146413495848,,11103,,1690462146,413431725,"""world""",,,3.380182981491089,13.24221134185791,1.0953454971313477
1690462146423496336,,11104,,1690462146,423430855,"""world""",,,3.3803608417510986,13.242817878723145,1.0964943170547485
1690462146433466101,,11105,,1690462146,433399170,"""world""",,,3.3804447650909424,13.243365287780762,1.0977116823196411
